name,level,city,county,state,country,cases,deaths,recovered,tested,active,population,lat,long,url,aggregate,rating,tz,featureId,countryId,stateId,countyId,hospitalized,publishedDate
American Samoa,country,,,,American Samoa,0,0,,,,55689,-12.8,-169.6165,https://github.com/CSSEGISandData/COVID-19,county,0.47058823529411764,Etc/GMT+11,iso1:AS,iso1:AS,,,,
Guam,country,,,,Guam,112,4,,,,167772,13.445,144.7905,https://github.com/CSSEGISandData/COVID-19,county,0.47058823529411764,Pacific/Guam,iso1:GU,iso1:GU,,,,
Northern Mariana Islands,country,,,,Northern Mariana Islands,6,1,,,,55144,17.326,145.469,https://github.com/CSSEGISandData/COVID-19,county,0.47058823529411764,Etc/GMT-10,iso1:MP,iso1:MP,,,,
"Aleutians East Borough, Alaska, United States",county,,Aleutians East Borough,Alaska,United States,0,0,,,,3337,55.403239,-162.5453310518975,https://github.com/CSSEGISandData/COVID-19,county,0.5882352941176471,America/Nome,fips:02013,iso1:US,iso2:US-AK,fips:02013,,
"Aleutians West Census Area, Alaska, United States",county,,Aleutians West Census Area,Alaska,United States,0,0,,,,5634,54.224759,0.31556500000000653,https://github.com/CSSEGISandData/COVID-19,county,0.5882352941176471,Etc/GMT,fips:02016,iso1:US,iso2:US-AK,fips:02016,,
"Bethel Census Area, Alaska, United States",county,,Bethel Census Area,Alaska,United States,0,0,,,,18386,60.422242999999995,-163.057704,https://github.com/CSSEGISandData/COVID-19,county,0.5882352941176471,America/Nome,fips:02050,iso1:US,iso2:US-AK,fips:02050,,
"Bristol Bay Borough, Alaska, United States",county,,Bristol Bay Borough,Alaska,United States,0,0,,,,836,58.75125008756325,-156.78566558379651,https://github.com/CSSEGISandData/COVID-19,county,0.5882352941176471,America/Anchorage,fips:02060,iso1:US,iso2:US-AK,fips:02060,,
"Denali Borough, Alaska, United States",county,,Denali Borough,Alaska,United States,0,0,,,,2097,63.542024,-149.99877800000002,https://github.com/CSSEGISandData/COVID-19,county,0.5882352941176471,America/Anchorage,fips:02068,iso1:US,iso2:US-AK,fips:02068,,
"Dillingham Census Area, Alaska, United States",county,,Dillingham Census Area,Alaska,United States,0,0,,,,4916,59.691452,-158.6825675,https://github.com/CSSEGISandData/COVID-19,county,0.5882352941176471,America/Anchorage,fips:02070,iso1:US,iso2:US-AK,fips:02070,,
"Haines Borough, Alaska, United States",county,,Haines Borough,Alaska,United States,0,0,,,,2530,58.9599517315778,-135.408613520411,https://github.com/CSSEGISandData/COVID-19,county,0.5882352941176471,America/Juneau,fips:02100,iso1:US,iso2:US-AK,fips:02100,,
"Hoonah-Angoon Census Area, Alaska, United States",county,,Hoonah-Angoon Census Area,Alaska,United States,0,0,,,,2148,58.217178499999996,-135.297381,https://github.com/CSSEGISandData/COVID-19,county,0.5882352941176471,America/Juneau,fips:02105,iso1:US,iso2:US-AK,fips:02105,,
"Kodiak Island Borough, Alaska, United States",county,,Kodiak Island Borough,Alaska,United States,0,0,,,,12998,57.3618905,-154.29755699999998,https://github.com/CSSEGISandData/COVID-19,county,0.5882352941176471,America/Anchorage,fips:02150,iso1:US,iso2:US-AK,fips:02150,,
"Kusilvak Census Area, Alaska, United States",county,,Kusilvak Census Area,Alaska,United States,0,0,,,,8314,62.09682517393679,-163.18514249999998,https://github.com/CSSEGISandData/COVID-19,county,0.5882352941176471,America/Nome,fips:02158,iso1:US,iso2:US-AK,fips:02158,,
"Lake and Peninsula Borough, Alaska, United States",county,,Lake and Peninsula Borough,Alaska,United States,0,0,,,,1592,58.2723395,-156.6487125,https://github.com/CSSEGISandData/COVID-19,county,0.5882352941176471,America/Anchorage,fips:02164,iso1:US,iso2:US-AK,fips:02164,,
"Nome Census Area, Alaska, United States",county,,Nome Census Area,Alaska,United States,0,0,,,,10004,64.75931849999999,-165.6136745,https://github.com/CSSEGISandData/COVID-19,county,0.5882352941176471,America/Nome,fips:02180,iso1:US,iso2:US-AK,fips:02180,,
"North Slope Borough, Alaska, United States",county,,North Slope Borough,Alaska,United States,0,0,,,,9832,69.6762745,-153.9208205,https://github.com/CSSEGISandData/COVID-19,county,0.5882352941176471,America/Anchorage,fips:02185,iso1:US,iso2:US-AK,fips:02185,,
"Northwest Arctic Borough, Alaska, United States",county,,Northwest Arctic Borough,Alaska,United States,0,0,,,,7621,66.865861,-159.76639555015652,https://github.com/CSSEGISandData/COVID-19,county,0.5882352941176471,America/Anchorage,fips:02188,iso1:US,iso2:US-AK,fips:02188,,
"Prince of Wales-Hyder Census Area, Alaska, United States",county,,Prince of Wales-Hyder Census Area,Alaska,United States,0,0,,,,6203,55.883404,-132.3350765,https://github.com/CSSEGISandData/COVID-19,county,0.5882352941176471,America/Sitka,fips:02198,iso1:US,iso2:US-AK,fips:02198,,
"Sitka City and Borough, Alaska, United States",county,,Sitka City and Borough,Alaska,United States,0,0,,,,8493,57.084134,-135.493847299929,https://github.com/CSSEGISandData/COVID-19,county,0.5882352941176471,America/Sitka,fips:02220,iso1:US,iso2:US-AK,fips:02220,,
"Skagway Municipality, Alaska, United States",county,,Skagway Municipality,Alaska,United States,0,0,,,,1183,59.572194499999995,-135.3535154014475,https://github.com/CSSEGISandData/COVID-19,county,0.5882352941176471,America/Juneau,fips:02230,iso1:US,iso2:US-AK,fips:02230,,
"Valdez-Cordova Census Area, Alaska, United States",county,,Valdez-Cordova Census Area,Alaska,United States,0,0,,,,9202,61.490837,-144.8716865,https://github.com/CSSEGISandData/COVID-19,county,0.5882352941176471,America/Anchorage,fips:02261,iso1:US,iso2:US-AK,fips:02261,,
"Wrangell City and Borough, Alaska, United States",county,,Wrangell City and Borough,Alaska,United States,0,0,,,,2502,56.26856934043104,-132.0350185,https://github.com/CSSEGISandData/COVID-19,county,0.5882352941176471,America/Sitka,fips:02275,iso1:US,iso2:US-AK,fips:02275,,
"Yakutat City and Borough, Alaska, United States",county,,Yakutat City and Borough,Alaska,United States,0,0,,,,579,59.66555898581555,-140.696663,https://github.com/CSSEGISandData/COVID-19,county,0.5882352941176471,America/Yakutat,fips:02282,iso1:US,iso2:US-AK,fips:02282,,
"Bear Lake County, Idaho, United States",county,,Bear Lake County,Idaho,United States,0,0,,,,6125,42.300987290790246,-111.3407995,https://github.com/CSSEGISandData/COVID-19,county,0.5882352941176471,America/Boise,fips:16007,iso1:US,iso2:US-ID,fips:16007,,
"Benewah County, Idaho, United States",county,,Benewah County,Idaho,United States,0,0,,,,9298,47.218305,-116.6847376691355,https://github.com/CSSEGISandData/COVID-19,county,0.5882352941176471,America/Los_Angeles,fips:16009,iso1:US,iso2:US-ID,fips:16009,,
"Boise County, Idaho, United States",county,,Boise County,Idaho,United States,0,0,,,,7831,43.967600499999996,-115.624681,https://github.com/CSSEGISandData/COVID-19,county,0.5882352941176471,America/Boise,fips:16015,iso1:US,iso2:US-ID,fips:16015,,
"Boundary County, Idaho, United States",county,,Boundary County,Idaho,United States,0,0,,,,12245,48.750809,-116.54071612072951,https://github.com/CSSEGISandData/COVID-19,county,0.5882352941176471,America/Los_Angeles,fips:16021,iso1:US,iso2:US-ID,fips:16021,,
"Butte County, Idaho, United States",county,,Butte County,Idaho,United States,0,0,,,,2597,43.759401999999994,-113.24684149999999,https://github.com/CSSEGISandData/COVID-19,county,0.5882352941176471,America/Boise,fips:16023,iso1:US,iso2:US-ID,fips:16023,,
"Clark County, Idaho, United States",county,,Clark County,Idaho,United States,0,0,,,,845,44.270613499999996,-112.306192928113,https://github.com/CSSEGISandData/COVID-19,county,0.5882352941176471,America/Boise,fips:16033,iso1:US,iso2:US-ID,fips:16033,,
"Clearwater County, Idaho, United States",county,,Clearwater County,Idaho,United States,0,0,,,,8756,46.600212,-115.5252840788665,https://github.com/CSSEGISandData/COVID-19,county,0.5882352941176471,America/Los_Angeles,fips:16035,iso1:US,iso2:US-ID,fips:16035,,
"Franklin County, Idaho, United States",county,,Franklin County,Idaho,United States,0,0,,,,13876,42.2141168457069,-111.816999986714,https://github.com/CSSEGISandData/COVID-19,county,0.5882352941176471,America/Boise,fips:16041,iso1:US,iso2:US-ID,fips:16041,,
"Lemhi County, Idaho, United States",county,,Lemhi County,Idaho,United States,0,0,,,,8027,44.9673075,-113.81564750000001,https://github.com/CSSEGISandData/COVID-19,county,0.5882352941176471,America/Boise,fips:16059,iso1:US,iso2:US-ID,fips:16059,,
"Oneida County, Idaho, United States",county,,Oneida County,Idaho,United States,0,0,,,,4531,42.24981149999999,-112.535153127509,https://github.com/CSSEGISandData/COVID-19,county,0.5882352941176471,America/Boise,fips:16071,iso1:US,iso2:US-ID,fips:16071,,
"Power County, Idaho, United States",county,,Power County,Idaho,United States,0,0,,,,7681,42.7191865,-112.81157400000001,https://github.com/CSSEGISandData/COVID-19,county,0.5882352941176471,America/Boise,fips:16077,iso1:US,iso2:US-ID,fips:16077,,
"Shoshone County, Idaho, United States",county,,Shoshone County,Idaho,United States,0,0,,,,12882,47.500893999999995,-115.644459,https://github.com/CSSEGISandData/COVID-19,county,0.5882352941176471,America/Denver,fips:16079,iso1:US,iso2:US-ID,fips:16079,,
"Churchill County, Nevada, United States",county,,Churchill County,Nevada,United States,0,0,,,,24909,39.537344,-118.34398949999999,https://github.com/CSSEGISandData/COVID-19,county,0.5882352941176471,America/Los_Angeles,fips:32001,iso1:US,iso2:US-NV,fips:32001,,
"Esmeralda County, Nevada, United States",county,,Esmeralda County,Nevada,United States,0,0,,,,873,37.72251048219175,-117.796282681924,https://github.com/CSSEGISandData/COVID-19,county,0.5882352941176471,America/Los_Angeles,fips:32009,iso1:US,iso2:US-NV,fips:32009,,
"Eureka County, Nevada, United States",county,,Eureka County,Nevada,United States,0,0,,,,2029,40.080813,-116.19790549999999,https://github.com/CSSEGISandData/COVID-19,county,0.5882352941176471,America/Los_Angeles,fips:32011,iso1:US,iso2:US-NV,fips:32011,,
"Lander County, Nevada, United States",county,,Lander County,Nevada,United States,0,0,,,,5532,40.04691149999999,-117.194163,https://github.com/CSSEGISandData/COVID-19,county,0.5882352941176471,America/Los_Angeles,fips:32015,iso1:US,iso2:US-NV,fips:32015,,
"Lincoln County, Nevada, United States",county,,Lincoln County,Nevada,United States,0,0,,,,5183,37.759757,-114.972699,https://github.com/CSSEGISandData/COVID-19,county,0.5882352941176471,America/Los_Angeles,fips:32017,iso1:US,iso2:US-NV,fips:32017,,
"Mineral County, Nevada, United States",county,,Mineral County,Nevada,United States,0,0,,,,4505,38.4841675,-118.42400187688301,https://github.com/CSSEGISandData/COVID-19,county,0.5882352941176471,America/Los_Angeles,fips:32021,iso1:US,iso2:US-NV,fips:32021,,
"Pershing County, Nevada, United States",county,,Pershing County,Nevada,United States,0,0,,,,6725,40.4797295,-118.3196335,https://github.com/CSSEGISandData/COVID-19,county,0.5882352941176471,America/Los_Angeles,fips:32027,iso1:US,iso2:US-NV,fips:32027,,
"White Pine County, Nevada, United States",county,,White Pine County,Nevada,United States,1,0,,,,9580,39.402609999999996,-114.977001,https://github.com/CSSEGISandData/COVID-19,county,0.5882352941176471,America/Los_Angeles,fips:32033,iso1:US,iso2:US-NV,fips:32033,,
"New York County, New York, United States",county,,New York County,New York,United States,67551,2256,,,,1628706,40.78128852282385,-73.9771425,https://github.com/CSSEGISandData/COVID-19,county,0.5882352941176471,America/New_York,fips:36061,iso1:US,iso2:US-NY,fips:36061,,
"Beaver County, Utah, United States",county,,Beaver County,Utah,United States,0,0,,,,6710,38.360196729150445,-113.192933,https://github.com/CSSEGISandData/COVID-19,county,0.5882352941176471,America/Denver,fips:49001,iso1:US,iso2:US-UT,fips:49001,,
"Daggett County, Utah, United States",county,,Daggett County,Utah,United States,0,0,,,,950,40.832222,-109.5245419871205,https://github.com/CSSEGISandData/COVID-19,county,0.5882352941176471,America/Denver,fips:49009,iso1:US,iso2:US-UT,fips:49009,,
"Piute County, Utah, United States",county,,Piute County,Utah,United States,0,0,,,,1479,38.328869499999996,-112.1429575,https://github.com/CSSEGISandData/COVID-19,county,0.5882352941176471,America/Denver,fips:49031,iso1:US,iso2:US-UT,fips:49031,,
"Rich County, Utah, United States",county,,Rich County,Utah,United States,0,0,,,,2483,41.572224,-111.2787905,https://github.com/CSSEGISandData/COVID-19,county,0.5882352941176471,America/Denver,fips:49033,iso1:US,iso2:US-UT,fips:49033,,
"Sanpete County, Utah, United States",county,,Sanpete County,Utah,United States,0,0,,,,30939,39.422646,-111.631697,https://github.com/CSSEGISandData/COVID-19,county,0.5882352941176471,America/Denver,fips:49039,iso1:US,iso2:US-UT,fips:49039,,
"Sevier County, Utah, United States",county,,Sevier County,Utah,United States,0,0,,,,21620,38.773833499999995,-111.910367,https://github.com/CSSEGISandData/COVID-19,county,0.5882352941176471,America/Denver,fips:49041,iso1:US,iso2:US-UT,fips:49041,,
"Wayne County, Utah, United States",county,,Wayne County,Utah,United States,0,0,,,,2711,38.330128,-110.86695549999999,https://github.com/CSSEGISandData/COVID-19,county,0.5882352941176471,America/Denver,fips:49055,iso1:US,iso2:US-UT,fips:49055,,
"Essex County, Vermont, United States",county,,Essex County,Vermont,United States,0,0,,,,6163,44.6806911178554,-71.71967849999999,https://github.com/CSSEGISandData/COVID-19,county,0.5882352941176471,America/New_York,fips:50009,iso1:US,iso2:US-VT,fips:50009,,
"Grand Isle County, Vermont, United States",county,,Grand Isle County,Vermont,United States,0,0,,,,7235,44.7885695424674,-73.29107955019444,https://github.com/CSSEGISandData/COVID-19,county,0.5882352941176471,America/New_York,fips:50013,iso1:US,iso2:US-VT,fips:50013,,
Afghanistan,country,,,,Afghanistan,349,7,15,,327,34940837,33.934,67.70400000000001,https://github.com/CSSEGISandData/COVID-19,country,0.5490196078431373,Asia/Kabul,iso1:AF,iso1:AF,,,,
Albania,country,,,,Albania,361,20,104,,237,2873457,41.1555,20.1605,https://github.com/CSSEGISandData/COVID-19,country,0.5490196078431373,Europe/Tirane,iso1:AL,iso1:AL,,,,
Algeria,country,,,,Algeria,1320,152,90,,1078,41318142,28.03,1.6639999999999997,https://github.com/CSSEGISandData/COVID-19,country,0.5490196078431373,Africa/Algiers,iso1:DZ,iso1:DZ,,,,
Andorra,country,,,,Andorra,501,18,26,,457,76177,42.545,1.601,https://github.com/CSSEGISandData/COVID-19,country,0.5490196078431373,Europe/Andorra,iso1:AD,iso1:AD,,,,
Angola,country,,,,Angola,14,2,2,,10,29784193,-11.2135,17.8785,https://github.com/CSSEGISandData/COVID-19,country,0.5490196078431373,Africa/Luanda,iso1:AO,iso1:AO,,,,
Antigua and Barbuda,country,,,,Antigua and Barbuda,15,0,0,,15,102012,17.333,-62.0095,https://github.com/CSSEGISandData/COVID-19,country,0.5490196078431373,Etc/GMT+4,iso1:AG,iso1:AG,,,,
Argentina,country,,,,Argentina,1451,44,280,,1127,44938712,-38.4275,-63.599500000000006,https://github.com/CSSEGISandData/COVID-19,country,0.5490196078431373,America/Argentina/Salta,iso1:AR,iso1:AR,,,,
Armenia,country,,,,Armenia,822,7,57,,758,2930450,40.070499999999996,45.040000000000006,https://github.com/CSSEGISandData/COVID-19,country,0.5490196078431373,Asia/Yerevan,iso1:AM,iso1:AM,,,,
Austria,country,,,,Austria,12051,204,2998,,8849,8809212,47.696,13.346,https://github.com/CSSEGISandData/COVID-19,country,0.5490196078431373,Europe/Vienna,iso1:AT,iso1:AT,,,,
Azerbaijan,country,,,,Azerbaijan,584,7,32,,545,10000000,40.1505,47.810500000000005,https://github.com/CSSEGISandData/COVID-19,country,0.5490196078431373,Asia/Baku,iso1:AZ,iso1:AZ,,,,
The Bahamas,country,,,,The Bahamas,28,4,0,,24,395361,24.0925,-76.5975,https://github.com/CSSEGISandData/COVID-19,country,0.5490196078431373,America/Nassau,iso1:BS,iso1:BS,,,,
Bahrain,country,,,,Bahrain,700,4,431,,265,1492584,26.029,50.6055,https://github.com/CSSEGISandData/COVID-19,country,0.5490196078431373,Asia/Bahrain,iso1:BH,iso1:BH,,,,
Bangladesh,country,,,,Bangladesh,88,9,33,,46,164669751,23.6125,90.344,https://github.com/CSSEGISandData/COVID-19,country,0.5490196078431373,Asia/Dhaka,iso1:BD,iso1:BD,,,,
Barbados,country,,,,Barbados,56,1,6,,49,285719,13.1935,-59.5355,https://github.com/CSSEGISandData/COVID-19,country,0.5490196078431373,America/Barbados,iso1:BB,iso1:BB,,,,
Belarus,country,,,,Belarus,562,8,52,,502,9504700,53.716499999999996,27.9675,https://github.com/CSSEGISandData/COVID-19,country,0.5490196078431373,Europe/Minsk,iso1:BY,iso1:BY,,,,
Belgium,country,,,,Belgium,19691,1447,3751,,14493,11372068,50.501000000000005,4.475,https://github.com/CSSEGISandData/COVID-19,country,0.5490196078431373,Europe/Brussels,iso1:BE,iso1:BE,,,,
Benin,country,,,,Benin,22,0,5,,17,11175692,9.321,2.311,https://github.com/CSSEGISandData/COVID-19,country,0.5490196078431373,Africa/Porto-Novo,iso1:BJ,iso1:BJ,,,,
Bhutan,country,,,,Bhutan,5,0,2,,3,807610,27.4745,90.4335,https://github.com/CSSEGISandData/COVID-19,country,0.5490196078431373,Asia/Thimphu,iso1:BT,iso1:BT,,,,
Bolivia,country,,,,Bolivia,157,10,2,,145,11051600,-16.2835,-63.5475,https://github.com/CSSEGISandData/COVID-19,country,0.5490196078431373,America/La_Paz,iso1:BO,iso1:BO,,,,
Bosnia and Herzegovina,country,,,,Bosnia and Herzegovina,654,23,30,,601,3507017,43.916,17.673499999999997,https://github.com/CSSEGISandData/COVID-19,country,0.5490196078431373,Europe/Sarajevo,iso1:BA,iso1:BA,,,,
Brunei,country,,,,Brunei,135,1,73,,61,428697,4.5245,114.7195,https://github.com/CSSEGISandData/COVID-19,country,0.5490196078431373,Asia/Brunei,iso1:BN,iso1:BN,,,,
Bulgaria,country,,,,Bulgaria,531,20,37,,474,7000039,42.726,25.4825,https://github.com/CSSEGISandData/COVID-19,country,0.5490196078431373,Europe/Sofia,iso1:BG,iso1:BG,,,,
Burkina Faso,country,,,,Burkina Faso,345,17,90,,238,19193382,12.248000000000001,-1.552,https://github.com/CSSEGISandData/COVID-19,country,0.5490196078431373,Africa/Ouagadougou,iso1:BF,iso1:BF,,,,
Cape Verde,country,,,,Cape Verde,7,1,0,,6,546388,15.999,-24.0135,https://github.com/CSSEGISandData/COVID-19,country,0.5490196078431373,Atlantic/Cape_Verde,iso1:CV,iso1:CV,,,,
Cambodia,country,,,,Cambodia,114,0,50,,64,16005373,12.307500000000001,104.981,https://github.com/CSSEGISandData/COVID-19,country,0.5490196078431373,Asia/Phnom_Penh,iso1:KH,iso1:KH,,,,
Cameroon,country,,,,Cameroon,650,9,17,,624,24053727,7.366,12.3445,https://github.com/CSSEGISandData/COVID-19,country,0.5490196078431373,Africa/Douala,iso1:CM,iso1:CM,,,,
Central African Republic,country,,,,Central African Republic,8,0,0,,8,4659080,6.603,20.941000000000003,https://github.com/CSSEGISandData/COVID-19,country,0.5490196078431373,Africa/Bangui,iso1:CF,iso1:CF,,,,
Chad,country,,,,Chad,9,0,0,,9,15228584,15.4695,18.7365,https://github.com/CSSEGISandData/COVID-19,country,0.5490196078431373,Africa/Ndjamena,iso1:TD,iso1:TD,,,,
Chile,country,,,,Chile,4471,34,618,,3819,18054726,-37.018,-87.938,https://github.com/CSSEGISandData/COVID-19,country,0.5490196078431373,Etc/GMT+6,iso1:CL,iso1:CL,,,,
"Anhui, China",state,,,Anhui,China,990,6,984,,0,,32.0255,117.25649999999999,https://github.com/CSSEGISandData/COVID-19,state,0.5882352941176471,Asia/Shanghai,iso2:CN-AH,iso1:CN,iso2:CN-AH,,,
"Beijing, China",state,,,Beijing,China,586,8,441,,137,21710000,40.247,116.464,https://github.com/CSSEGISandData/COVID-19,state,0.5882352941176471,Asia/Shanghai,iso2:CN-BJ,iso1:CN,iso2:CN-BJ,,,
"Chongqing, China",state,,,Chongqing,China,579,6,570,,3,7990000,30.183,107.7425,https://github.com/CSSEGISandData/COVID-19,state,0.5882352941176471,Asia/Shanghai,iso2:CN-CQ,iso1:CN,iso2:CN-CQ,,,
"Fujian, China",state,,,Fujian,China,350,1,303,,46,36894216,25.924500000000002,118.2875,https://github.com/CSSEGISandData/COVID-19,state,0.5882352941176471,Asia/Shanghai,iso2:CN-FJ,iso1:CN,iso2:CN-FJ,,,
"Gansu, China",state,,,Gansu,China,138,2,131,,5,25575254,37.6965,100.525,https://github.com/CSSEGISandData/COVID-19,state,0.5882352941176471,Asia/Shanghai,iso2:CN-GS,iso1:CN,iso2:CN-GS,,,
"Guangdong, China",state,,,Guangdong,China,1524,8,1387,,129,,22.8685,113.4885,https://github.com/CSSEGISandData/COVID-19,state,0.5882352941176471,Asia/Shanghai,iso2:CN-GD,iso1:CN,iso2:CN-GD,,,
"Guangxi, China",state,,,Guangxi,China,254,2,252,,0,46026629,23.643500000000003,108.27250000000001,https://github.com/CSSEGISandData/COVID-19,state,0.5882352941176471,Asia/Shanghai,iso2:CN-GX,iso1:CN,iso2:CN-GX,,,
"Guizhou, China",state,,,Guizhou,China,146,2,144,,0,,26.921999999999997,106.5875,https://github.com/CSSEGISandData/COVID-19,state,0.5882352941176471,Asia/Shanghai,iso2:CN-GZ,iso1:CN,iso2:CN-GZ,,,
"Hainan, China",state,,,Hainan,China,168,6,162,,0,9171300,14.5155,112.068,https://github.com/CSSEGISandData/COVID-19,state,0.5882352941176471,Etc/GMT-7,iso2:CN-HI,iso1:CN,iso2:CN-HI,,,
"Hebei, China",state,,,Hebei,China,327,6,310,,11,71854202,39.3345,116.6525,https://github.com/CSSEGISandData/COVID-19,state,0.5882352941176471,Asia/Shanghai,iso2:CN-HE,iso1:CN,iso2:CN-HE,,,
"Heilongjiang, China",state,,,Heilongjiang,China,504,13,469,,22,38312224,48.4915,127.9795,https://github.com/CSSEGISandData/COVID-19,state,0.5882352941176471,Asia/Shanghai,iso2:CN-HL,iso1:CN,iso2:CN-HL,,,
"Henan, China",state,,,Henan,China,1276,22,1251,,3,,33.873999999999995,113.499,https://github.com/CSSEGISandData/COVID-19,state,0.5882352941176471,Asia/Shanghai,iso2:CN-HA,iso1:CN,iso2:CN-HA,,,
Hong Kong,country,,,,Hong Kong,890,4,206,,680,7500700,22.3575,114.1325,https://github.com/CSSEGISandData/COVID-19,country,0.5490196078431373,Asia/Hong_Kong,iso1:HK,iso1:HK,,,,
"Hubei, China",state,,,Hubei,China,67803,3210,63945,,648,58160000,31.155,112.249,https://github.com/CSSEGISandData/COVID-19,state,0.5882352941176471,Asia/Shanghai,iso2:CN-HB,iso1:CN,iso2:CN-HB,,,
"Hunan, China",state,,,Hunan,China,1019,4,1014,,1,65683722,27.386499999999998,111.518,https://github.com/CSSEGISandData/COVID-19,state,0.5882352941176471,Asia/Shanghai,iso2:CN-HN,iso1:CN,iso2:CN-HN,,,
"Inner Mongolia, China",state,,,Inner Mongolia,China,117,1,74,,42,24706321,45.37,111.61949999999999,https://github.com/CSSEGISandData/COVID-19,state,0.5882352941176471,Asia/Ulaanbaatar,iso2:CN-NM,iso1:CN,iso2:CN-NM,,,
"Jiangsu, China",state,,,Jiangsu,China,651,0,633,,18,78659903,32.9515,119.1565,https://github.com/CSSEGISandData/COVID-19,state,0.5882352941176471,Asia/Shanghai,iso2:CN-JS,iso1:CN,iso2:CN-JS,,,
"Jiangxi, China",state,,,Jiangxi,China,937,1,935,,1,44567475,27.2845,116.02600000000001,https://github.com/CSSEGISandData/COVID-19,state,0.5882352941176471,Asia/Shanghai,iso2:CN-JX,iso1:CN,iso2:CN-JX,,,
"Jilin, China",state,,,Jilin,China,98,1,92,,5,27462297,43.5835,126.4735,https://github.com/CSSEGISandData/COVID-19,state,0.5882352941176471,Asia/Shanghai,iso2:CN-JL,iso1:CN,iso2:CN-JL,,,
"Liaoning, China",state,,,Liaoning,China,142,2,126,,14,43746323,41.1065,122.3125,https://github.com/CSSEGISandData/COVID-19,state,0.5882352941176471,Asia/Shanghai,iso2:CN-LN,iso1:CN,iso2:CN-LN,,,
Macau,country,,,,Macau,44,0,10,,34,642900,22.1645,113.56049999999999,https://github.com/CSSEGISandData/COVID-19,country,0.5490196078431373,Asia/Macau,iso1:MO,iso1:MO,,,,
"Ningxia, China",state,,,Ningxia,China,75,0,75,,0,6301350,37.31,105.9685,https://github.com/CSSEGISandData/COVID-19,state,0.5882352941176471,Asia/Shanghai,iso2:CN-NX,iso1:CN,iso2:CN-NX,,,
"Qinghai, China",state,,,Qinghai,China,18,0,18,,0,5930000,35.408,96.2355,https://github.com/CSSEGISandData/COVID-19,state,0.5882352941176471,Asia/Shanghai,iso2:CN-QH,iso1:CN,iso2:CN-QH,,,
"Shaanxi, China",state,,,Shaanxi,China,256,3,245,,8,37327378,35.638000000000005,108.36850000000001,https://github.com/CSSEGISandData/COVID-19,state,0.5882352941176471,Asia/Shanghai,iso2:CN-SN,iso1:CN,iso2:CN-SN,,,
"Shandong, China",state,,,Shandong,China,779,7,755,,17,95793065,36.3805,118.7625,https://github.com/CSSEGISandData/COVID-19,state,0.5882352941176471,Asia/Shanghai,iso2:CN-SD,iso1:CN,iso2:CN-SD,,,
"Shanghai, China",state,,,Shanghai,China,531,6,383,,142,23390000,31.281,121.5455,https://github.com/CSSEGISandData/COVID-19,state,0.5882352941176471,Asia/Shanghai,iso2:CN-SH,iso1:CN,iso2:CN-SH,,,
"Shanxi, China",state,,,Shanxi,China,138,0,133,,5,36500000,37.664500000000004,112.393,https://github.com/CSSEGISandData/COVID-19,state,0.5882352941176471,Asia/Shanghai,iso2:CN-SX,iso1:CN,iso2:CN-SX,,,
"Sichuan, China",state,,,Sichuan,China,558,3,539,,16,81100000,30.18,102.9485,https://github.com/CSSEGISandData/COVID-19,state,0.5882352941176471,Asia/Shanghai,iso2:CN-SC,iso1:CN,iso2:CN-SC,,,
"Tianjin, China",state,,,Tianjin,China,180,3,144,,33,13245000,39.403499999999994,117.3785,https://github.com/CSSEGISandData/COVID-19,state,0.5882352941176471,Asia/Shanghai,iso2:CN-TJ,iso1:CN,iso2:CN-TJ,,,
"Tibet, China",state,,,Tibet,China,1,0,1,,0,3180000,31.8945,88.75450000000001,https://github.com/CSSEGISandData/COVID-19,state,0.5882352941176471,Asia/Shanghai,iso2:CN-XZ,iso1:CN,iso2:CN-XZ,,,
"Xinjiang, China",state,,,Xinjiang,China,76,3,73,,0,21813334,41.7555,84.9435,https://github.com/CSSEGISandData/COVID-19,state,0.5882352941176471,"Asia/Urumqi,Asia/Shanghai",iso2:CN-XJ,iso1:CN,iso2:CN-XJ,,,
"Yunnan, China",state,,,Yunnan,China,184,2,172,,10,,25.184,101.85849999999999,https://github.com/CSSEGISandData/COVID-19,state,0.5882352941176471,Asia/Shanghai,iso2:CN-YN,iso1:CN,iso2:CN-YN,,,
"Zhejiang, China",state,,,Zhejiang,China,1263,1,1230,,32,56570000,29.113500000000002,120.589,https://github.com/CSSEGISandData/COVID-19,state,0.5882352941176471,Asia/Shanghai,iso2:CN-ZJ,iso1:CN,iso2:CN-ZJ,,,
Colombia,country,,,,Colombia,1485,35,88,,1362,49065615,5.827999999999999,-74.3535,https://github.com/CSSEGISandData/COVID-19,country,0.5490196078431373,America/Bogota,iso1:CO,iso1:CO,,,,
Congo-Brazzaville,country,,,,Congo-Brazzaville,45,5,2,,38,5260750,-0.6660000000000001,14.884999999999998,https://github.com/CSSEGISandData/COVID-19,country,0.5490196078431373,Africa/Brazzaville,iso1:CG,iso1:CG,,,,
Democratic Republic of the Congo,country,,,,Democratic Republic of the Congo,154,18,3,,133,86790567,-4.0405,21.7395,https://github.com/CSSEGISandData/COVID-19,country,0.5490196078431373,Africa/Lubumbashi,iso1:CD,iso1:CD,,,,
Costa Rica,country,,,,Costa Rica,454,2,16,,436,4905769,8.3595,-84.82650000000001,https://github.com/CSSEGISandData/COVID-19,country,0.5490196078431373,Etc/GMT+6,iso1:CR,iso1:CR,,,,
Côte d'Ivoire,country,,,,Côte d'Ivoire,261,3,37,,221,24294750,7.551,-5.547000000000001,https://github.com/CSSEGISandData/COVID-19,country,0.5490196078431373,Africa/Abidjan,iso1:CI,iso1:CI,,,,
Croatia,country,,,,Croatia,1182,15,125,,1042,4105493,44.462,16.4685,https://github.com/CSSEGISandData/COVID-19,country,0.5490196078431373,Europe/Sarajevo,iso1:HR,iso1:HR,,,,
Cuba,country,,,,Cuba,320,8,15,,297,11484636,21.5485,-79.5415,https://github.com/CSSEGISandData/COVID-19,country,0.5490196078431373,America/Havana,iso1:CU,iso1:CU,,,,
Cyprus,country,,,,Cyprus,446,9,37,,400,1141166,35.1695,33.441,https://github.com/CSSEGISandData/COVID-19,country,0.5490196078431373,Asia/Famagusta,iso1:CY,iso1:CY,,,,
Czechia,country,,,,Czechia,4587,67,96,,4424,10649800,49.805,15.474499999999999,https://github.com/CSSEGISandData/COVID-19,country,0.5490196078431373,Europe/Prague,iso1:CZ,iso1:CZ,,,,
Greenland,country,,,,Greenland,11,0,3,,8,56081,71.7045,-42.3805,https://github.com/CSSEGISandData/COVID-19,country,0.5490196078431373,America/Godthab,iso1:GL,iso1:GL,,,,
Denmark,country,,,,Denmark,4369,179,1327,,2863,5827463,56.153,11.6375,https://github.com/CSSEGISandData/COVID-19,country,0.5490196078431373,Europe/Copenhagen,iso1:DK,iso1:DK,,,,
Djibouti,country,,,,Djibouti,59,0,9,,50,956985,11.815000000000001,42.611000000000004,https://github.com/CSSEGISandData/COVID-19,country,0.5490196078431373,Africa/Djibouti,iso1:DJ,iso1:DJ,,,,
Dominican Republic,country,,,,Dominican Republic,1745,82,17,,1646,10403761,18.7025,-70.168,https://github.com/CSSEGISandData/COVID-19,country,0.5490196078431373,America/Santo_Domingo,iso1:DO,iso1:DO,,,,
Ecuador,country,,,,Ecuador,3646,180,100,,3366,16624858,-1.6700000000000002,-83.5975,https://github.com/CSSEGISandData/COVID-19,country,0.5490196078431373,Etc/GMT+6,iso1:EC,iso1:EC,,,,
Egypt,country,,,,Egypt,1173,78,247,,848,94798827,26.8355,30.7715,https://github.com/CSSEGISandData/COVID-19,country,0.5490196078431373,Africa/Cairo,iso1:EG,iso1:EG,,,,
El Salvador,country,,,,El Salvador,62,3,2,,57,6427479,13.8045,-88.91,https://github.com/CSSEGISandData/COVID-19,country,0.5490196078431373,America/El_Salvador,iso1:SV,iso1:SV,,,,
Equatorial Guinea,country,,,,Equatorial Guinea,16,0,1,,15,1267689,1.1504999999999999,8.4885,https://github.com/CSSEGISandData/COVID-19,country,0.5490196078431373,Etc/GMT-1,iso1:GQ,iso1:GQ,,,,
Eritrea,country,,,,Eritrea,29,0,0,,29,3497117,15.192,39.785,https://github.com/CSSEGISandData/COVID-19,country,0.5490196078431373,Africa/Asmara,iso1:ER,iso1:ER,,,,
Estonia,country,,,,Estonia,1097,15,62,,1020,1328360,58.668000000000006,24.989,https://github.com/CSSEGISandData/COVID-19,country,0.5490196078431373,Europe/Tallinn,iso1:EE,iso1:EE,,,,
Eswatini,country,,,,Eswatini,9,0,0,,9,1367254,-26.518500000000003,31.463,https://github.com/CSSEGISandData/COVID-19,country,0.5490196078431373,Africa/Mbabane,iso1:SZ,iso1:SZ,,,,
Ethiopia,country,,,,Ethiopia,43,2,4,,37,104957438,9.1455,40.489999999999995,https://github.com/CSSEGISandData/COVID-19,country,0.5490196078431373,Africa/Addis_Ababa,iso1:ET,iso1:ET,,,,
Fiji,country,,,,Fiji,12,0,0,,12,905502,-16.7555,0,https://github.com/CSSEGISandData/COVID-19,country,0.5490196078431373,Etc/GMT,iso1:FJ,iso1:FJ,,,,
Finland,country,,,,Finland,1927,28,300,,1599,5516224,64.798,25.3595,https://github.com/CSSEGISandData/COVID-19,country,0.5490196078431373,Europe/Helsinki,iso1:FI,iso1:FI,,,,
Gabon,country,,,,Gabon,21,1,1,,19,2025137,-0.812,11.55,https://github.com/CSSEGISandData/COVID-19,country,0.5490196078431373,Africa/Libreville,iso1:GA,iso1:GA,,,,
The Gambia,country,,,,The Gambia,4,1,2,,1,2100568,13.443999999999999,-15.311,https://github.com/CSSEGISandData/COVID-19,country,0.5490196078431373,Africa/Banjul,iso1:GM,iso1:GM,,,,
Georgia,country,,,,Georgia,174,2,36,,136,3717100,42.322,43.3685,https://github.com/CSSEGISandData/COVID-19,country,0.5490196078431373,Asia/Tbilisi,iso1:GE,iso1:GE,,,,
Germany,country,,,,Germany,100123,1584,28700,,69839,82979100,51.1555,10.452,https://github.com/CSSEGISandData/COVID-19,country,0.5490196078431373,Europe/Berlin,iso1:DE,iso1:DE,,,,
Ghana,country,,,,Ghana,214,5,31,,178,26908262,7.960000000000001,-1.0295,https://github.com/CSSEGISandData/COVID-19,country,0.5490196078431373,Africa/Accra,iso1:GH,iso1:GH,,,,
Greece,country,,,,Greece,1735,73,78,,1584,10760421,38.2755,24.503,https://github.com/CSSEGISandData/COVID-19,country,0.5490196078431373,Europe/Athens,iso1:GR,iso1:GR,,,,
Guatemala,country,,,,Guatemala,61,2,15,,44,17263239,15.781500000000001,-90.22800000000001,https://github.com/CSSEGISandData/COVID-19,country,0.5490196078431373,America/Guatemala,iso1:GT,iso1:GT,,,,
Guinea,country,,,,Guinea,121,0,5,,116,12717176,9.938,-11.5015,https://github.com/CSSEGISandData/COVID-19,country,0.5490196078431373,Africa/Freetown,iso1:GN,iso1:GN,,,,
Guyana,country,,,,Guyana,24,4,0,,20,777859,4.851,-58.939,https://github.com/CSSEGISandData/COVID-19,country,0.5490196078431373,America/Guyana,iso1:GY,iso1:GY,,,,
Haiti,country,,,,Haiti,21,1,1,,19,10981229,19.0565,-73.32849999999999,https://github.com/CSSEGISandData/COVID-19,country,0.5490196078431373,America/Port-au-Prince,iso1:HT,iso1:HT,,,,
Vatican City,country,,,,Vatican City,7,0,0,,7,1000,41.902,12.446,https://github.com/CSSEGISandData/COVID-19,country,0.5490196078431373,Europe/Vatican,iso1:VA,iso1:VA,,,,
Honduras,country,,,,Honduras,268,22,6,,240,9265067,15.199,-85.883,https://github.com/CSSEGISandData/COVID-19,country,0.5490196078431373,America/Tegucigalpa,iso1:HN,iso1:HN,,,,
Hungary,country,,,,Hungary,733,34,66,,633,9772756,47.161,19.506,https://github.com/CSSEGISandData/COVID-19,country,0.5490196078431373,Europe/Budapest,iso1:HU,iso1:HU,,,,
Iceland,country,,,,Iceland,1486,4,428,,1054,357050,65.223,-18.905,https://github.com/CSSEGISandData/COVID-19,country,0.5490196078431373,Atlantic/Reykjavik,iso1:IS,iso1:IS,,,,
India,country,,,,India,3588,99,229,,3260,1349217956,21.2135,82.786,https://github.com/CSSEGISandData/COVID-19,country,0.5490196078431373,Asia/Kolkata,iso1:IN,iso1:IN,,,,
Indonesia,country,,,,Indonesia,2273,198,164,,1911,263991379,-2.4669999999999996,118.0155,https://github.com/CSSEGISandData/COVID-19,country,0.5490196078431373,Asia/Makassar,iso1:ID,iso1:ID,,,,
Iran,country,,,,Iran,58226,3603,19736,,34887,79966230,32.421,53.685,https://github.com/CSSEGISandData/COVID-19,country,0.5490196078431373,Asia/Tehran,iso1:IR,iso1:IR,,,,
Iraq,country,,,,Iraq,961,61,279,,621,38274618,33.22,43.704499999999996,https://github.com/CSSEGISandData/COVID-19,country,0.5490196078431373,Asia/Baghdad,iso1:IQ,iso1:IQ,,,,
Ireland,country,,,,Ireland,4994,158,25,,4811,4813608,53.4095,-8.343,https://github.com/CSSEGISandData/COVID-19,country,0.5490196078431373,Europe/Dublin,iso1:IE,iso1:IE,,,,
Israel,country,,,,Israel,8430,49,477,,7904,9093000,31.4135,35.081,https://github.com/CSSEGISandData/COVID-19,country,0.5490196078431373,"Asia/Jerusalem,Asia/Hebron",iso1:IL,iso1:IL,,,,
Jamaica,country,,,,Jamaica,58,3,8,,47,2890299,17.7735,-77.1705,https://github.com/CSSEGISandData/COVID-19,country,0.5490196078431373,America/Jamaica,iso1:JM,iso1:JM,,,,
Japan,country,,,,Japan,3139,77,514,,2548,124776364,32.9745,138.4625,https://github.com/CSSEGISandData/COVID-19,country,0.5490196078431373,Etc/GMT-9,iso1:JP,iso1:JP,,,,
Jordan,country,,,,Jordan,345,5,110,,230,10428241,31.279,37.131,https://github.com/CSSEGISandData/COVID-19,country,0.5490196078431373,Asia/Amman,iso1:JO,iso1:JO,,,,
Kazakhstan,country,,,,Kazakhstan,584,6,42,,536,18037646,48.0055,66.9045,https://github.com/CSSEGISandData/COVID-19,country,0.5490196078431373,Asia/Almaty,iso1:KZ,iso1:KZ,,,,
Kenya,country,,,,Kenya,142,4,4,,134,48468138,-0.058000000000000274,37.9085,https://github.com/CSSEGISandData/COVID-19,country,0.5490196078431373,Africa/Nairobi,iso1:KE,iso1:KE,,,,
South Korea,country,,,,South Korea,10237,183,6463,,3591,51466201,35.8695,128.242,https://github.com/CSSEGISandData/COVID-19,country,0.5490196078431373,Asia/Seoul,iso1:KR,iso1:KR,,,,
Kuwait,country,,,,Kuwait,556,1,99,,456,4136528,29.314,47.665499999999994,https://github.com/CSSEGISandData/COVID-19,country,0.5490196078431373,Asia/Kuwait,iso1:KW,iso1:KW,,,,
Kyrgyzstan,country,,,,Kyrgyzstan,147,1,9,,137,6201500,41.225,74.7485,https://github.com/CSSEGISandData/COVID-19,country,0.5490196078431373,Asia/Bishkek,iso1:KG,iso1:KG,,,,
Latvia,country,,,,Latvia,533,1,1,,531,1909000,56.8795,24.606,https://github.com/CSSEGISandData/COVID-19,country,0.5490196078431373,Europe/Riga,iso1:LV,iso1:LV,,,,
Lebanon,country,,,,Lebanon,527,18,54,,455,6100075,33.870000000000005,35.8645,https://github.com/CSSEGISandData/COVID-19,country,0.5490196078431373,Asia/Beirut,iso1:LB,iso1:LB,,,,
Liberia,country,,,,Liberia,13,3,3,,7,4731906,6.452500000000001,-9.439499999999999,https://github.com/CSSEGISandData/COVID-19,country,0.5490196078431373,Africa/Monrovia,iso1:LR,iso1:LR,,,,
Liechtenstein,country,,,,Liechtenstein,77,1,0,,76,37922,47.16,9.553999999999998,https://github.com/CSSEGISandData/COVID-19,country,0.5490196078431373,Europe/Vaduz,iso1:LI,iso1:LI,,,,
Lithuania,country,,,,Lithuania,811,13,7,,791,2794329,55.172,23.893,https://github.com/CSSEGISandData/COVID-19,country,0.5490196078431373,Europe/Vilnius,iso1:LT,iso1:LT,,,,
Luxembourg,country,,,,Luxembourg,2804,36,500,,2268,613900,49.8155,6.1335,https://github.com/CSSEGISandData/COVID-19,country,0.5490196078431373,Europe/Luxembourg,iso1:LU,iso1:LU,,,,
Madagascar,country,,,,Madagascar,72,0,2,,70,25570895,-18.7785,46.84,https://github.com/CSSEGISandData/COVID-19,country,0.5490196078431373,Indian/Antananarivo,iso1:MG,iso1:MG,,,,
Malaysia,country,,,,Malaysia,3662,61,1005,,2596,31624264,4.1185,109.10249999999999,https://github.com/CSSEGISandData/COVID-19,country,0.5490196078431373,Etc/GMT-7,iso1:MY,iso1:MY,,,,
Maldives,country,,,,Maldives,19,0,13,,6,436330,3.2060000000000004,73.2025,https://github.com/CSSEGISandData/COVID-19,country,0.5490196078431373,Indian/Maldives,iso1:MV,iso1:MV,,,,
Malta,country,,,,Malta,227,0,5,,222,465292,35.931,14.378,https://github.com/CSSEGISandData/COVID-19,country,0.5490196078431373,Europe/Malta,iso1:MT,iso1:MT,,,,
Mauritania,country,,,,Mauritania,6,1,2,,3,4420184,21.018,-10.950500000000002,https://github.com/CSSEGISandData/COVID-19,country,0.5490196078431373,Africa/Nouakchott,iso1:MR,iso1:MR,,,,
Mauritius,country,,,,Mauritius,227,7,7,,213,1264613,-15.434999999999999,60.043,https://github.com/CSSEGISandData/COVID-19,country,0.5490196078431373,Etc/GMT-4,iso1:MU,iso1:MU,,,,
Mexico,country,,,,Mexico,1890,79,633,,1178,130526945,23.6245,-102.54400000000001,https://github.com/CSSEGISandData/COVID-19,country,0.5490196078431373,America/Mexico_City,iso1:MX,iso1:MX,,,,
Moldova,country,,,,Moldova,864,15,30,,819,2550900,46.979,28.39,https://github.com/CSSEGISandData/COVID-19,country,0.5490196078431373,Europe/Chisinau,iso1:MD,iso1:MD,,,,
Monaco,country,,,,Monaco,73,1,3,,69,38695,43.737,7.429,https://github.com/CSSEGISandData/COVID-19,country,0.5490196078431373,Europe/Monaco,iso1:MC,iso1:MC,,,,
Mongolia,country,,,,Mongolia,14,0,2,,12,3075647,46.8655,103.832,https://github.com/CSSEGISandData/COVID-19,country,0.5490196078431373,Asia/Ulaanbaatar,iso1:MN,iso1:MN,,,,
Montenegro,country,,,,Montenegro,214,2,1,,211,622359,42.7035,19.395000000000003,https://github.com/CSSEGISandData/COVID-19,country,0.5490196078431373,Europe/Podgorica,iso1:ME,iso1:ME,,,,
Morocco,country,,,,Morocco,1021,70,76,,875,36029138,28.625500000000002,-9.015,https://github.com/CSSEGISandData/COVID-19,country,0.5490196078431373,Africa/Casablanca,iso1:MA,iso1:MA,,,,
Namibia,country,,,,Namibia,16,0,3,,13,2533794,-22.9665,18.4995,https://github.com/CSSEGISandData/COVID-19,country,0.5490196078431373,Africa/Windhoek,iso1:NA,iso1:NA,,,,
Nepal,country,,,,Nepal,9,0,1,,8,29400000,28.397,84.13,https://github.com/CSSEGISandData/COVID-19,country,0.5490196078431373,Asia/Kathmandu,iso1:NP,iso1:NP,,,,
Netherlands,country,,,,Netherlands,17851,1766,250,,15835,17100715,32.7635,-31.418499999999995,https://github.com/CSSEGISandData/COVID-19,country,0.5490196078431373,Etc/GMT+2,iso1:NL,iso1:NL,,,,
New Zealand,country,,,,New Zealand,1039,1,156,,882,4942500,-40.881,0.8239999999999981,https://github.com/CSSEGISandData/COVID-19,country,0.5490196078431373,Etc/GMT,iso1:NZ,iso1:NZ,,,,
Nicaragua,country,,,,Nicaragua,6,1,0,,5,6217581,12.869,-85.2125,https://github.com/CSSEGISandData/COVID-19,country,0.5490196078431373,America/Managua,iso1:NI,iso1:NI,,,,
Niger,country,,,,Niger,184,10,13,,161,21477348,17.6055,8.083,https://github.com/CSSEGISandData/COVID-19,country,0.5490196078431373,Africa/Niamey,iso1:NE,iso1:NE,,,,
Nigeria,country,,,,Nigeria,232,5,33,,194,190886311,9.0785,8.6775,https://github.com/CSSEGISandData/COVID-19,country,0.5490196078431373,Africa/Lagos,iso1:NG,iso1:NG,,,,
North Macedonia,country,,,,North Macedonia,555,18,23,,514,2075301,41.614000000000004,21.7445,https://github.com/CSSEGISandData/COVID-19,country,0.5490196078431373,Europe/Skopje,iso1:MK,iso1:MK,,,,
Norway,country,,,,Norway,5687,71,32,,5584,5367580,13.181000000000001,12.214000000000002,https://github.com/CSSEGISandData/COVID-19,country,0.5490196078431373,Africa/Niamey,iso1:NO,iso1:NO,,,,
Oman,country,,,,Oman,298,2,61,,235,4636262,21.5785,55.9195,https://github.com/CSSEGISandData/COVID-19,country,0.5490196078431373,Asia/Muscat,iso1:OM,iso1:OM,,,,
Pakistan,country,,,,Pakistan,3157,47,211,,2899,197015955,30.393,68.992,https://github.com/CSSEGISandData/COVID-19,country,0.5490196078431373,Asia/Karachi,iso1:PK,iso1:PK,,,,
Panama,country,,,,Panama,1801,46,13,,1742,4098587,8.4245,-80.105,https://github.com/CSSEGISandData/COVID-19,country,0.5490196078431373,America/Panama,iso1:PA,iso1:PA,,,,
Papua New Guinea,country,,,,Papua New Guinea,1,0,0,,1,8251162,-6.202,150.166,https://github.com/CSSEGISandData/COVID-19,country,0.5490196078431373,Pacific/Port_Moresby,iso1:PG,iso1:PG,,,,
Paraguay,country,,,,Paraguay,104,3,12,,89,6811297,-23.447000000000003,-58.4525,https://github.com/CSSEGISandData/COVID-19,country,0.5490196078431373,America/Asuncion,iso1:PY,iso1:PY,,,,
Peru,country,,,,Peru,2281,83,989,,1209,32162184,-9.197500000000002,-74.99000000000001,https://github.com/CSSEGISandData/COVID-19,country,0.5490196078431373,America/Lima,iso1:PE,iso1:PE,,,,
Philippines,country,,,,Philippines,3246,152,64,,3030,104918090,12.850999999999999,120.4445,https://github.com/CSSEGISandData/COVID-19,country,0.5490196078431373,Asia/Manila,iso1:PH,iso1:PH,,,,
Poland,country,,,,Poland,4102,94,134,,3874,38433600,51.9185,19.1345,https://github.com/CSSEGISandData/COVID-19,country,0.5490196078431373,Europe/Warsaw,iso1:PL,iso1:PL,,,,
Portugal,country,,,,Portugal,11278,295,75,,10908,10600000,36.091,-18.732,https://github.com/CSSEGISandData/COVID-19,country,0.5490196078431373,Etc/GMT+1,iso1:PT,iso1:PT,,,,
Qatar,country,,,,Qatar,1604,4,123,,1477,2639211,25.3235,51.574,https://github.com/CSSEGISandData/COVID-19,country,0.5490196078431373,Asia/Qatar,iso1:QA,iso1:QA,,,,
Romania,country,,,,Romania,3864,151,374,,3339,19586539,45.942,25.0165,https://github.com/CSSEGISandData/COVID-19,country,0.5490196078431373,Europe/Bucharest,iso1:RO,iso1:RO,,,,
Russia,country,,,,Russia,5389,45,355,,4989,147500000,61.522,0,https://github.com/CSSEGISandData/COVID-19,country,0.5490196078431373,Etc/GMT,iso1:RU,iso1:RU,,,,
Rwanda,country,,,,Rwanda,104,0,4,,100,12208407,-1.947,29.880499999999998,https://github.com/CSSEGISandData/COVID-19,country,0.5490196078431373,Africa/Kigali,iso1:RW,iso1:RW,,,,
Saint Lucia,country,,,,Saint Lucia,14,0,1,,13,178844,13.9095,-60.9765,https://github.com/CSSEGISandData/COVID-19,country,0.5490196078431373,America/St_Lucia,iso1:LC,iso1:LC,,,,
Saint Vincent and the Grenadines,country,,,,Saint Vincent and the Grenadines,7,0,1,,6,109897,12.957,-61.284,https://github.com/CSSEGISandData/COVID-19,country,0.5490196078431373,America/St_Vincent,iso1:VC,iso1:VC,,,,
San Marino,country,,,,San Marino,266,32,35,,199,33400,43.944,12.4595,https://github.com/CSSEGISandData/COVID-19,country,0.5490196078431373,Europe/San_Marino,iso1:SM,iso1:SM,,,,
Saudi Arabia,country,,,,Saudi Arabia,2402,34,488,,1880,33000000,24.267000000000003,45.084500000000006,https://github.com/CSSEGISandData/COVID-19,country,0.5490196078431373,Asia/Riyadh,iso1:SA,iso1:SA,,,,
Senegal,country,,,,Senegal,222,2,82,,138,15850567,14.502500000000001,-14.4435,https://github.com/CSSEGISandData/COVID-19,country,0.5490196078431373,Africa/Dakar,iso1:SN,iso1:SN,,,,
Serbia,country,,,,Serbia,1908,51,0,,1857,7022268,44.209999999999994,20.91,https://github.com/CSSEGISandData/COVID-19,country,0.5490196078431373,Europe/Belgrade,iso1:RS,iso1:RS,,,,
Seychelles,country,,,,Seychelles,10,0,0,,10,95843,-6.9704999999999995,51.2465,https://github.com/CSSEGISandData/COVID-19,country,0.5490196078431373,Etc/GMT-3,iso1:SC,iso1:SC,,,,
Singapore,country,,,,Singapore,1309,6,320,,983,5888926,1.3135,104.009,https://github.com/CSSEGISandData/COVID-19,country,0.5490196078431373,Asia/Singapore,iso1:SG,iso1:SG,,,,
Slovakia,country,,,,Slovakia,485,1,10,,474,5439892,48.6725,19.7045,https://github.com/CSSEGISandData/COVID-19,country,0.5490196078431373,Europe/Bratislava,iso1:SK,iso1:SK,,,,
Slovenia,country,,,,Slovenia,997,28,79,,890,2066880,46.149,14.986,https://github.com/CSSEGISandData/COVID-19,country,0.5490196078431373,Europe/Ljubljana,iso1:SI,iso1:SI,,,,
Somalia,country,,,,Somalia,7,0,1,,6,11031386,5.160500000000001,46.201499999999996,https://github.com/CSSEGISandData/COVID-19,country,0.5490196078431373,Africa/Mogadishu,iso1:SO,iso1:SO,,,,
South Africa,country,,,,South Africa,1655,11,95,,1549,57725600,-34.553,27.2265,https://github.com/CSSEGISandData/COVID-19,country,0.5490196078431373,Etc/GMT-2,iso1:ZA,iso1:ZA,,,,
Sri Lanka,country,,,,Sri Lanka,176,5,33,,138,21444000,7.8775,80.701,https://github.com/CSSEGISandData/COVID-19,country,0.5490196078431373,Asia/Colombo,iso1:LK,iso1:LK,,,,
Sudan,country,,,,Sudan,12,2,2,,8,40533330,15.413,30.33,https://github.com/CSSEGISandData/COVID-19,country,0.5490196078431373,Africa/Khartoum,iso1:SD,iso1:SD,,,,
Suriname,country,,,,Suriname,10,1,0,,9,563402,3.9210000000000003,-56.022999999999996,https://github.com/CSSEGISandData/COVID-19,country,0.5490196078431373,America/Paramaribo,iso1:SR,iso1:SR,,,,
Sweden,country,,,,Sweden,6830,401,205,,6224,10327589,62.1995,17.562,https://github.com/CSSEGISandData/COVID-19,country,0.5490196078431373,Europe/Stockholm,iso1:SE,iso1:SE,,,,
Switzerland,country,,,,Switzerland,21100,715,6415,,13970,8466017,46.811499999999995,8.228000000000002,https://github.com/CSSEGISandData/COVID-19,country,0.5490196078431373,Europe/Zurich,iso1:CH,iso1:CH,,,,
Taiwan,country,,,,Taiwan,363,5,50,,308,23593794,18.3855,118.26050000000001,https://github.com/CSSEGISandData/COVID-19,country,0.5490196078431373,Etc/GMT-8,iso1:TW,iso1:TW,,,,
Tanzania,country,,,,Tanzania,22,1,3,,18,57310019,-6.3735,35.0205,https://github.com/CSSEGISandData/COVID-19,country,0.5490196078431373,Africa/Dar_es_Salaam,iso1:TZ,iso1:TZ,,,,
Thailand,country,,,,Thailand,2169,23,793,,1353,66188503,13.039,101.4905,https://github.com/CSSEGISandData/COVID-19,country,0.5490196078431373,Asia/Bangkok,iso1:TH,iso1:TH,,,,
Togo,country,,,,Togo,44,3,20,,21,7797694,8.626000000000001,0.828,https://github.com/CSSEGISandData/COVID-19,country,0.5490196078431373,Africa/Lome,iso1:TG,iso1:TG,,,,
Trinidad and Tobago,country,,,,Trinidad and Tobago,104,7,1,,96,1369125,10.703,-61.213,https://github.com/CSSEGISandData/COVID-19,country,0.5490196078431373,America/Port_of_Spain,iso1:TT,iso1:TT,,,,
Tunisia,country,,,,Tunisia,574,22,5,,547,11565204,33.8925,9.561,https://github.com/CSSEGISandData/COVID-19,country,0.5490196078431373,Africa/Tunis,iso1:TN,iso1:TN,,,,
Turkey,country,,,,Turkey,27069,574,1042,,25453,82003882,38.9565,35.2415,https://github.com/CSSEGISandData/COVID-19,country,0.5490196078431373,Europe/Istanbul,iso1:TR,iso1:TR,,,,
Uganda,country,,,,Uganda,52,0,0,,52,42862958,1.376,32.286500000000004,https://github.com/CSSEGISandData/COVID-19,country,0.5490196078431373,Africa/Kampala,iso1:UG,iso1:UG,,,,
Ukraine,country,,,,Ukraine,1308,37,28,,1243,42558328,48.7805,31.183,https://github.com/CSSEGISandData/COVID-19,country,0.5490196078431373,Europe/Kiev,iso1:UA,iso1:UA,,,,
United Arab Emirates,country,,,,United Arab Emirates,1799,10,144,,1645,9400145,24.351,53.939,https://github.com/CSSEGISandData/COVID-19,country,0.5490196078431373,Asia/Dubai,iso1:AE,iso1:AE,,,,
United Kingdom,country,,,,United Kingdom,47806,4934,135,,42737,66022273,55.354,-3.4414999999999996,https://github.com/CSSEGISandData/COVID-19,country,0.5490196078431373,Europe/London,iso1:GB,iso1:GB,,,,
Uruguay,country,,,,Uruguay,400,5,93,,302,3456750,-32.558,-55.838,https://github.com/CSSEGISandData/COVID-19,country,0.5490196078431373,America/Montevideo,iso1:UY,iso1:UY,,,,
Uzbekistan,country,,,,Uzbekistan,342,2,30,,310,32387200,41.3865,64.5695,https://github.com/CSSEGISandData/COVID-19,country,0.5490196078431373,Asia/Samarkand,iso1:UZ,iso1:UZ,,,,
Venezuela,country,,,,Venezuela,159,7,52,,100,28515829,8.161,-66.574,https://github.com/CSSEGISandData/COVID-19,country,0.5490196078431373,America/Caracas,iso1:VE,iso1:VE,,,,
Vietnam,country,,,,Vietnam,241,0,90,,151,94660000,15.6425,108.2365,https://github.com/CSSEGISandData/COVID-19,country,0.5490196078431373,Asia/Ho_Chi_Minh,iso1:VN,iso1:VN,,,,
Zambia,country,,,,Zambia,39,1,3,,35,17094130,-13.185500000000001,27.8365,https://github.com/CSSEGISandData/COVID-19,country,0.5490196078431373,Africa/Lusaka,iso1:ZM,iso1:ZM,,,,
Zimbabwe,country,,,,Zimbabwe,9,1,0,,8,16529904,-19.017,29.1505,https://github.com/CSSEGISandData/COVID-19,country,0.5490196078431373,Africa/Harare,iso1:ZW,iso1:ZW,,,,
Dominica,country,,,,Dominica,14,0,0,,14,73925,15.4245,-61.3605,https://github.com/CSSEGISandData/COVID-19,country,0.5490196078431373,America/Dominica,iso1:DM,iso1:DM,,,,
Grenada,country,,,,Grenada,12,0,0,,12,107825,12.258,-61.591499999999996,https://github.com/CSSEGISandData/COVID-19,country,0.5490196078431373,America/Grenada,iso1:GD,iso1:GD,,,,
Mozambique,country,,,,Mozambique,10,0,1,,9,29668834,-18.671,35.5255,https://github.com/CSSEGISandData/COVID-19,country,0.5490196078431373,Africa/Maputo,iso1:MZ,iso1:MZ,,,,
Syria,country,,,,Syria,19,2,2,,15,18499181,34.798500000000004,39.0535,https://github.com/CSSEGISandData/COVID-19,country,0.5490196078431373,Asia/Damascus,iso1:SY,iso1:SY,,,,
East Timor,country,,,,East Timor,1,0,0,,1,1296311,-8.818000000000001,125.68700000000001,https://github.com/CSSEGISandData/COVID-19,country,0.5490196078431373,Asia/Dili,iso1:TL,iso1:TL,,,,
Belize,country,,,,Belize,5,0,0,,5,374681,17.192,-88.3575,https://github.com/CSSEGISandData/COVID-19,country,0.5490196078431373,America/Belize,iso1:BZ,iso1:BZ,,,,
Laos,country,,,,Laos,11,0,0,,11,6858160,18.2095,103.86,https://github.com/CSSEGISandData/COVID-19,country,0.5490196078431373,Asia/Bangkok,iso1:LA,iso1:LA,,,,
Libya,country,,,,Libya,18,1,0,,17,6678567,26.334000000000003,17.2685,https://github.com/CSSEGISandData/COVID-19,country,0.5490196078431373,Africa/Tripoli,iso1:LY,iso1:LY,,,,
Palestinian Territories,country,,,,Palestinian Territories,237,1,25,,211,4684777,31.886,34.894999999999996,https://github.com/CSSEGISandData/COVID-19,country,0.5490196078431373,Asia/Jerusalem,iso1:PS,iso1:PS,,,,
Guinea-Bissau,country,,,,Guinea-Bissau,18,0,0,,18,1861283,11.775500000000001,-15.176499999999999,https://github.com/CSSEGISandData/COVID-19,country,0.5490196078431373,Africa/Bissau,iso1:GW,iso1:GW,,,,
Mali,country,,,,Mali,45,5,1,,39,18541980,17.5745,-3.9865,https://github.com/CSSEGISandData/COVID-19,country,0.5490196078431373,Africa/Bamako,iso1:ML,iso1:ML,,,,
Saint Kitts and Nevis,country,,,,Saint Kitts and Nevis,10,0,0,,10,55345,17.2565,-62.704499999999996,https://github.com/CSSEGISandData/COVID-19,country,0.5490196078431373,America/St_Kitts,iso1:KN,iso1:KN,,,,
Kosovo,country,,,,Kosovo,145,1,23,,121,1883018,42.5625,20.902,https://github.com/CSSEGISandData/COVID-19,country,0.5490196078431373,Europe/Belgrade,iso1:XK,iso1:XK,,,,
Myanmar,country,,,,Myanmar,21,1,0,,20,53370609,19.072499999999998,96.669,https://github.com/CSSEGISandData/COVID-19,country,0.5490196078431373,Asia/Yangon,iso1:MM,iso1:MM,,,,
Botswana,country,,,,Botswana,6,1,0,,5,2291661,-22.342,24.686999999999998,https://github.com/CSSEGISandData/COVID-19,country,0.5490196078431373,Africa/Gaborone,iso1:BW,iso1:BW,,,,
Burundi,country,,,,Burundi,3,0,0,,3,10864245,-3.386,29.9255,https://github.com/CSSEGISandData/COVID-19,country,0.5490196078431373,Africa/Bujumbura,iso1:BI,iso1:BI,,,,
Sierra Leone,country,,,,Sierra Leone,6,0,0,,6,7557212,8.461,-11.786999999999999,https://github.com/CSSEGISandData/COVID-19,country,0.5490196078431373,Africa/Freetown,iso1:SL,iso1:SL,,,,
Sahrawi Arab Democratic Republic,country,,,,Sahrawi Arab Democratic Republic,4,0,0,,4,502585,24.2185,-12.885000000000002,https://github.com/CSSEGISandData/COVID-19,country,0.5490196078431373,Africa/El_Aaiun,iso1:EH,iso1:EH,,,,
China,country,,,,China,81668,3329,76991,,1348,1409517397,31.107499999999998,104.1375,https://github.com/CSSEGISandData/COVID-19,state,0.5490196078431373,Asia/Shanghai,iso1:CN,iso1:CN,,,,
"AC, Brazil",state,,,AC,Brazil,48,0,,,,881935,-9.121958699499913,-70.31670546006357,https://covid.saude.gov.br/,state,0.5098039215686274,America/Rio_Branco,259,iso1:BR,,,,
"AL, Brazil",state,,,AL,Brazil,28,2,,,,3337357,-9.66813364038606,-36.69176762624364,https://covid.saude.gov.br/,state,0.5098039215686274,America/Maceio,260,iso1:BR,,,,
"AP, Brazil",state,,,AP,Brazil,29,2,,,,845731,1.6322509422846565,-52.330210155520206,https://covid.saude.gov.br/,state,0.5098039215686274,America/Belem,261,iso1:BR,,,,
"AM, Brazil",state,,,AM,Brazil,417,14,,,,4144597,-3.801031659031324,-65.09820771798518,https://covid.saude.gov.br/,state,0.5098039215686274,America/Manaus,262,iso1:BR,,,,
"BA, Brazil",state,,,BA,Brazil,401,9,,,,14873064,-13.428636359280546,-42.00270718030532,https://covid.saude.gov.br/,state,0.5098039215686274,America/Bahia,263,iso1:BR,,,,
"CE, Brazil",state,,,CE,Brazil,823,26,,,,9132078,-5.320150038402943,-39.34288443632698,https://covid.saude.gov.br/,state,0.5098039215686274,America/Fortaleza,264,iso1:BR,,,,
"DF, Brazil",state,,,DF,Brazil,468,7,,,,3015268,-15.764954725480209,-47.79019110808315,https://covid.saude.gov.br/,state,0.5098039215686274,America/Sao_Paulo,265,iso1:BR,,,,
"ES, Brazil",state,,,ES,Brazil,166,6,,,,4018650,-19.583987593752454,-40.768499482415194,https://covid.saude.gov.br/,state,0.5098039215686274,America/Sao_Paulo,266,iso1:BR,,,,
"GO, Brazil",state,,,GO,Brazil,115,3,,,,7018354,-15.936701348488441,-49.57789852549655,https://covid.saude.gov.br/,state,0.5098039215686274,America/Sao_Paulo,267,iso1:BR,,,,
"MA, Brazil",state,,,MA,Brazil,96,2,,,,7075181,-5.739146620286533,-45.273975185456436,https://covid.saude.gov.br/,state,0.5098039215686274,America/Fortaleza,268,iso1:BR,,,,
"MT, Brazil",state,,,MT,Brazil,60,1,,,,3484466,-12.685375257861864,-55.92350865614955,https://covid.saude.gov.br/,state,0.5098039215686274,America/Cuiaba,269,iso1:BR,,,,
"MS, Brazil",state,,,MS,Brazil,65,1,,,,2778986,-20.618883874041558,-54.559985008967104,https://covid.saude.gov.br/,state,0.5098039215686274,America/Campo_Grande,270,iso1:BR,,,,
"MG, Brazil",state,,,MG,Brazil,498,6,,,,21168791,-18.569305515387242,-45.44658738839726,https://covid.saude.gov.br/,state,0.5098039215686274,America/Sao_Paulo,271,iso1:BR,,,,
"PR, Brazil",state,,,PR,Brazil,438,9,,,,11433957,-24.601107883122296,-51.32115169669102,https://covid.saude.gov.br/,state,0.5098039215686274,America/Sao_Paulo,272,iso1:BR,,,,
"PB, Brazil",state,,,PB,Brazil,34,4,,,,4018127,-7.154162489157557,-36.764700791862396,https://covid.saude.gov.br/,state,0.5098039215686274,America/Fortaleza,273,iso1:BR,,,,
"PA, Brazil",state,,,PA,Brazil,86,1,,,,11433957,-3.626695330355169,-52.52830438760455,https://covid.saude.gov.br/,state,0.5098039215686274,America/Santarem,274,iso1:BR,,,,
"PE, Brazil",state,,,PE,Brazil,201,21,,,,9557071,-8.378092949979674,-38.08805322348826,https://covid.saude.gov.br/,state,0.5098039215686274,America/Recife,275,iso1:BR,,,,
"PI, Brazil",state,,,PI,Brazil,23,4,,,,3273227,-6.830773613917813,-43.19888220914663,https://covid.saude.gov.br/,state,0.5098039215686274,America/Fortaleza,276,iso1:BR,,,,
"RN, Brazil",state,,,RN,Brazil,242,7,,,,3506853,-5.902948951918576,-36.77516515873181,https://covid.saude.gov.br/,state,0.5098039215686274,America/Fortaleza,277,iso1:BR,,,,
"RS, Brazil",state,,,RS,Brazil,418,7,,,,11377239,-30.406333313679497,-53.65568620171301,https://covid.saude.gov.br/,state,0.5098039215686274,America/Sao_Paulo,278,iso1:BR,,,,
"RJ, Brazil",state,,,RJ,Brazil,1394,64,,,,17264943,-22.06503752988857,-42.912834105494625,https://covid.saude.gov.br/,state,0.5098039215686274,America/Sao_Paulo,279,iso1:BR,,,,
"RO, Brazil",state,,,RO,Brazil,12,1,,,,1777225,-10.831668929677392,-63.32729183604937,https://covid.saude.gov.br/,state,0.5098039215686274,America/Porto_Velho,280,iso1:BR,,,,
"RR, Brazil",state,,,RR,Brazil,42,1,,,,60576,1.9338620027494215,-61.83588456621507,https://covid.saude.gov.br/,state,0.5098039215686274,America/Boa_Vista,281,iso1:BR,,,,
"SC, Brazil",state,,,SC,Brazil,357,10,,,,7164788,-27.65149708429871,-51.10965735219543,https://covid.saude.gov.br/,state,0.5098039215686274,America/Sao_Paulo,282,iso1:BR,,,,
"SE, Brazil",state,,,SE,Brazil,32,3,,,,2298696,-10.542973727655408,-37.32497127995194,https://covid.saude.gov.br/,state,0.5098039215686274,America/Maceio,283,iso1:BR,,,,
"SP, Brazil",state,,,SP,Brazil,4620,275,,,,45919049,-22.549618393174313,-48.6671272450763,https://covid.saude.gov.br/,state,0.5098039215686274,America/Sao_Paulo,284,iso1:BR,,,,
"TO, Brazil",state,,,TO,Brazil,17,0,,,,1572866,-9.258995252778703,-48.25017595025989,https://covid.saude.gov.br/,state,0.5098039215686274,America/Araguaina,285,iso1:BR,,,,
Brazil,country,,,,Brazil,11130,486,,,,208494900,-14.2375,-51.4155,https://covid.saude.gov.br/,state,0.47058823529411764,America/Cuiaba,iso1:BR,iso1:BR,,,,
"British Columbia, Canada",state,,,British Columbia,Canada,1203,38,,,,4841078,54.150000000000006,-126.56,https://health-infobase.canada.ca/src/data/covidLive/covid19.csv,state,0.4117647058823529,America/Vancouver,iso2:CA-BC,iso1:CA,iso2:CA-BC,,,
"Alberta, Canada",state,,,Alberta,Canada,1250,23,,,,4306039,54.4985,-115.003,https://health-infobase.canada.ca/src/data/covidLive/covid19.csv,state,0.4117647058823529,America/Edmonton,iso2:CA-AB,iso1:CA,iso2:CA-AB,,,
"Saskatchewan, Canada",state,,,Saskatchewan,Canada,249,3,,,,1168057,54.4995,-105.684,https://health-infobase.canada.ca/src/data/covidLive/covid19.csv,state,0.4117647058823529,America/Regina,iso2:CA-SK,iso1:CA,iso2:CA-SK,,,
"Manitoba, Canada",state,,,Manitoba,Canada,187,2,,,,1343371,54.499,-95.4995,https://health-infobase.canada.ca/src/data/covidLive/covid19.csv,state,0.4117647058823529,America/Winnipeg,iso2:CA-MB,iso1:CA,iso2:CA-MB,,,
"Ontario, Canada",state,,,Ontario,Canada,4038,119,,,,14279196,49.2705,-84.737,https://health-infobase.canada.ca/src/data/covidLive/covid19.csv,state,0.4117647058823529,America/Toronto,iso2:CA-ON,iso1:CA,iso2:CA-ON,,,
"Quebec, Canada",state,,,Quebec,Canada,7944,94,,,,8484965,53.7855,-68.423,https://health-infobase.canada.ca/src/data/covidLive/covid19.csv,state,0.4117647058823529,America/Toronto,iso2:CA-QC,iso1:CA,iso2:CA-QC,,,
"Newfoundland and Labrador, Canada",state,,,Newfoundland and Labrador,Canada,217,1,,,,528430,53.4945,-60.219,https://health-infobase.canada.ca/src/data/covidLive/covid19.csv,state,0.4117647058823529,America/Goose_Bay,iso2:CA-NL,iso1:CA,iso2:CA-NL,,,
"New Brunswick, Canada",state,,,New Brunswick,Canada,101,0,,,,760868,46.3245,-66.411,https://health-infobase.canada.ca/src/data/covidLive/covid19.csv,state,0.4117647058823529,America/Moncton,iso2:CA-NB,iso1:CA,iso2:CA-NB,,,
"Nova Scotia, Canada",state,,,Nova Scotia,Canada,262,0,,,,957600,45.307,-63.025999999999996,https://health-infobase.canada.ca/src/data/covidLive/covid19.csv,state,0.4117647058823529,America/Halifax,iso2:CA-NS,iso1:CA,iso2:CA-NS,,,
"Prince Edward Island, Canada",state,,,Prince Edward Island,Canada,22,0,,,,152784,46.507999999999996,-63.191500000000005,https://health-infobase.canada.ca/src/data/covidLive/covid19.csv,state,0.4117647058823529,America/Halifax,iso2:CA-PE,iso1:CA,iso2:CA-PE,,,
"Yukon, Canada",state,,,Yukon,Canada,6,0,,,,38669,64.8205,-132.4065,https://health-infobase.canada.ca/src/data/covidLive/covid19.csv,state,0.4117647058823529,America/Yellowknife,iso2:CA-YT,iso1:CA,iso2:CA-YT,,,
"Northwest Territories, Canada",state,,,Northwest Territories,Canada,4,0,,,,44718,69.4,-119.224,https://health-infobase.canada.ca/src/data/covidLive/covid19.csv,state,0.4117647058823529,America/Cambridge_Bay,iso2:CA-NT,iso1:CA,iso2:CA-NT,,,
"Nunavut, Canada",state,,,Nunavut,Canada,0,0,,,,38243,67.15299999999999,-90.887,https://health-infobase.canada.ca/src/data/covidLive/covid19.csv,state,0.4117647058823529,America/Cambridge_Bay,iso2:CA-NU,iso1:CA,iso2:CA-NU,,,
Canada,country,,,,Canada,15496,280,,,,36708083,62.414,-96.81200000000001,https://health-infobase.canada.ca/src/data/covidLive/covid19.csv,state,0.37254901960784315,America/Rankin_Inlet,iso1:CA,iso1:CA,,,,
"Zurich, Switzerland",county,,Zurich,,Switzerland,2522,45,0,,2477,1520968,47.427499999999995,8.6715,https://raw.githubusercontent.com/openZH/covid_19/master/fallzahlen_kanton_total_csv/COVID19_Fallzahlen_Kanton_ZH_total.csv,,0.5490196078431373,Europe/Zurich,iso2:CH-ZH,iso1:CH,,iso2:CH-ZH,,
"Andalusia, Spain",state,,,Andalusia,Spain,8301,470,665,,7166,8409738,37.334,-4.5725,https://github.com/datadista/datasets/tree/master/COVID%2019,state,0.6274509803921569,Europe/Madrid,iso2:ES-AN,iso1:ES,iso2:ES-AN,,,
"Aragon, Spain",state,,,Aragon,Spain,3232,270,537,,2425,,41.3845,-0.701,https://github.com/datadista/datasets/tree/master/COVID%2019,state,0.6274509803921569,Europe/Madrid,iso2:ES-AR,iso1:ES,iso2:ES-AR,,,
"Asturias, Spain",state,,,Asturias,Spain,1605,80,216,,1309,1028244,43.272999999999996,-5.8445,https://github.com/datadista/datasets/tree/master/COVID%2019,state,0.6274509803921569,Europe/Madrid,iso2:ES-AS,iso1:ES,iso2:ES-AS,,,
"Balearic Islands, Spain",state,,,Balearic Islands,Spain,1293,75,461,,757,1150839,39.3675,2.734,https://github.com/datadista/datasets/tree/master/COVID%2019,state,0.6274509803921569,Europe/Madrid,iso2:ES-IB,iso1:ES,iso2:ES-IB,,,
"Canary Islands, Spain",state,,,Canary Islands,Spain,1622,80,137,,1405,2127685,28.5255,-15.75,https://github.com/datadista/datasets/tree/master/COVID%2019,state,0.6274509803921569,Etc/GMT+1,iso2:ES-CN,iso1:ES,iso2:ES-CN,,,
"Cantabria, Spain",state,,,Cantabria,Spain,1441,68,113,,1260,580229,43.1355,-4.002,https://github.com/datadista/datasets/tree/master/COVID%2019,state,0.6274509803921569,Europe/Madrid,iso2:ES-CB,iso1:ES,iso2:ES-CB,,,
"Castile-La Mancha, Spain",state,,,Castile-La Mancha,Spain,10031,1055,1149,,7827,2106331,39.6755,-3.161,https://github.com/datadista/datasets/tree/master/COVID%2019,state,0.6274509803921569,Europe/Madrid,iso2:ES-CM,iso1:ES,iso2:ES-CM,,,
"Castile and León, Spain",state,,,Castile and León,Spain,8749,847,2331,,5571,2418694,41.66,-4.426,https://github.com/datadista/datasets/tree/master/COVID%2019,state,0.6274509803921569,Europe/Madrid,iso2:ES-CL,iso1:ES,iso2:ES-CL,,,
"Catalonia, Spain",state,,,Catalonia,Spain,26032,2637,9528,,13867,7619494,41.6925,1.746,https://github.com/datadista/datasets/tree/master/COVID%2019,state,0.6274509803921569,Europe/Madrid,iso2:ES-CT,iso1:ES,iso2:ES-CT,,,
"Ceuta, Spain",state,,,Ceuta,Spain,83,2,2,,79,84777,35.891999999999996,-5.3495,https://github.com/datadista/datasets/tree/master/COVID%2019,state,0.6274509803921569,Africa/Ceuta,iso2:ES-CE,iso1:ES,iso2:ES-CE,,,
"Valencian Community, Spain",state,,,Valencian Community,Spain,7184,613,812,,5759,5003769,39.316500000000005,-0.4195,https://github.com/datadista/datasets/tree/master/COVID%2019,state,0.6274509803921569,Europe/Madrid,iso2:ES-VC,iso1:ES,iso2:ES-VC,,,
"Extremadura, Spain",state,,,Extremadura,Spain,2047,218,215,,1614,1070586,39.213499999999996,-6.096,https://github.com/datadista/datasets/tree/master/COVID%2019,state,0.6274509803921569,Europe/Madrid,iso2:ES-EX,iso1:ES,iso2:ES-EX,,,
"Galicia, Spain",state,,,Galicia,Spain,5944,174,587,,5183,2703290,42.792,-8.0175,https://github.com/datadista/datasets/tree/master/COVID%2019,state,0.6274509803921569,Europe/Madrid,iso2:ES-GA,iso1:ES,iso2:ES-GA,,,
"Community of Madrid, Spain",state,,,Community of Madrid,Spain,37584,4941,16543,,16100,6661949,40.5255,-3.816,https://github.com/datadista/datasets/tree/master/COVID%2019,state,0.6274509803921569,Europe/Madrid,iso2:ES-MD,iso1:ES,iso2:ES-MD,,,
"Melilla, Spain",state,,,Melilla,Spain,83,2,11,,70,86487,35.296,-2.9495,https://github.com/datadista/datasets/tree/master/COVID%2019,state,0.6274509803921569,Africa/Ceuta,iso2:ES-ML,iso1:ES,iso2:ES-ML,,,
"Region of Murcia, Spain",state,,,Region of Murcia,Spain,1235,59,130,,1046,1478509,38.065,-1.4955,https://github.com/datadista/datasets/tree/master/COVID%2019,state,0.6274509803921569,Europe/Madrid,iso2:ES-MC,iso1:ES,iso2:ES-MC,,,
"Navarre, Spain",state,,,Navarre,Spain,3073,178,334,,2561,647554,42.6125,-1.6065,https://github.com/datadista/datasets/tree/master/COVID%2019,state,0.6274509803921569,Europe/Madrid,iso2:ES-NC,iso1:ES,iso2:ES-NC,,,
"Basque Country, Spain",state,,,Basque Country,Spain,8628,515,3405,,4708,2167707,42.968,-2.59,https://github.com/datadista/datasets/tree/master/COVID%2019,state,0.6274509803921569,Europe/Madrid,iso2:ES-PV,iso1:ES,iso2:ES-PV,,,
"Rioja, Spain",state,,,Rioja,Spain,2592,134,904,,1554,315675,42.281499999999994,-2.4065,https://github.com/datadista/datasets/tree/master/COVID%2019,state,0.6274509803921569,Europe/Madrid,iso2:ES-RI,iso1:ES,iso2:ES-RI,,,
Spain,country,,,,Spain,130759,12418,38080,,80261,46733038,35.712,-6.925500000000001,https://github.com/datadista/datasets/tree/master/COVID%2019,state,0.5882352941176471,Etc/GMT,iso1:ES,iso1:ES,,,,
"Île-de-France, France",state,,,Île-de-France,France,,2107,5166,,,12246234,48.677200741510504,2.5014494346077,https://raw.githubusercontent.com/opencovid19-fr/data/master/dist/chiffres-cles.csv,,0.47058823529411764,Europe/Paris,322,iso1:FR,,,,
"Centre-Val de Loire, France",state,,,Centre-Val de Loire,France,,115,298,,,2582522,47.6441333322795,1.590863237499439,https://raw.githubusercontent.com/opencovid19-fr/data/master/dist/chiffres-cles.csv,,0.47058823529411764,Europe/Paris,323,iso1:FR,,,,
"Bourgogne-Franche-Comté, France",state,,,Bourgogne-Franche-Comté,France,,341,942,,,2813289,47.2783252914275,4.99249435788615,https://raw.githubusercontent.com/opencovid19-fr/data/master/dist/chiffres-cles.csv,,0.47058823529411764,Europe/Paris,324,iso1:FR,,,,
"Normandie, France",state,,,Normandie,France,,111,308,,,3342467,49.126225630674995,-0.07229962564034997,https://raw.githubusercontent.com/opencovid19-fr/data/master/dist/chiffres-cles.csv,,0.47058823529411764,Europe/Paris,325,iso1:FR,,,,
"Hauts-de-France, France",state,,,Hauts-de-France,France,,520,1153,,,6023336,49.963169589436,2.81688101494355,https://raw.githubusercontent.com/opencovid19-fr/data/master/dist/chiffres-cles.csv,,0.47058823529411764,Europe/Paris,326,iso1:FR,,,,
"Grand Est, France",state,,,Grand Est,France,,1471,2953,,,5548090,48.795257936556,5.80937857149355,https://raw.githubusercontent.com/opencovid19-fr/data/master/dist/chiffres-cles.csv,,0.47058823529411764,Europe/Paris,327,iso1:FR,,,,
"Pays de la Loire, France",state,,,Pays de la Loire,France,,123,441,,,3787411,47.417280519696504,-0.822573383953075,https://raw.githubusercontent.com/opencovid19-fr/data/master/dist/chiffres-cles.csv,,0.47058823529411764,Europe/Paris,328,iso1:FR,,,,
"Bretagne, France",state,,,Bretagne,France,,81,280,,,3336643,48.075240635677,-3.07744531834385,https://raw.githubusercontent.com/opencovid19-fr/data/master/dist/chiffres-cles.csv,,0.47058823529411764,Europe/Paris,329,iso1:FR,,,,
"Nouvelle-Aquitaine, France",state,,,Nouvelle-Aquitaine,France,,120,579,,,5994336,44.976635108258,0.40994910693179987,https://raw.githubusercontent.com/opencovid19-fr/data/master/dist/chiffres-cles.csv,,0.47058823529411764,Europe/Paris,330,iso1:FR,,,,
"Occitanie, France",state,,,Occitanie,France,,158,757,,,5903190,43.689961371314496,2.25923388136695,https://raw.githubusercontent.com/opencovid19-fr/data/master/dist/chiffres-cles.csv,,0.47058823529411764,Europe/Paris,331,iso1:FR,,,,
"Auvergne-Rhône-Alpes, France",state,,,Auvergne-Rhône-Alpes,France,,508,1756,,,8037059,45.459794376849004,4.6235895980203,https://raw.githubusercontent.com/opencovid19-fr/data/master/dist/chiffres-cles.csv,,0.47058823529411764,Europe/Paris,332,iso1:FR,,,,
"Provence-Alpes-Côte d'Azur, France",state,,,Provence-Alpes-Côte d'Azur,France,,195,1304,,,5065723,44.0544436063075,5.9736093715955,https://raw.githubusercontent.com/opencovid19-fr/data/master/dist/chiffres-cles.csv,,0.47058823529411764,Europe/Paris,333,iso1:FR,,,,
"Corse, France",state,,,Corse,France,,26,117,,,337796,42.186944409099496,9.04966440635685,https://raw.githubusercontent.com/opencovid19-fr/data/master/dist/chiffres-cles.csv,,0.47058823529411764,Europe/Paris,334,iso1:FR,,,,
France,country,,,,France,70478,5889,16182,,48407,67118648,2.304500000000001,6.709000000000003,https://raw.githubusercontent.com/opencovid19-fr/data/master/dist/chiffres-cles.csv,,0.47058823529411764,Etc/GMT,iso1:FR,iso1:FR,,,,
"Guadeloupe, France",state,,,Guadeloupe,France,,8,36,,,390253,16.176466312683498,-61.404015738016,https://raw.githubusercontent.com/opencovid19-fr/data/master/dist/chiffres-cles.csv,,0.47058823529411764,America/Guadeloupe,336,iso1:FR,,,,
"Martinique, France",state,,,Martinique,France,,3,37,,,376480,14.636421259678,-61.019989787163496,https://raw.githubusercontent.com/opencovid19-fr/data/master/dist/chiffres-cles.csv,,0.47058823529411764,America/Martinique,337,iso1:FR,,,,
"Guyane, France",state,,,Guyane,France,,0,6,,,290691,3.93266119173895,-53.1138912280205,https://raw.githubusercontent.com/opencovid19-fr/data/master/dist/chiffres-cles.csv,,0.47058823529411764,America/Cayenne,338,iso1:FR,,,,
"La Réunion, France",state,,,La Réunion,France,,0,41,,,853659,-21.130672550993502,55.526881838278,https://raw.githubusercontent.com/opencovid19-fr/data/master/dist/chiffres-cles.csv,,0.47058823529411764,Indian/Reunion,339,iso1:FR,,,,
"Mayotte, France",state,,,Mayotte,France,,2,8,,,270372,-12.818387777882,45.158732839739,https://raw.githubusercontent.com/opencovid19-fr/data/master/dist/chiffres-cles.csv,,0.47058823529411764,Indian/Mayotte,340,iso1:FR,,,,
"Andhra Pradesh, India",state,,,Andhra Pradesh,India,190,0,1,,189,49577103,16.249396063877242,80.74862206352185,https://www.mohfw.gov.in/,state,0.47058823529411764,Asia/Kolkata,341,iso1:IN,,,,
"Andaman and Nicobar Islands, India",state,,,Andaman and Nicobar Islands,India,10,0,0,,10,380520,10.186102606000048,93.15277067000005,https://www.mohfw.gov.in/,state,0.47058823529411764,Etc/GMT-6,342,iso1:IN,,,,
"Arunachal Pradesh, India",state,,,Arunachal Pradesh,India,1,0,0,,1,,28.008685410239444,94.46749434450007,https://www.mohfw.gov.in/,state,0.47058823529411764,Asia/Kolkata,343,iso1:IN,,,,
"Assam, India",state,,,Assam,India,26,0,0,,26,,26.062905585424403,92.83251153003118,https://www.mohfw.gov.in/,state,0.47058823529411764,Asia/Kolkata,344,iso1:IN,,,,
"Bihar, India",state,,,Bihar,India,30,0,1,,29,104099452,25.90844513275855,85.81024580290145,https://www.mohfw.gov.in/,state,0.47058823529411764,Asia/Kolkata,345,iso1:IN,,,,
"Chandigarh, India",state,,,Chandigarh,India,18,0,0,,18,1147494,30.73326650694372,76.76552656449931,https://www.mohfw.gov.in/,state,0.47058823529411764,Asia/Kolkata,346,iso1:IN,,,,
"Chhattisgarh, India",state,,,Chhattisgarh,India,9,0,0,,9,25545198,20.958152574281854,82.31128624906111,https://www.mohfw.gov.in/,state,0.47058823529411764,Asia/Kolkata,347,iso1:IN,,,,
"Delhi, India",state,,,Delhi,India,503,0,7,,496,16787941,28.657346706984924,77.0872123548163,https://www.mohfw.gov.in/,state,0.47058823529411764,Asia/Kolkata,348,iso1:IN,,,,
"Goa, India",state,,,Goa,India,7,0,0,,7,1500000,15.329739996534386,74.00107852529374,https://www.mohfw.gov.in/,state,0.47058823529411764,Asia/Kolkata,349,iso1:IN,,,,
"Gujarat, India",state,,,Gujarat,India,122,0,11,,111,60439692,22.390503706309964,71.31093488914493,https://www.mohfw.gov.in/,state,0.47058823529411764,Asia/Kolkata,350,iso1:IN,,,,
"Haryana, India",state,,,Haryana,India,59,0,1,,58,25351462,29.29344483126394,76.02577843622583,https://www.mohfw.gov.in/,state,0.47058823529411764,Asia/Kolkata,351,iso1:IN,,,,
"Himachal Pradesh, India",state,,,Himachal Pradesh,India,6,0,1,,5,6864602,31.807193203503516,77.29748375836871,https://www.mohfw.gov.in/,state,0.47058823529411764,Asia/Kolkata,352,iso1:IN,,,,
"Jammu and Kashmir, India",state,,,Jammu and Kashmir,India,106,0,2,,104,12267032,33.897996219547814,76.63741988100006,https://www.mohfw.gov.in/,state,0.47058823529411764,Asia/Kolkata,353,iso1:IN,,,,
"Jharkhand, India",state,,,Jharkhand,India,3,0,0,,3,,23.667832139341755,85.61625247597095,https://www.mohfw.gov.in/,state,0.47058823529411764,Asia/Kolkata,354,iso1:IN,,,,
"Karnataka, India",state,,,Karnataka,India,144,0,4,,140,61095297,15.04293223673335,76.32975935210584,https://www.mohfw.gov.in/,state,0.47058823529411764,Asia/Kolkata,355,iso1:IN,,,,
"Kerala, India",state,,,Kerala,India,306,0,2,,304,33406061,10.525229553007051,76.12643659801603,https://www.mohfw.gov.in/,state,0.47058823529411764,Asia/Kolkata,356,iso1:IN,,,,
"Ladakh, India",state,,,Ladakh,India,14,0,0,,14,274000,,,https://www.mohfw.gov.in/,state,0.47058823529411764,,,iso1:IN,,,,
"Madhya Pradesh, India",state,,,Madhya Pradesh,India,165,0,9,,156,72626809,23.962930405963448,78.41705366399535,https://www.mohfw.gov.in/,state,0.47058823529411764,Asia/Kolkata,357,iso1:IN,,,,
"Maharashtra, India",state,,,Maharashtra,India,490,0,24,,466,112374333,18.8277528956296,76.77199039033388,https://www.mohfw.gov.in/,state,0.47058823529411764,Asia/Kolkata,358,iso1:IN,,,,
"Manipur, India",state,,,Manipur,India,2,0,0,,2,3351200,24.769062782021763,93.85202843938632,https://www.mohfw.gov.in/,state,0.47058823529411764,Asia/Kolkata,359,iso1:IN,,,,
"Mizoram, India",state,,,Mizoram,India,1,0,0,,1,1668800,23.224332482374557,92.84258060700009,https://www.mohfw.gov.in/,state,0.47058823529411764,Asia/Kolkata,360,iso1:IN,,,,
"Odisha, India",state,,,Odisha,India,20,0,0,,20,41974218,20.176843675645102,84.43570824513938,https://www.mohfw.gov.in/,state,0.47058823529411764,Asia/Kolkata,361,iso1:IN,,,,
"Puducherry, India",state,,,Puducherry,India,5,0,0,,5,1247953,11.455302435772268,77.53475996200007,https://www.mohfw.gov.in/,state,0.47058823529411764,Asia/Kolkata,362,iso1:IN,,,,
"Punjab, India",state,,,Punjab,India,57,0,5,,52,27743338,31.03926850074069,75.37832401215817,https://www.mohfw.gov.in/,state,0.47058823529411764,Asia/Kolkata,363,iso1:IN,,,,
"Rajasthan, India",state,,,Rajasthan,India,200,0,0,,200,68548437,26.620069377799524,73.84407657553248,https://www.mohfw.gov.in/,state,0.47058823529411764,Asia/Kolkata,364,iso1:IN,,,,
"Tamil Nadu, India",state,,,Tamil Nadu,India,485,0,3,,482,72147030,10.77222336758263,78.29429100910343,https://www.mohfw.gov.in/,state,0.47058823529411764,Asia/Kolkata,365,iso1:IN,,,,
"Telengana, India",state,,,Telengana,India,269,0,7,,262,35003674,,,https://www.mohfw.gov.in/,state,0.47058823529411764,,,iso1:IN,,,,
"Uttarakhand, India",state,,,Uttarakhand,India,22,0,0,,22,10086292,30.085476993671897,79.29053999553955,https://www.mohfw.gov.in/,state,0.47058823529411764,Asia/Kolkata,366,iso1:IN,,,,
"Uttar Pradesh, India",state,,,Uttar Pradesh,India,227,0,2,,225,199812341,27.152981167396916,80.83266849165753,https://www.mohfw.gov.in/,state,0.47058823529411764,Asia/Kolkata,367,iso1:IN,,,,
"West Bengal, India",state,,,West Bengal,India,80,0,3,,77,91276115,24.402508335403155,87.85869957912226,https://www.mohfw.gov.in/,state,0.47058823529411764,Asia/Kolkata,368,iso1:IN,,,,
"Abruzzo, Italy",state,,,Abruzzo,Italy,1703,158,125,13598,1420,1308451,42.2885,13.901,https://raw.githubusercontent.com/pcm-dpc/COVID-19/master/dati-regioni/dpc-covid19-ita-regioni.csv,state,0.7058823529411765,Europe/Rome,iso2:IT-65,iso1:IT,iso2:IT-65,,,
"Basilicata, Italy",state,,,Basilicata,Italy,278,13,11,2931,254,562869,40.5185,16.101,https://raw.githubusercontent.com/pcm-dpc/COVID-19/master/dati-regioni/dpc-covid19-ita-regioni.csv,state,0.7058823529411765,Europe/Rome,iso2:IT-77,iso1:IT,iso2:IT-77,,,
"Calabria, Italy",state,,,Calabria,Italy,795,56,33,13077,706,1947131,39.025499999999994,16.412,https://raw.githubusercontent.com/pcm-dpc/COVID-19/master/dati-regioni/dpc-covid19-ita-regioni.csv,state,0.7058823529411765,Europe/Rome,iso2:IT-78,iso1:IT,iso2:IT-78,,,
"Campania, Italy",state,,,Campania,Italy,2960,189,150,23139,2621,5786373,40.7495,14.7795,https://raw.githubusercontent.com/pcm-dpc/COVID-19/master/dati-regioni/dpc-covid19-ita-regioni.csv,state,0.7058823529411765,Europe/Rome,iso2:IT-72,iso1:IT,iso2:IT-72,,,
"Emilia-Romagna, Italy",state,,,Emilia-Romagna,Italy,17089,2051,2201,69986,12837,4459477,44.433,10.9755,https://raw.githubusercontent.com/pcm-dpc/COVID-19/master/dati-regioni/dpc-covid19-ita-regioni.csv,state,0.7058823529411765,Europe/Rome,iso2:IT-45,iso1:IT,iso2:IT-45,,,
"Friuli Venezia Giulia, Italy",state,,,Friuli Venezia Giulia,Italy,2048,154,531,21652,1363,1215220,46.1165,13.11,https://raw.githubusercontent.com/pcm-dpc/COVID-19/master/dati-regioni/dpc-covid19-ita-regioni.csv,state,0.7058823529411765,Europe/Rome,iso2:IT-36,iso1:IT,iso2:IT-36,,,
"Lazio, Italy",state,,,Lazio,Italy,3880,219,475,44658,3186,5879082,41.813,12.738,https://raw.githubusercontent.com/pcm-dpc/COVID-19/master/dati-regioni/dpc-covid19-ita-regioni.csv,state,0.7058823529411765,Europe/Rome,iso2:IT-62,iso1:IT,iso2:IT-62,,,
"Liguria, Italy",state,,,Liguria,Italy,4449,556,800,15047,3093,1550640,44.226,8.783,https://raw.githubusercontent.com/pcm-dpc/COVID-19/master/dati-regioni/dpc-covid19-ita-regioni.csv,state,0.7058823529411765,Europe/Rome,iso2:IT-42,iso1:IT,iso2:IT-42,,,
"Lombardy, Italy",state,,,Lombardy,Italy,50455,8905,13426,149984,28124,10067494,45.658,9.962,https://raw.githubusercontent.com/pcm-dpc/COVID-19/master/dati-regioni/dpc-covid19-ita-regioni.csv,state,0.7058823529411765,Europe/Rome,iso2:IT-25,iso1:IT,iso2:IT-25,,,
"Marche, Italy",state,,,Marche,Italy,4464,599,287,15252,3578,1522608,43.32899999999999,13.051,https://raw.githubusercontent.com/pcm-dpc/COVID-19/master/dati-regioni/dpc-covid19-ita-regioni.csv,state,0.7058823529411765,Europe/Rome,iso2:IT-57,iso1:IT,iso2:IT-57,,,
"Molise, Italy",state,,,Molise,Italy,224,13,24,1504,187,304285,41.717,14.5515,https://raw.githubusercontent.com/pcm-dpc/COVID-19/master/dati-regioni/dpc-covid19-ita-regioni.csv,state,0.7058823529411765,Europe/Rome,iso2:IT-67,iso1:IT,iso2:IT-67,,,
"Piemont, Italy",state,,,Piemont,Italy,12362,1168,1017,38539,10177,4356406,45.2625,7.922000000000001,https://raw.githubusercontent.com/pcm-dpc/COVID-19/master/dati-regioni/dpc-covid19-ita-regioni.csv,state,0.7058823529411765,Europe/Rome,iso2:IT-21,iso1:IT,iso2:IT-21,,,
"Apulia, Italy",state,,,Apulia,Italy,2317,182,113,20080,2022,4029053,41.01,16.7275,https://raw.githubusercontent.com/pcm-dpc/COVID-19/master/dati-regioni/dpc-covid19-ita-regioni.csv,state,0.7058823529411765,Europe/Rome,iso2:IT-75,iso1:IT,iso2:IT-75,,,
"Sardinia, Italy",state,,,Sardinia,Italy,907,43,49,7157,815,1639591,40.084999999999994,8.9835,https://raw.githubusercontent.com/pcm-dpc/COVID-19/master/dati-regioni/dpc-covid19-ita-regioni.csv,state,0.7058823529411765,Europe/Rome,iso2:IT-88,iso1:IT,iso2:IT-88,,,
"Sicily, Italy",state,,,Sicily,Italy,1994,116,104,21904,1774,4983478,37.156,13.789,https://raw.githubusercontent.com/pcm-dpc/COVID-19/master/dati-regioni/dpc-covid19-ita-regioni.csv,state,0.7058823529411765,Europe/Rome,iso2:IT-82,iso1:IT,iso2:IT-82,,,
"Tuscany, Italy",state,,,Tuscany,Italy,5847,325,337,51006,5185,3729641,43.3625,11.029,https://raw.githubusercontent.com/pcm-dpc/COVID-19/master/dati-regioni/dpc-covid19-ita-regioni.csv,state,0.7058823529411765,Europe/Rome,iso2:IT-52,iso1:IT,iso2:IT-52,,,
"Trentino-Alto Adige/Südtirol, Italy",state,,,Trentino-Alto Adige/Südtirol,Italy,2285,217,273,10476,1795,1072276,46.3825,11.431000000000001,https://raw.githubusercontent.com/pcm-dpc/COVID-19/master/dati-regioni/dpc-covid19-ita-regioni.csv,state,0.7058823529411765,Europe/Rome,iso2:IT-32,iso1:IT,iso2:IT-32,,,
"Umbria, Italy",state,,,Umbria,Italy,1239,43,298,12448,898,882015,42.991,12.5795,https://raw.githubusercontent.com/pcm-dpc/COVID-19/master/dati-regioni/dpc-covid19-ita-regioni.csv,state,0.7058823529411765,Europe/Rome,iso2:IT-55,iso1:IT,iso2:IT-55,,,
"Aosta Valley, Italy",state,,,Aosta Valley,Italy,782,91,115,2390,576,125666,45.7265,7.3705,https://raw.githubusercontent.com/pcm-dpc/COVID-19/master/dati-regioni/dpc-covid19-ita-regioni.csv,state,0.7058823529411765,Europe/Rome,iso2:IT-23,iso1:IT,iso2:IT-23,,,
"Veneto, Italy",state,,,Veneto,Italy,11226,631,1186,140910,9409,4905854,45.736000000000004,11.865,https://raw.githubusercontent.com/pcm-dpc/COVID-19/master/dati-regioni/dpc-covid19-ita-regioni.csv,state,0.7058823529411765,Europe/Rome,iso2:IT-34,iso1:IT,iso2:IT-34,,,
Italy,country,,,,Italy,127304,15729,21555,675738,90020,60317000,41.293499999999995,12.5735,https://raw.githubusercontent.com/pcm-dpc/COVID-19/master/dati-regioni/dpc-covid19-ita-regioni.csv,state,0.6666666666666666,Europe/Rome,iso1:IT,iso1:IT,,,,
"Seoul, South Korea",state,,,Seoul,South Korea,563,0,151,,412,9904312,37.55513692947568,126.99357181183962,http://ncov.mohw.go.kr/en/bdBoardList.do?brdId=16&brdGubun=162&dataGubun=&ncvContSeq=&contSeq=&board_id=,state,0.45098039215686275,Asia/Seoul,390,iso1:KR,,,,
"Busan, South Korea",state,,,Busan,South Korea,122,3,91,,28,3448737,35.173247707427976,129.08102570521902,http://ncov.mohw.go.kr/en/bdBoardList.do?brdId=16&brdGubun=162&dataGubun=&ncvContSeq=&contSeq=&board_id=,state,0.45098039215686275,Asia/Seoul,391,iso1:KR,,,,
"Daegu, South Korea",state,,,Daegu,South Korea,6781,129,4865,,1787,2466052,35.8987264069481,128.61362796415915,http://ncov.mohw.go.kr/en/bdBoardList.do?brdId=16&brdGubun=162&dataGubun=&ncvContSeq=&contSeq=&board_id=,state,0.45098039215686275,Asia/Seoul,392,iso1:KR,,,,
"Incheon, South Korea",state,,,Incheon,South Korea,80,0,27,,53,2890451,37.46453840297093,126.57565862368335,http://ncov.mohw.go.kr/en/bdBoardList.do?brdId=16&brdGubun=162&dataGubun=&ncvContSeq=&contSeq=&board_id=,state,0.45098039215686275,Asia/Seoul,393,iso1:KR,,,,
"Gwangju, South Korea",state,,,Gwangju,South Korea,27,0,15,,12,1502881,35.194428311317495,126.90422326049503,http://ncov.mohw.go.kr/en/bdBoardList.do?brdId=16&brdGubun=162&dataGubun=&ncvContSeq=&contSeq=&board_id=,state,0.45098039215686275,Asia/Seoul,394,iso1:KR,,,,
"Daejeon, South Korea",state,,,Daejeon,South Korea,39,0,19,,20,1538394,36.35613779232523,127.35063280940653,http://ncov.mohw.go.kr/en/bdBoardList.do?brdId=16&brdGubun=162&dataGubun=&ncvContSeq=&contSeq=&board_id=,state,0.45098039215686275,Asia/Seoul,395,iso1:KR,,,,
"Ulsan, South Korea",state,,,Ulsan,South Korea,40,1,27,,12,1166615,35.490817611035965,129.2337717697954,http://ncov.mohw.go.kr/en/bdBoardList.do?brdId=16&brdGubun=162&dataGubun=&ncvContSeq=&contSeq=&board_id=,state,0.45098039215686275,Asia/Seoul,396,iso1:KR,,,,
"Sejong, South Korea",state,,,Sejong,South Korea,46,0,17,,29,204088,36.5739072336319,127.22270511305044,http://ncov.mohw.go.kr/en/bdBoardList.do?brdId=16&brdGubun=162&dataGubun=&ncvContSeq=&contSeq=&board_id=,state,0.45098039215686275,Asia/Seoul,397,iso1:KR,,,,
"Gyeonggi, South Korea",state,,,Gyeonggi,South Korea,580,7,213,,360,12239862,37.54598795453046,127.10036563469203,http://ncov.mohw.go.kr/en/bdBoardList.do?brdId=16&brdGubun=162&dataGubun=&ncvContSeq=&contSeq=&board_id=,state,0.45098039215686275,Asia/Seoul,398,iso1:KR,,,,
"Gangwon, South Korea",state,,,Gangwon,South Korea,45,1,23,,21,1549780,37.62048981300006,128.21863332728725,http://ncov.mohw.go.kr/en/bdBoardList.do?brdId=16&brdGubun=162&dataGubun=&ncvContSeq=&contSeq=&board_id=,state,0.45098039215686275,Asia/Seoul,399,iso1:KR,,,,
"North Chungcheong, South Korea",state,,,North Chungcheong,South Korea,45,0,29,,16,1588633,36.58900726986957,127.93098229369787,http://ncov.mohw.go.kr/en/bdBoardList.do?brdId=16&brdGubun=162&dataGubun=&ncvContSeq=&contSeq=&board_id=,state,0.45098039215686275,Asia/Seoul,400,iso1:KR,,,,
"South Chungcheong, South Korea",state,,,South Chungcheong,South Korea,136,0,102,,34,2064665,36.490061124850655,126.8749815200755,http://ncov.mohw.go.kr/en/bdBoardList.do?brdId=16&brdGubun=162&dataGubun=&ncvContSeq=&contSeq=&board_id=,state,0.45098039215686275,Asia/Seoul,401,iso1:KR,,,,
"North Jeolla, South Korea",state,,,North Jeolla,South Korea,16,0,7,,9,1895882,35.70462972633078,127.16605044961278,http://ncov.mohw.go.kr/en/bdBoardList.do?brdId=16&brdGubun=162&dataGubun=&ncvContSeq=&contSeq=&board_id=,state,0.45098039215686275,Asia/Seoul,402,iso1:KR,,,,
"South Jeolla, South Korea",state,,,South Jeolla,South Korea,15,0,4,,11,1938136,34.87712209728434,126.96036184538531,http://ncov.mohw.go.kr/en/bdBoardList.do?brdId=16&brdGubun=162&dataGubun=&ncvContSeq=&contSeq=&board_id=,state,0.45098039215686275,Asia/Seoul,403,iso1:KR,,,,
"North Gyeongsang, South Korea",state,,,North Gyeongsang,South Korea,1316,45,922,,349,2739179,36.31153066655699,128.69361636698187,http://ncov.mohw.go.kr/en/bdBoardList.do?brdId=16&brdGubun=162&dataGubun=&ncvContSeq=&contSeq=&board_id=,state,0.45098039215686275,Asia/Seoul,404,iso1:KR,,,,
"South Gyeongsang, South Korea",state,,,South Gyeongsang,South Korea,111,0,80,,31,3374725,35.29773061758908,128.44314882752573,http://ncov.mohw.go.kr/en/bdBoardList.do?brdId=16&brdGubun=162&dataGubun=&ncvContSeq=&contSeq=&board_id=,state,0.45098039215686275,Asia/Seoul,405,iso1:KR,,,,
"Jeju, South Korea",state,,,Jeju,South Korea,12,0,4,,8,583284,33.38209086900005,126.55872643350006,http://ncov.mohw.go.kr/en/bdBoardList.do?brdId=16&brdGubun=162&dataGubun=&ncvContSeq=&contSeq=&board_id=,state,0.45098039215686275,Asia/Seoul,406,iso1:KR,,,,
"(unassigned), South Korea",state,,,(unassigned),South Korea,310,0,2,,308,,,,http://ncov.mohw.go.kr/en/bdBoardList.do?brdId=16&brdGubun=162&dataGubun=&ncvContSeq=&contSeq=&board_id=,state,0.45098039215686275,,,iso1:KR,,,,
Puerto Rico,country,,,,Puerto Rico,475,20,,4591,,3411307,18.1995,-66.589,http://salud.gov.pr/Pages/coronavirus.aspx,,0.29411764705882354,America/Puerto_Rico,iso1:PR,iso1:PR,,,,
"Алтайский край, Russia",state,,,Алтайский край,Russia,7,0,0,,7,2317052,52.56088896735193,82.4798643972741,https://yandex.ru/maps/api/covid?csrfToken=,state,0.49019607843137253,Asia/Barnaul,408,iso1:RU,,,,
"Амурская область, Russia",state,,,Амурская область,Russia,4,0,0,,4,790676,52.94829335874619,127.31298384038189,https://yandex.ru/maps/api/covid?csrfToken=,state,0.49019607843137253,Asia/Yakutsk,409,iso1:RU,,,,
"Архангельская область, Russia",state,,,Архангельская область,Russia,8,0,3,,5,1092277,71.25419668220843,52.40648013605133,https://yandex.ru/maps/api/covid?csrfToken=,state,0.49019607843137253,Europe/Moscow,410,iso1:RU,,,,
"Астраханская область, Russia",state,,,Астраханская область,Russia,5,0,0,,5,1005967,47.217078355467635,47.10724671439908,https://yandex.ru/maps/api/covid?csrfToken=,state,0.49019607843137253,Europe/Astrakhan,411,iso1:RU,,,,
"Белгородская область, Russia",state,,,Белгородская область,Russia,7,0,0,,7,1547532,50.611976016414836,37.257911820915325,https://yandex.ru/maps/api/covid?csrfToken=,state,0.49019607843137253,Europe/Moscow,412,iso1:RU,,,,
"Брянская область, Russia",state,,,Брянская область,Russia,19,0,0,,19,1192570,52.92660191489801,33.2805060190266,https://yandex.ru/maps/api/covid?csrfToken=,state,0.49019607843137253,Europe/Moscow,413,iso1:RU,,,,
"Владимирская область, Russia",state,,,Владимирская область,Russia,3,1,0,,2,1358538,55.9653568590318,40.61775882331102,https://yandex.ru/maps/api/covid?csrfToken=,state,0.49019607843137253,Europe/Moscow,414,iso1:RU,,,,
"Волгоградская область, Russia",state,,,Волгоградская область,Russia,8,0,1,,7,2491751,49.34476614034509,44.301002410981965,https://yandex.ru/maps/api/covid?csrfToken=,state,0.49019607843137253,Europe/Volgograd,415,iso1:RU,,,,
"Вологодская область, Russia",state,,,Вологодская область,Russia,13,0,0,,13,1160721,60.04233022695837,40.921719597981024,https://yandex.ru/maps/api/covid?csrfToken=,state,0.49019607843137253,Europe/Moscow,416,iso1:RU,,,,
"Воронежская область, Russia",state,,,Воронежская область,Russia,14,0,4,,10,2323657,50.82018036194679,40.54008914549763,https://yandex.ru/maps/api/covid?csrfToken=,state,0.49019607843137253,Europe/Moscow,417,iso1:RU,,,,
"Еврейская автономная область, Russia",state,,,Еврейская автономная область,Russia,3,0,0,,3,158381,48.57703562786032,132.75993778190755,https://yandex.ru/maps/api/covid?csrfToken=,state,0.49019607843137253,Asia/Vladivostok,418,iso1:RU,,,,
"Забайкальский край, Russia",state,,,Забайкальский край,Russia,1,0,1,,0,1059657,53.76782989901964,114.93598067831564,https://yandex.ru/maps/api/covid?csrfToken=,state,0.49019607843137253,Asia/Chita,419,iso1:RU,,,,
"Ивановская область, Russia",state,,,Ивановская область,Russia,23,0,1,,22,997196,57.059127305630625,41.5570813335367,https://yandex.ru/maps/api/covid?csrfToken=,state,0.49019607843137253,Europe/Moscow,420,iso1:RU,,,,
"Иркутская область, Russia",state,,,Иркутская область,Russia,8,0,0,,8,2390827,57.70678803189213,107.40531009328615,https://yandex.ru/maps/api/covid?csrfToken=,state,0.49019607843137253,Asia/Irkutsk,421,iso1:RU,,,,
"Кабардино-Балкарская Республика, Russia",state,,,Кабардино-Балкарская Республика,Russia,8,0,0,,8,868174,43.44054826788823,43.39782079804138,https://yandex.ru/maps/api/covid?csrfToken=,state,0.49019607843137253,Europe/Moscow,422,iso1:RU,,,,
"Калининградская область, Russia",state,,,Калининградская область,Russia,19,0,5,,14,1012253,54.81279754841499,21.221198564000076,https://yandex.ru/maps/api/covid?csrfToken=,state,0.49019607843137253,Europe/Kaliningrad,423,iso1:RU,,,,
"Калужская область, Russia",state,,,Калужская область,Russia,6,0,1,,5,1000070,54.29542003021021,35.38014570536001,https://yandex.ru/maps/api/covid?csrfToken=,state,0.49019607843137253,Europe/Moscow,424,iso1:RU,,,,
"Камчатский край, Russia",state,,,Камчатский край,Russia,2,0,0,,2,312438,57.908945618725426,165.0098144713644,https://yandex.ru/maps/api/covid?csrfToken=,state,0.49019607843137253,Etc/GMT-11,425,iso1:RU,,,,
"Кемеровская область, Russia",state,,,Кемеровская область,Russia,3,0,2,,1,2657758,54.50048503315773,86.92687015138634,https://yandex.ru/maps/api/covid?csrfToken=,state,0.49019607843137253,Asia/Novokuznetsk,426,iso1:RU,,,,
"Кировская область, Russia",state,,,Кировская область,Russia,18,0,3,,15,1262549,58.579512539871786,50.131648390410874,https://yandex.ru/maps/api/covid?csrfToken=,state,0.49019607843137253,Europe/Kirov,427,iso1:RU,,,,
"Костромская область, Russia",state,,,Костромская область,Russia,8,1,0,,7,633392,58.45444265380539,43.993676792350044,https://yandex.ru/maps/api/covid?csrfToken=,state,0.49019607843137253,Europe/Moscow,428,iso1:RU,,,,
"Краснодарский край, Russia",state,,,Краснодарский край,Russia,39,0,4,,35,5677786,45.125972212745225,39.16124006450244,https://yandex.ru/maps/api/covid?csrfToken=,state,0.49019607843137253,Europe/Moscow,429,iso1:RU,,,,
"Красноярский край, Russia",state,,,Красноярский край,Russia,29,0,4,,25,2867875,66.5351217717118,95.03223717550006,https://yandex.ru/maps/api/covid?csrfToken=,state,0.49019607843137253,Asia/Krasnoyarsk,430,iso1:RU,,,,
"Курганская область, Russia",state,,,Курганская область,Russia,2,0,1,,1,826941,55.50209433754868,65.35707555947121,https://yandex.ru/maps/api/covid?csrfToken=,state,0.49019607843137253,Asia/Yekaterinburg,431,iso1:RU,,,,
"Курская область, Russia",state,,,Курская область,Russia,4,0,0,,4,1103059,51.659870307068985,36.26887658416072,https://yandex.ru/maps/api/covid?csrfToken=,state,0.49019607843137253,Europe/Moscow,432,iso1:RU,,,,
"Ленинградская область, Russia",state,,,Ленинградская область,Russia,57,0,1,,56,1876392,59.880169583309595,31.690953920473945,https://yandex.ru/maps/api/covid?csrfToken=,state,0.49019607843137253,Europe/Moscow,433,iso1:RU,,,,
"Липецкая область, Russia",state,,,Липецкая область,Russia,18,0,4,,14,1139492,52.73360321726463,39.21200483550473,https://yandex.ru/maps/api/covid?csrfToken=,state,0.49019607843137253,Europe/Moscow,434,iso1:RU,,,,
"Магаданская область, Russia",state,,,Магаданская область,Russia,1,0,0,,1,140199,62.60417145339284,154.0896956729169,https://yandex.ru/maps/api/covid?csrfToken=,state,0.49019607843137253,Asia/Magadan,435,iso1:RU,,,,
"Москва, Russia",state,,,Москва,Russia,3893,29,198,,3666,12692466,55.44724463183428,37.37360600816072,https://yandex.ru/maps/api/covid?csrfToken=,state,0.49019607843137253,Europe/Moscow,436,iso1:RU,,,,
"Московская область, Russia",state,,,Московская область,Russia,305,2,33,,270,7687647,55.594087530914805,37.69028893423692,https://yandex.ru/maps/api/covid?csrfToken=,state,0.49019607843137253,Europe/Moscow,437,iso1:RU,,,,
"Мурманская область, Russia",state,,,Мурманская область,Russia,15,0,1,,14,741511,68.00938548400006,34.90373905100009,https://yandex.ru/maps/api/covid?csrfToken=,state,0.49019607843137253,Europe/Moscow,438,iso1:RU,,,,
"Нижегородская область, Russia",state,,,Нижегородская область,Russia,47,0,1,,46,3203818,56.278012193807655,44.77275068549571,https://yandex.ru/maps/api/covid?csrfToken=,state,0.49019607843137253,Europe/Moscow,439,iso1:RU,,,,
"Новгородская область, Russia",state,,,Новгородская область,Russia,3,0,0,,3,596173,58.17642344813359,32.91590335475601,https://yandex.ru/maps/api/covid?csrfToken=,state,0.49019607843137253,Europe/Moscow,440,iso1:RU,,,,
"Новосибирская область, Russia",state,,,Новосибирская область,Russia,11,0,2,,9,2798251,55.288846533540664,80.08842451353044,https://yandex.ru/maps/api/covid?csrfToken=,state,0.49019607843137253,Asia/Novosibirsk,441,iso1:RU,,,,
"Омская область, Russia",state,,,Омская область,Russia,10,0,0,,10,1926562,56.014791818937255,73.36966149263375,https://yandex.ru/maps/api/covid?csrfToken=,state,0.49019607843137253,Asia/Omsk,442,iso1:RU,,,,
"Оренбургская область, Russia",state,,,Оренбургская область,Russia,12,1,1,,10,1956256,52.42594798177135,56.20663392436609,https://yandex.ru/maps/api/covid?csrfToken=,state,0.49019607843137253,Asia/Yekaterinburg,443,iso1:RU,,,,
"Орловская область, Russia",state,,,Орловская область,Russia,6,0,0,,6,733682,52.79009847666333,36.42168419751766,https://yandex.ru/maps/api/covid?csrfToken=,state,0.49019607843137253,Europe/Moscow,444,iso1:RU,,,,
"Пензенская область, Russia",state,,,Пензенская область,Russia,27,1,1,,25,1304825,53.16538564742967,44.538553094549655,https://yandex.ru/maps/api/covid?csrfToken=,state,0.49019607843137253,Europe/Moscow,445,iso1:RU,,,,
"Пермский край, Russia",state,,,Пермский край,Russia,21,2,3,,16,2599301,58.89513926886215,55.62097741027924,https://yandex.ru/maps/api/covid?csrfToken=,state,0.49019607843137253,Asia/Yekaterinburg,446,iso1:RU,,,,
"Приморский край, Russia",state,,,Приморский край,Russia,7,1,2,,4,1895305,45.36984996141917,134.7167686551439,https://yandex.ru/maps/api/covid?csrfToken=,state,0.49019607843137253,Asia/Vladivostok,447,iso1:RU,,,,
"Псковская область, Russia",state,,,Псковская область,Russia,9,2,3,,4,626046,57.29607624962487,29.42523746466557,https://yandex.ru/maps/api/covid?csrfToken=,state,0.49019607843137253,Europe/Moscow,448,iso1:RU,,,,
"Республика Адыгея, Russia",state,,,Республика Адыгея,Russia,7,0,0,,7,463453,44.47209198665581,39.676369256436004,https://yandex.ru/maps/api/covid?csrfToken=,state,0.49019607843137253,Europe/Moscow,449,iso1:RU,,,,
"Республика Башкортостан, Russia",state,,,Республика Башкортостан,Russia,10,0,5,,5,4037811,54.04502187745766,56.56066165526113,https://yandex.ru/maps/api/covid?csrfToken=,state,0.49019607843137253,Asia/Yekaterinburg,450,iso1:RU,,,,
"Республика Бурятия, Russia",state,,,Республика Бурятия,Russia,35,0,0,,35,986109,53.60371260690127,107.78094607959787,https://yandex.ru/maps/api/covid?csrfToken=,state,0.49019607843137253,Asia/Irkutsk,451,iso1:RU,,,,
"Республика Дагестан, Russia",state,,,Республика Дагестан,Russia,25,0,0,,25,3111353,43.09894854938602,46.85152408187915,https://yandex.ru/maps/api/covid?csrfToken=,state,0.49019607843137253,Europe/Moscow,452,iso1:RU,,,,
"Республика Ингушетия, Russia",state,,,Республика Ингушетия,Russia,1,0,0,,1,506688,43.14869771655038,44.835279168249,https://yandex.ru/maps/api/covid?csrfToken=,state,0.49019607843137253,Europe/Moscow,453,iso1:RU,,,,
"Республика Калмыкия, Russia",state,,,Республика Калмыкия,Russia,7,0,0,,7,271035,46.50346660390062,44.59612613267237,https://yandex.ru/maps/api/covid?csrfToken=,state,0.49019607843137253,Europe/Moscow,454,iso1:RU,,,,
"Республика Коми, Russia",state,,,Республика Коми,Russia,59,2,1,,56,820171,63.8317630077066,55.824065789704406,https://yandex.ru/maps/api/covid?csrfToken=,state,0.49019607843137253,Europe/Moscow,455,iso1:RU,,,,
"Республика Крым, Russia",state,,,Республика Крым,Russia,20,0,3,,17,1912025,45.289353574844,34.563202345000064,https://yandex.ru/maps/api/covid?csrfToken=,state,0.49019607843137253,Europe/Simferopol,456,iso1:RU,,,,
"Республика Марий Эл, Russia",state,,,Республика Марий Эл,Russia,4,0,0,,4,679094,56.5604238960959,47.91545291506995,https://yandex.ru/maps/api/covid?csrfToken=,state,0.49019607843137253,Europe/Moscow,457,iso1:RU,,,,
"Республика Мордовия, Russia",state,,,Республика Мордовия,Russia,5,0,2,,3,790829,54.42051575424861,44.47003014472537,https://yandex.ru/maps/api/covid?csrfToken=,state,0.49019607843137253,Europe/Moscow,458,iso1:RU,,,,
"Республика Саха (Якутия), Russia",state,,,Республика Саха (Якутия),Russia,15,0,4,,11,970105,66.10226602223707,134.19354577062074,https://yandex.ru/maps/api/covid?csrfToken=,state,0.49019607843137253,Asia/Vladivostok,459,iso1:RU,,,,
"Республика Северная Осетия — Алания, Russia",state,,,Республика Северная Осетия — Алания,Russia,5,0,0,,5,,43.19804830578465,44.161397482407864,https://yandex.ru/maps/api/covid?csrfToken=,state,0.49019607843137253,Europe/Moscow,460,iso1:RU,,,,
"Республика Татарстан, Russia",state,,,Республика Татарстан,Russia,25,0,6,,19,3902642,55.3216364610538,50.70933922692376,https://yandex.ru/maps/api/covid?csrfToken=,state,0.49019607843137253,Europe/Moscow,461,iso1:RU,,,,
"Республика Хакасия, Russia",state,,,Республика Хакасия,Russia,3,0,1,,2,534186,53.380970428192654,89.84276452016641,https://yandex.ru/maps/api/covid?csrfToken=,state,0.49019607843137253,Asia/Krasnoyarsk,462,iso1:RU,,,,
"Республика Чувашия, Russia",state,,,Республика Чувашия,Russia,1,0,1,,0,,55.48089030609273,47.16624799999519,https://yandex.ru/maps/api/covid?csrfToken=,state,0.49019607843137253,Europe/Moscow,463,iso1:RU,,,,
"Ростовская область, Russia",state,,,Ростовская область,Russia,9,0,0,,9,4195327,48.08657420483567,41.267486203128044,https://yandex.ru/maps/api/covid?csrfToken=,state,0.49019607843137253,Europe/Moscow,464,iso1:RU,,,,
"Рязанская область, Russia",state,,,Рязанская область,Russia,12,0,2,,10,1108924,54.34107615803825,40.687211948222824,https://yandex.ru/maps/api/covid?csrfToken=,state,0.49019607843137253,Europe/Moscow,465,iso1:RU,,,,
"Самарская область, Russia",state,,,Самарская область,Russia,17,0,8,,9,3179026,53.19935038586158,50.24352786651778,https://yandex.ru/maps/api/covid?csrfToken=,state,0.49019607843137253,Europe/Samara,466,iso1:RU,,,,
"Санкт-Петербург, Russia",state,,,Санкт-Петербург,Russia,191,2,7,,182,5392992,59.93793091458002,30.0870441013015,https://yandex.ru/maps/api/covid?csrfToken=,state,0.49019607843137253,Europe/Moscow,467,iso1:RU,,,,
"Саратовская область, Russia",state,,,Саратовская область,Russia,19,0,1,,18,2421785,51.3108997632721,46.63994897159279,https://yandex.ru/maps/api/covid?csrfToken=,state,0.49019607843137253,Europe/Saratov,468,iso1:RU,,,,
"Сахалинская область, Russia",state,,,Сахалинская область,Russia,6,0,0,,6,488453,49.06702301650006,149.07801019350006,https://yandex.ru/maps/api/covid?csrfToken=,state,0.49019607843137253,Etc/GMT-10,469,iso1:RU,,,,
"Свердловская область, Russia",state,,,Свердловская область,Russia,40,0,13,,27,4310861,59.02801229533114,61.707634312023856,https://yandex.ru/maps/api/covid?csrfToken=,state,0.49019607843137253,Asia/Yekaterinburg,470,iso1:RU,,,,
"Севастополь, Russia",state,,,Севастополь,Russia,5,0,0,,5,448829,44.62521949229629,33.61585907774102,https://yandex.ru/maps/api/covid?csrfToken=,state,0.49019607843137253,Europe/Simferopol,471,iso1:RU,,,,
"Смоленская область, Russia",state,,,Смоленская область,Russia,2,0,0,,2,934747,54.75278613861631,33.08387719402245,https://yandex.ru/maps/api/covid?csrfToken=,state,0.49019607843137253,Europe/Moscow,472,iso1:RU,,,,
"Ставропольский край, Russia",state,,,Ставропольский край,Russia,11,0,2,,9,2803021,44.95066742621074,43.27635623560175,https://yandex.ru/maps/api/covid?csrfToken=,state,0.49019607843137253,Europe/Moscow,473,iso1:RU,,,,
"Тамбовская область, Russia",state,,,Тамбовская область,Russia,7,0,2,,5,1006962,52.711950792095365,41.59485680569699,https://yandex.ru/maps/api/covid?csrfToken=,state,0.49019607843137253,Europe/Moscow,474,iso1:RU,,,,
"Тверская область, Russia",state,,,Тверская область,Russia,6,0,2,,4,1260345,57.24892192275851,34.561591017261605,https://yandex.ru/maps/api/covid?csrfToken=,state,0.49019607843137253,Europe/Moscow,475,iso1:RU,,,,
"Томская область, Russia",state,,,Томская область,Russia,3,0,1,,2,1079051,58.36996460628154,82.23537356953457,https://yandex.ru/maps/api/covid?csrfToken=,state,0.49019607843137253,Asia/Tomsk,476,iso1:RU,,,,
"Тульская область, Russia",state,,,Тульская область,Russia,29,0,3,,26,1466025,53.90495290810023,37.42038292777988,https://yandex.ru/maps/api/covid?csrfToken=,state,0.49019607843137253,Europe/Moscow,477,iso1:RU,,,,
"Тюменская область, Russia",state,,,Тюменская область,Russia,11,0,2,,9,1537684,57.561332197545134,69.99937625501013,https://yandex.ru/maps/api/covid?csrfToken=,state,0.49019607843137253,Asia/Yekaterinburg,478,iso1:RU,,,,
"Удмуртская Республика, Russia",state,,,Удмуртская Республика,Russia,5,0,3,,2,1501005,57.197697659119655,52.736450636787424,https://yandex.ru/maps/api/covid?csrfToken=,state,0.49019607843137253,Europe/Samara,479,iso1:RU,,,,
