city,county,state,country,cases,deaths,recovered,tested,lat,long,url,active,featureId,population
,DeKalb County,IN,USA,0,0,,0,41.397172,-84.998833,https://opendata.arcgis.com/datasets/d14de7e28b0448ab82eb36d6f25b1ea1_0.csv,0,0,43226
,Boone County,IN,USA,1,0,,0,40.051773999999995,-86.4677715,https://opendata.arcgis.com/datasets/d14de7e28b0448ab82eb36d6f25b1ea1_0.csv,1,1,66999
,Tippecanoe County,IN,USA,0,0,,0,40.388631000000004,-86.89501100000001,https://opendata.arcgis.com/datasets/d14de7e28b0448ab82eb36d6f25b1ea1_0.csv,0,2,193048
,Johnson County,IN,USA,3,0,,0,39.4900085,-86.101242,https://opendata.arcgis.com/datasets/d14de7e28b0448ab82eb36d6f25b1ea1_0.csv,3,3,156225
,Elkhart County,IN,USA,0,0,,0,41.598169999999996,-85.858041,https://opendata.arcgis.com/datasets/d14de7e28b0448ab82eb36d6f25b1ea1_0.csv,0,4,205560
,Adams County,IN,USA,1,0,,0,40.745404,-84.93797749999999,https://opendata.arcgis.com/datasets/d14de7e28b0448ab82eb36d6f25b1ea1_0.csv,1,5,35636
,Noble County,IN,USA,1,0,,0,41.3952975,-85.42342049999999,https://opendata.arcgis.com/datasets/d14de7e28b0448ab82eb36d6f25b1ea1_0.csv,1,6,47532
,Madison County,IN,USA,0,0,,0,40.1616875,-85.7193405,https://opendata.arcgis.com/datasets/d14de7e28b0448ab82eb36d6f25b1ea1_0.csv,0,7,129641
,St. Joseph County,IN,USA,1,0,,0,41.596739,-86.2930665,https://opendata.arcgis.com/datasets/d14de7e28b0448ab82eb36d6f25b1ea1_0.csv,1,8,270771
,Jackson County,IN,USA,0,0,,0,38.898375,-86.056745,https://opendata.arcgis.com/datasets/d14de7e28b0448ab82eb36d6f25b1ea1_0.csv,0,9,44111
,Vanderburgh County,IN,USA,0,0,,0,37.997158999999996,-87.575276,https://opendata.arcgis.com/datasets/d14de7e28b0448ab82eb36d6f25b1ea1_0.csv,0,10,180974
,Grant County,IN,USA,0,0,,0,40.515986999999996,-85.6545605,https://opendata.arcgis.com/datasets/d14de7e28b0448ab82eb36d6f25b1ea1_0.csv,0,11,65936
,Porter County,IN,USA,0,0,,0,41.465349,-87.07600400000001,https://opendata.arcgis.com/datasets/d14de7e28b0448ab82eb36d6f25b1ea1_0.csv,0,12,169594
,Marion County,IN,USA,6,0,,0,39.779657,-86.13272599999999,https://opendata.arcgis.com/datasets/d14de7e28b0448ab82eb36d6f25b1ea1_0.csv,6,13,954670
,Hamilton County,IN,USA,1,0,,0,40.0724955,-86.052323,https://opendata.arcgis.com/datasets/d14de7e28b0448ab82eb36d6f25b1ea1_0.csv,1,14,330086
,Lake County,IN,USA,0,0,,0,41.4360915,-87.372815,https://opendata.arcgis.com/datasets/d14de7e28b0448ab82eb36d6f25b1ea1_0.csv,0,15,484411
,Morgan County,IN,USA,0,0,,0,39.486663,-86.46872300000001,https://opendata.arcgis.com/datasets/d14de7e28b0448ab82eb36d6f25b1ea1_0.csv,0,16,70116
,Hendricks County,IN,USA,2,0,,0,39.762399,-86.510613,https://opendata.arcgis.com/datasets/d14de7e28b0448ab82eb36d6f25b1ea1_0.csv,2,17,167009
,LaPorte County,IN,USA,1,0,,0,41.4985245,-86.70959,https://opendata.arcgis.com/datasets/d14de7e28b0448ab82eb36d6f25b1ea1_0.csv,1,18,110007
,Floyd County,IN,USA,0,0,,0,38.299344000000005,-85.8968305,https://opendata.arcgis.com/datasets/d14de7e28b0448ab82eb36d6f25b1ea1_0.csv,0,19,77781
,Shelby County,IN,USA,0,0,,0,39.5229175,-85.7912735,https://opendata.arcgis.com/datasets/d14de7e28b0448ab82eb36d6f25b1ea1_0.csv,0,20,44593
,Allen County,IN,USA,0,0,,0,41.093929,-85.070744,https://opendata.arcgis.com/datasets/d14de7e28b0448ab82eb36d6f25b1ea1_0.csv,0,21,375351
,Tipton County,IN,USA,0,0,,0,40.311361500000004,-86.052076,https://opendata.arcgis.com/datasets/d14de7e28b0448ab82eb36d6f25b1ea1_0.csv,0,22,15128
,Rush County,IN,USA,0,0,,0,39.6201645,-85.465533,https://opendata.arcgis.com/datasets/d14de7e28b0448ab82eb36d6f25b1ea1_0.csv,0,23,16663
,Orange County,IN,USA,0,0,,0,38.541362,-86.49588800000001,https://opendata.arcgis.com/datasets/d14de7e28b0448ab82eb36d6f25b1ea1_0.csv,0,24,19489
,Crawford County,IN,USA,0,0,,0,38.264135499999995,-86.4664205,https://opendata.arcgis.com/datasets/d14de7e28b0448ab82eb36d6f25b1ea1_0.csv,0,25,10558
,Owen County,IN,USA,0,0,,0,39.319545500000004,-86.84269800000001,https://opendata.arcgis.com/datasets/d14de7e28b0448ab82eb36d6f25b1ea1_0.csv,0,26,20845
,Fountain County,IN,USA,0,0,,0,40.159532,-87.2651005,https://opendata.arcgis.com/datasets/d14de7e28b0448ab82eb36d6f25b1ea1_0.csv,0,27,16351
,Decatur County,IN,USA,0,0,,0,39.292067,-85.4919175,https://opendata.arcgis.com/datasets/d14de7e28b0448ab82eb36d6f25b1ea1_0.csv,0,28,26794
,Fulton County,IN,USA,0,0,,0,41.0412495,-86.2069545,https://opendata.arcgis.com/datasets/d14de7e28b0448ab82eb36d6f25b1ea1_0.csv,0,29,20092
,LaGrange County,IN,USA,0,0,,0,41.641722,-85.426917,https://opendata.arcgis.com/datasets/d14de7e28b0448ab82eb36d6f25b1ea1_0.csv,0,30,39330
,Knox County,IN,USA,0,0,,0,38.6611855,-87.4215765,https://opendata.arcgis.com/datasets/d14de7e28b0448ab82eb36d6f25b1ea1_0.csv,0,31,36895
,Monroe County,IN,USA,0,0,,0,39.173286000000004,-86.50153900000001,https://opendata.arcgis.com/datasets/d14de7e28b0448ab82eb36d6f25b1ea1_0.csv,0,32,146917
,Cass County,IN,USA,0,0,,0,40.736143,-86.3733815,https://opendata.arcgis.com/datasets/d14de7e28b0448ab82eb36d6f25b1ea1_0.csv,0,33,37955
,Randolph County,IN,USA,0,0,,0,40.157236999999995,-85.011338,https://opendata.arcgis.com/datasets/d14de7e28b0448ab82eb36d6f25b1ea1_0.csv,0,34,24851
,Martin County,IN,USA,0,0,,0,38.700171999999995,-86.8032725,https://opendata.arcgis.com/datasets/d14de7e28b0448ab82eb36d6f25b1ea1_0.csv,0,35,10217
,Washington County,IN,USA,0,0,,0,38.5984585,-86.078819,https://opendata.arcgis.com/datasets/d14de7e28b0448ab82eb36d6f25b1ea1_0.csv,0,36,27943
,Parke County,IN,USA,0,0,,0,39.779033,-87.2218005,https://opendata.arcgis.com/datasets/d14de7e28b0448ab82eb36d6f25b1ea1_0.csv,0,37,16927
,Kosciusko County,IN,USA,0,0,,0,41.239367,-85.8647395,https://opendata.arcgis.com/datasets/d14de7e28b0448ab82eb36d6f25b1ea1_0.csv,0,38,79344
,Wayne County,IN,USA,0,0,,0,39.8599215,-85.01602550000001,https://opendata.arcgis.com/datasets/d14de7e28b0448ab82eb36d6f25b1ea1_0.csv,0,39,65936
,Montgomery County,IN,USA,0,0,,0,40.039825500000006,-86.893817,https://opendata.arcgis.com/datasets/d14de7e28b0448ab82eb36d6f25b1ea1_0.csv,0,40,38346
,Hancock County,IN,USA,0,0,,0,39.821446,-85.76510250000001,https://opendata.arcgis.com/datasets/d14de7e28b0448ab82eb36d6f25b1ea1_0.csv,0,41,76351
,Vigo County,IN,USA,0,0,,0,39.4335005,-87.40453099999999,https://opendata.arcgis.com/datasets/d14de7e28b0448ab82eb36d6f25b1ea1_0.csv,0,42,107386
,Jefferson County,IN,USA,0,0,,0,38.749990499999996,-85.4428255,https://opendata.arcgis.com/datasets/d14de7e28b0448ab82eb36d6f25b1ea1_0.csv,0,43,32208
,Huntington County,IN,USA,0,0,,0,40.8291895,-85.48925399999999,https://opendata.arcgis.com/datasets/d14de7e28b0448ab82eb36d6f25b1ea1_0.csv,0,44,36240
,Harrison County,IN,USA,0,0,,0,38.190351500000006,-86.114784,https://opendata.arcgis.com/datasets/d14de7e28b0448ab82eb36d6f25b1ea1_0.csv,0,45,40350
,Wabash County,IN,USA,0,0,,0,40.848853500000004,-85.7925115,https://opendata.arcgis.com/datasets/d14de7e28b0448ab82eb36d6f25b1ea1_0.csv,0,46,31280
,Delaware County,IN,USA,0,0,,0,40.2282065,-85.3964875,https://opendata.arcgis.com/datasets/d14de7e28b0448ab82eb36d6f25b1ea1_0.csv,0,47,114772
,Posey County,IN,USA,0,0,,0,38.001000000000005,-87.87335350000001,https://opendata.arcgis.com/datasets/d14de7e28b0448ab82eb36d6f25b1ea1_0.csv,0,48,25540
,Spencer County,IN,USA,0,0,,0,37.993821,-87.0179535,https://opendata.arcgis.com/datasets/d14de7e28b0448ab82eb36d6f25b1ea1_0.csv,0,49,20327
,Ohio County,IN,USA,0,0,,0,38.9659135,-84.9850845,https://opendata.arcgis.com/datasets/d14de7e28b0448ab82eb36d6f25b1ea1_0.csv,0,50,5844
,Carroll County,IN,USA,0,0,,0,40.5844765,-86.5738755,https://opendata.arcgis.com/datasets/d14de7e28b0448ab82eb36d6f25b1ea1_0.csv,0,51,20127
,Warren County,IN,USA,0,0,,0,40.3021425,-87.311793,https://opendata.arcgis.com/datasets/d14de7e28b0448ab82eb36d6f25b1ea1_0.csv,0,52,8263
,Franklin County,IN,USA,0,0,,0,39.397251999999995,-85.056989,https://opendata.arcgis.com/datasets/d14de7e28b0448ab82eb36d6f25b1ea1_0.csv,0,53,22736
,Pulaski County,IN,USA,0,0,,0,41.0411035,-86.6989025,https://opendata.arcgis.com/datasets/d14de7e28b0448ab82eb36d6f25b1ea1_0.csv,0,54,12469
,Jay County,IN,USA,0,0,,0,40.439459,-85.0111465,https://opendata.arcgis.com/datasets/d14de7e28b0448ab82eb36d6f25b1ea1_0.csv,0,55,20764
,Wells County,IN,USA,1,0,,0,40.742376,-85.258652,https://opendata.arcgis.com/datasets/d14de7e28b0448ab82eb36d6f25b1ea1_0.csv,1,56,28206
,Marshall County,IN,USA,0,0,,0,41.325298000000004,-86.2605775,https://opendata.arcgis.com/datasets/d14de7e28b0448ab82eb36d6f25b1ea1_0.csv,0,57,46248
,Sullivan County,IN,USA,0,0,,0,39.080525,-87.4431845,https://opendata.arcgis.com/datasets/d14de7e28b0448ab82eb36d6f25b1ea1_0.csv,0,58,20690
,Brown County,IN,USA,0,0,,0,39.196282,-86.23083349999999,https://opendata.arcgis.com/datasets/d14de7e28b0448ab82eb36d6f25b1ea1_0.csv,0,59,15234
,Ripley County,IN,USA,0,0,,0,39.1115335,-85.2549985,https://opendata.arcgis.com/datasets/d14de7e28b0448ab82eb36d6f25b1ea1_0.csv,0,60,28523
,Henry County,IN,USA,0,0,,0,39.931831,-85.3989305,https://opendata.arcgis.com/datasets/d14de7e28b0448ab82eb36d6f25b1ea1_0.csv,0,61,48271
,Howard County,IN,USA,1,0,,0,40.469593,-86.1189395,https://opendata.arcgis.com/datasets/d14de7e28b0448ab82eb36d6f25b1ea1_0.csv,1,62,82366
,Whitley County,IN,USA,0,0,,0,41.148574999999994,-85.49717749999999,https://opendata.arcgis.com/datasets/d14de7e28b0448ab82eb36d6f25b1ea1_0.csv,0,63,34074
,Dearborn County,IN,USA,0,0,,0,39.1234195,-84.9759795,https://opendata.arcgis.com/datasets/d14de7e28b0448ab82eb36d6f25b1ea1_0.csv,0,64,49568
,Blackford County,IN,USA,0,0,,0,40.473138,-85.32408,https://opendata.arcgis.com/datasets/d14de7e28b0448ab82eb36d6f25b1ea1_0.csv,0,65,11930
,Scott County,IN,USA,0,0,,0,38.6948615,-85.729157,https://opendata.arcgis.com/datasets/d14de7e28b0448ab82eb36d6f25b1ea1_0.csv,0,66,23878
,Bartholomew County,IN,USA,0,0,,0,39.192976,-85.885058,https://opendata.arcgis.com/datasets/d14de7e28b0448ab82eb36d6f25b1ea1_0.csv,0,67,82753
,Jasper County,IN,USA,0,0,,0,41.011453,-87.1030475,https://opendata.arcgis.com/datasets/d14de7e28b0448ab82eb36d6f25b1ea1_0.csv,0,68,33370
,Union County,IN,USA,0,0,,0,39.6256065,-84.925108,https://opendata.arcgis.com/datasets/d14de7e28b0448ab82eb36d6f25b1ea1_0.csv,0,69,7037
,Vermillion County,IN,USA,0,0,,0,39.877864,-87.443545,https://opendata.arcgis.com/datasets/d14de7e28b0448ab82eb36d6f25b1ea1_0.csv,0,70,15479
,Benton County,IN,USA,0,0,,0,40.606315,-87.3100935,https://opendata.arcgis.com/datasets/d14de7e28b0448ab82eb36d6f25b1ea1_0.csv,0,71,8653
,Clay County,IN,USA,0,0,,0,39.387551,-87.090359,https://opendata.arcgis.com/datasets/d14de7e28b0448ab82eb36d6f25b1ea1_0.csv,0,72,26170
,Lawrence County,IN,USA,0,0,,0,38.8394825,-86.47919150000001,https://opendata.arcgis.com/datasets/d14de7e28b0448ab82eb36d6f25b1ea1_0.csv,0,73,45668
,Clark County,IN,USA,0,0,,0,38.436953,-85.704951,https://opendata.arcgis.com/datasets/d14de7e28b0448ab82eb36d6f25b1ea1_0.csv,0,74,117360
,Miami County,IN,USA,0,0,,0,40.780922000000004,-86.01632649999999,https://opendata.arcgis.com/datasets/d14de7e28b0448ab82eb36d6f25b1ea1_0.csv,0,75,35567
,Fayette County,IN,USA,0,0,,0,39.6569625,-85.1680795,https://opendata.arcgis.com/datasets/d14de7e28b0448ab82eb36d6f25b1ea1_0.csv,0,76,23047
,Newton County,IN,USA,0,0,,0,40.977588499999996,-87.3970095,https://opendata.arcgis.com/datasets/d14de7e28b0448ab82eb36d6f25b1ea1_0.csv,0,77,14011
,Perry County,IN,USA,0,0,,0,38.0538765,-86.6224235,https://opendata.arcgis.com/datasets/d14de7e28b0448ab82eb36d6f25b1ea1_0.csv,0,78,19102
,Putnam County,IN,USA,0,0,,0,39.668384,-86.8280865,https://opendata.arcgis.com/datasets/d14de7e28b0448ab82eb36d6f25b1ea1_0.csv,0,79,37779
,Starke County,IN,USA,0,0,,0,41.302205,-86.6983865,https://opendata.arcgis.com/datasets/d14de7e28b0448ab82eb36d6f25b1ea1_0.csv,0,80,22935
,Greene County,IN,USA,0,0,,0,39.0371445,-86.961652,https://opendata.arcgis.com/datasets/d14de7e28b0448ab82eb36d6f25b1ea1_0.csv,0,81,32006
,Pike County,IN,USA,0,0,,0,38.390486499999994,-87.2676305,https://opendata.arcgis.com/datasets/d14de7e28b0448ab82eb36d6f25b1ea1_0.csv,0,82,12410
,Warrick County,IN,USA,0,0,,0,38.062363000000005,-87.245218,https://opendata.arcgis.com/datasets/d14de7e28b0448ab82eb36d6f25b1ea1_0.csv,0,83,62567
,Daviess County,IN,USA,0,0,,0,38.6973285,-87.0858515,https://opendata.arcgis.com/datasets/d14de7e28b0448ab82eb36d6f25b1ea1_0.csv,0,84,33147
,Dubois County,IN,USA,0,0,,0,38.365024000000005,-86.87606650000001,https://opendata.arcgis.com/datasets/d14de7e28b0448ab82eb36d6f25b1ea1_0.csv,0,85,42565
,Clinton County,IN,USA,0,0,,0,40.304673,-86.46908450000001,https://opendata.arcgis.com/datasets/d14de7e28b0448ab82eb36d6f25b1ea1_0.csv,0,86,32250
,White County,IN,USA,0,0,,0,40.737271,-86.8406485,https://opendata.arcgis.com/datasets/d14de7e28b0448ab82eb36d6f25b1ea1_0.csv,0,87,24133
,Switzerland County,IN,USA,0,0,,0,38.8085935,-84.9938725,https://opendata.arcgis.com/datasets/d14de7e28b0448ab82eb36d6f25b1ea1_0.csv,0,88,10717
,Steuben County,IN,USA,0,0,,0,41.6433265,-85.0007515,https://opendata.arcgis.com/datasets/d14de7e28b0448ab82eb36d6f25b1ea1_0.csv,0,89,34586
,Gibson County,IN,USA,0,0,,0,38.349461,-87.64698250000001,https://opendata.arcgis.com/datasets/d14de7e28b0448ab82eb36d6f25b1ea1_0.csv,0,90,33452
,Jennings County,IN,USA,0,0,,0,39.0015625,-85.619944,https://opendata.arcgis.com/datasets/d14de7e28b0448ab82eb36d6f25b1ea1_0.csv,0,91,27611
,Rockingham County,NC,USA,0,0,0,,36.39209,-79.77325049999999,https://opendata.arcgis.com/datasets/969678bce431494a8f64d7faade6e5b8_0.csv,0,92,90690
,Guilford County,NC,USA,0,0,0,,36.078567,-79.789537,https://opendata.arcgis.com/datasets/969678bce431494a8f64d7faade6e5b8_0.csv,0,93,533670
,Alamance County,NC,USA,0,0,0,,36.046625,-79.389903,https://opendata.arcgis.com/datasets/969678bce431494a8f64d7faade6e5b8_0.csv,0,94,166436
,Alexander County,NC,USA,0,0,0,,35.9112,-81.173576,https://opendata.arcgis.com/datasets/969678bce431494a8f64d7faade6e5b8_0.csv,0,95,37353
,Randolph County,NC,USA,0,0,0,,35.713162,-79.80440999999999,https://opendata.arcgis.com/datasets/969678bce431494a8f64d7faade6e5b8_0.csv,0,96,143351
,Wayne County,NC,USA,1,0,0,,35.372187,-78.0523115,https://opendata.arcgis.com/datasets/969678bce431494a8f64d7faade6e5b8_0.csv,1,97,123248
,Ashe County,NC,USA,0,0,0,,36.414194499999994,-81.4925705,https://opendata.arcgis.com/datasets/969678bce431494a8f64d7faade6e5b8_0.csv,0,98,27109
,Alleghany County,NC,USA,0,0,0,,36.470187499999994,-81.128388,https://opendata.arcgis.com/datasets/969678bce431494a8f64d7faade6e5b8_0.csv,0,99,11161
,Currituck County,NC,USA,0,0,0,,36.311232000000004,-76.0432625,https://opendata.arcgis.com/datasets/969678bce431494a8f64d7faade6e5b8_0.csv,0,100,27072
,Camden County,NC,USA,0,0,0,,36.357271,-76.2231965,https://opendata.arcgis.com/datasets/969678bce431494a8f64d7faade6e5b8_0.csv,0,101,10710
,Surry County,NC,USA,0,0,0,,36.399366,-80.7073595,https://opendata.arcgis.com/datasets/969678bce431494a8f64d7faade6e5b8_0.csv,0,102,71948
,Gates County,NC,USA,0,0,0,,36.424152,-76.70138,https://opendata.arcgis.com/datasets/969678bce431494a8f64d7faade6e5b8_0.csv,0,103,11573
,Hertford County,NC,USA,0,0,0,,36.392281999999994,-76.94985,https://opendata.arcgis.com/datasets/969678bce431494a8f64d7faade6e5b8_0.csv,0,104,23659
,Northampton County,NC,USA,0,0,0,,36.356129499999994,-77.48302000000001,https://opendata.arcgis.com/datasets/969678bce431494a8f64d7faade6e5b8_0.csv,0,105,19676
,Stokes County,NC,USA,0,0,0,,36.4039905,-80.2396115,https://opendata.arcgis.com/datasets/969678bce431494a8f64d7faade6e5b8_0.csv,0,106,45467
,Warren County,NC,USA,0,0,0,,36.373663,-78.110931,https://opendata.arcgis.com/datasets/969678bce431494a8f64d7faade6e5b8_0.csv,0,107,19807
,Vance County,NC,USA,0,0,0,,36.3539845,-78.394374,https://opendata.arcgis.com/datasets/969678bce431494a8f64d7faade6e5b8_0.csv,0,108,44582
,Granville County,NC,USA,0,0,0,,36.282139,-78.6309765,https://opendata.arcgis.com/datasets/969678bce431494a8f64d7faade6e5b8_0.csv,0,109,60115
,Caswell County,NC,USA,0,0,0,,36.391928,-79.335016,https://opendata.arcgis.com/datasets/969678bce431494a8f64d7faade6e5b8_0.csv,0,110,22698
,Person County,NC,USA,0,0,0,,36.389045499999995,-78.974278,https://opendata.arcgis.com/datasets/969678bce431494a8f64d7faade6e5b8_0.csv,0,111,39507
,Pasquotank County,NC,USA,0,0,0,,36.31698,-76.2753735,https://opendata.arcgis.com/datasets/969678bce431494a8f64d7faade6e5b8_0.csv,0,112,39639
,Halifax County,NC,USA,0,0,0,,36.255891000000005,-77.618624,https://opendata.arcgis.com/datasets/969678bce431494a8f64d7faade6e5b8_0.csv,0,113,50574
,Wilkes County,NC,USA,0,0,0,,36.217608,-81.20716300000001,https://opendata.arcgis.com/datasets/969678bce431494a8f64d7faade6e5b8_0.csv,0,114,68557
,Watauga County,NC,USA,1,0,0,,36.2509755,-81.686846,https://opendata.arcgis.com/datasets/969678bce431494a8f64d7faade6e5b8_0.csv,1,115,55945
,Perquimans County,NC,USA,0,0,0,,36.226709,-76.390806,https://opendata.arcgis.com/datasets/969678bce431494a8f64d7faade6e5b8_0.csv,0,116,13422
,Chowan County,NC,USA,0,0,0,,36.178765999999996,-76.5666445,https://opendata.arcgis.com/datasets/969678bce431494a8f64d7faade6e5b8_0.csv,0,117,14029
,Avery County,NC,USA,0,0,0,,36.099315000000004,-81.9081385,https://opendata.arcgis.com/datasets/969678bce431494a8f64d7faade6e5b8_0.csv,0,118,17505
,Yadkin County,NC,USA,0,0,0,,36.165891,-80.657182,https://opendata.arcgis.com/datasets/969678bce431494a8f64d7faade6e5b8_0.csv,0,119,37543
,Dare County,NC,USA,0,0,0,,35.708368,-75.7362335,https://opendata.arcgis.com/datasets/969678bce431494a8f64d7faade6e5b8_0.csv,0,120,36501
,Forsyth County,NC,USA,2,0,0,,36.1174225,-80.2759705,https://opendata.arcgis.com/datasets/969678bce431494a8f64d7faade6e5b8_0.csv,2,121,379099
,Franklin County,NC,USA,0,0,0,,36.0419445,-78.27652549999999,https://opendata.arcgis.com/datasets/969678bce431494a8f64d7faade6e5b8_0.csv,0,122,67560
,Bertie County,NC,USA,0,0,0,,36.0338355,-77.0036715,https://opendata.arcgis.com/datasets/969678bce431494a8f64d7faade6e5b8_0.csv,0,123,19026
,Orange County,NC,USA,0,0,0,,36.052271,-79.107692,https://opendata.arcgis.com/datasets/969678bce431494a8f64d7faade6e5b8_0.csv,0,124,146027
,Durham County,NC,USA,1,0,0,,36.051317999999995,-78.8573145,https://opendata.arcgis.com/datasets/969678bce431494a8f64d7faade6e5b8_0.csv,1,125,316739
,Nash County,NC,USA,0,0,0,,35.966553000000005,-77.976391,https://opendata.arcgis.com/datasets/969678bce431494a8f64d7faade6e5b8_0.csv,0,126,94016
,Mitchell County,NC,USA,0,0,0,,35.991779,-82.198442,https://opendata.arcgis.com/datasets/969678bce431494a8f64d7faade6e5b8_0.csv,0,127,15000
,Edgecombe County,NC,USA,0,0,0,,35.915150999999994,-77.585453,https://opendata.arcgis.com/datasets/969678bce431494a8f64d7faade6e5b8_0.csv,0,128,52005
,Caldwell County,NC,USA,0,0,0,,35.939887,-81.5699525,https://opendata.arcgis.com/datasets/969678bce431494a8f64d7faade6e5b8_0.csv,0,129,82029
,Tyrrell County,NC,USA,0,0,0,,35.7957445,-76.210059,https://opendata.arcgis.com/datasets/969678bce431494a8f64d7faade6e5b8_0.csv,0,130,4131
,Yancey County,NC,USA,0,0,0,,35.888507000000004,-82.31928300000001,https://opendata.arcgis.com/datasets/969678bce431494a8f64d7faade6e5b8_0.csv,0,131,17903
,Madison County,NC,USA,0,0,0,,35.8719975,-82.685785,https://opendata.arcgis.com/datasets/969678bce431494a8f64d7faade6e5b8_0.csv,0,132,21763
,Martin County,NC,USA,0,0,0,,35.8664985,-77.084982,https://opendata.arcgis.com/datasets/969678bce431494a8f64d7faade6e5b8_0.csv,0,133,22671
,Wake County,NC,USA,14,0,0,,35.796786499999996,-78.6249785,https://opendata.arcgis.com/datasets/969678bce431494a8f64d7faade6e5b8_0.csv,14,134,1092305
,Davie County,NC,USA,0,0,0,,35.9026525,-80.5364645,https://opendata.arcgis.com/datasets/969678bce431494a8f64d7faade6e5b8_0.csv,0,135,42733
,Washington County,NC,USA,0,0,0,,35.840892999999994,-76.6003345,https://opendata.arcgis.com/datasets/969678bce431494a8f64d7faade6e5b8_0.csv,0,136,11859
,Burke County,NC,USA,0,0,0,,35.7791955,-81.675545,https://opendata.arcgis.com/datasets/969678bce431494a8f64d7faade6e5b8_0.csv,0,137,90382
,Davidson County,NC,USA,0,0,0,,35.765553499999996,-80.2652875,https://opendata.arcgis.com/datasets/969678bce431494a8f64d7faade6e5b8_0.csv,0,138,166614
,McDowell County,NC,USA,0,0,0,,35.738724500000004,-82.0594425,https://opendata.arcgis.com/datasets/969678bce431494a8f64d7faade6e5b8_0.csv,0,139,45507
,Chatham County,NC,USA,1,0,0,,35.6959365,-79.231033,https://opendata.arcgis.com/datasets/969678bce431494a8f64d7faade6e5b8_0.csv,1,140,73139
,Wilson County,NC,USA,0,0,0,,35.7253325,-77.926691,https://opendata.arcgis.com/datasets/969678bce431494a8f64d7faade6e5b8_0.csv,0,141,81455
,Buncombe County,NC,USA,0,0,0,,35.620303,-82.5263415,https://opendata.arcgis.com/datasets/969678bce431494a8f64d7faade6e5b8_0.csv,0,142,259103
,Haywood County,NC,USA,0,0,0,,35.5418605,-83.000247,https://opendata.arcgis.com/datasets/969678bce431494a8f64d7faade6e5b8_0.csv,0,143,61971
,Catawba County,NC,USA,0,0,0,,35.6878485,-81.22916649999999,https://opendata.arcgis.com/datasets/969678bce431494a8f64d7faade6e5b8_0.csv,0,144,158652
,Pitt County,NC,USA,0,0,0,,35.580454,-77.392609,https://opendata.arcgis.com/datasets/969678bce431494a8f64d7faade6e5b8_0.csv,0,145,179914
,Johnston County,NC,USA,2,0,0,,35.537085,-78.386616,https://opendata.arcgis.com/datasets/969678bce431494a8f64d7faade6e5b8_0.csv,2,146,202675
,Swain County,NC,USA,0,0,0,,35.4877375,-83.554631,https://opendata.arcgis.com/datasets/969678bce431494a8f64d7faade6e5b8_0.csv,0,147,14245
,Beaufort County,NC,USA,0,0,0,,35.477776000000006,-76.83147650000001,https://opendata.arcgis.com/datasets/969678bce431494a8f64d7faade6e5b8_0.csv,0,148,47079
,Hyde County,NC,USA,0,0,0,,35.383544,-76.19371849999999,https://opendata.arcgis.com/datasets/969678bce431494a8f64d7faade6e5b8_0.csv,0,149,5230
,Greene County,NC,USA,0,0,0,,35.500008,-77.6507765,https://opendata.arcgis.com/datasets/969678bce431494a8f64d7faade6e5b8_0.csv,0,150,21012
,Rutherford County,NC,USA,0,0,0,,35.395423,-81.985972,https://opendata.arcgis.com/datasets/969678bce431494a8f64d7faade6e5b8_0.csv,0,151,66826
,Lee County,NC,USA,0,0,0,,35.467607,-79.16466,https://opendata.arcgis.com/datasets/969678bce431494a8f64d7faade6e5b8_0.csv,0,152,61452
,Cleveland County,NC,USA,0,0,0,,35.371596499999995,-81.54468800000001,https://opendata.arcgis.com/datasets/969678bce431494a8f64d7faade6e5b8_0.csv,0,153,97645
,Jackson County,NC,USA,0,0,0,,35.26292,-83.1417865,https://opendata.arcgis.com/datasets/969678bce431494a8f64d7faade6e5b8_0.csv,0,154,43327
,Harnett County,NC,USA,2,0,0,,35.3876225,-78.87648899999999,https://opendata.arcgis.com/datasets/969678bce431494a8f64d7faade6e5b8_0.csv,2,155,134214
,Graham County,NC,USA,0,0,0,,35.342066,-83.810297,https://opendata.arcgis.com/datasets/969678bce431494a8f64d7faade6e5b8_0.csv,0,156,8484
,Henderson County,NC,USA,0,0,0,,35.322029,-82.5033325,https://opendata.arcgis.com/datasets/969678bce431494a8f64d7faade6e5b8_0.csv,0,157,116748
,Moore County,NC,USA,0,0,0,,35.2805435,-79.43270749999999,https://opendata.arcgis.com/datasets/969678bce431494a8f64d7faade6e5b8_0.csv,0,158,98682
,Montgomery County,NC,USA,0,0,0,,35.324289,-79.898494,https://opendata.arcgis.com/datasets/969678bce431494a8f64d7faade6e5b8_0.csv,0,159,27271
,Stanly County,NC,USA,0,0,0,,35.323707999999996,-80.278733,https://opendata.arcgis.com/datasets/969678bce431494a8f64d7faade6e5b8_0.csv,0,160,62075
,Transylvania County,NC,USA,0,0,0,,35.2252595,-82.815485,https://opendata.arcgis.com/datasets/969678bce431494a8f64d7faade6e5b8_0.csv,0,161,34215
,Polk County,NC,USA,0,0,0,,35.296185,-82.1603345,https://opendata.arcgis.com/datasets/969678bce431494a8f64d7faade6e5b8_0.csv,0,162,20611
,Lenoir County,NC,USA,0,0,0,,35.2174715,-77.6126075,https://opendata.arcgis.com/datasets/969678bce431494a8f64d7faade6e5b8_0.csv,0,163,55976
,Craven County,NC,USA,1,0,0,,35.110855,-77.063318,https://opendata.arcgis.com/datasets/969678bce431494a8f64d7faade6e5b8_0.csv,1,164,102912
,Macon County,NC,USA,0,0,0,,35.162244,-83.42341,https://opendata.arcgis.com/datasets/969678bce431494a8f64d7faade6e5b8_0.csv,0,165,35285
,Cherokee County,NC,USA,0,0,0,,35.139748499999996,-84.0097475,https://opendata.arcgis.com/datasets/969678bce431494a8f64d7faade6e5b8_0.csv,0,166,28383
,Pamlico County,NC,USA,0,0,0,,35.1507535,-76.72772499999999,https://opendata.arcgis.com/datasets/969678bce431494a8f64d7faade6e5b8_0.csv,0,167,12670
,Sampson County,NC,USA,0,0,0,,34.9345395,-78.3926405,https://opendata.arcgis.com/datasets/969678bce431494a8f64d7faade6e5b8_0.csv,0,168,63626
,Cumberland County,NC,USA,0,0,0,,35.0502155,-78.8038205,https://opendata.arcgis.com/datasets/969678bce431494a8f64d7faade6e5b8_0.csv,0,169,332330
,Clay County,NC,USA,0,0,0,,35.0712515,-83.7441825,https://opendata.arcgis.com/datasets/969678bce431494a8f64d7faade6e5b8_0.csv,0,170,11139
,Jones County,NC,USA,0,0,0,,35.014189,-77.39021650000001,https://opendata.arcgis.com/datasets/969678bce431494a8f64d7faade6e5b8_0.csv,0,171,9637
,Carteret County,NC,USA,0,0,0,,34.832848999999996,-76.60086799999999,https://opendata.arcgis.com/datasets/969678bce431494a8f64d7faade6e5b8_0.csv,0,172,69524
,Union County,NC,USA,0,0,0,,35.0112285,-80.5587175,https://opendata.arcgis.com/datasets/969678bce431494a8f64d7faade6e5b8_0.csv,0,173,235908
,Anson County,NC,USA,0,0,0,,35.008912,-80.0844735,https://opendata.arcgis.com/datasets/969678bce431494a8f64d7faade6e5b8_0.csv,0,174,24877
,Hoke County,NC,USA,0,0,0,,35.02319,-79.24694550000001,https://opendata.arcgis.com/datasets/969678bce431494a8f64d7faade6e5b8_0.csv,0,175,54764
,Duplin County,NC,USA,0,0,0,,34.9501105,-77.9257305,https://opendata.arcgis.com/datasets/969678bce431494a8f64d7faade6e5b8_0.csv,0,176,58856
,Richmond County,NC,USA,0,0,0,,34.99408,-79.76728299999999,https://opendata.arcgis.com/datasets/969678bce431494a8f64d7faade6e5b8_0.csv,0,177,44887
,Scotland County,NC,USA,0,0,0,,34.836764,-79.5119535,https://opendata.arcgis.com/datasets/969678bce431494a8f64d7faade6e5b8_0.csv,0,178,34810
,Onslow County,NC,USA,1,0,0,,34.712451,-77.3899735,https://opendata.arcgis.com/datasets/969678bce431494a8f64d7faade6e5b8_0.csv,1,179,197683
,Robeson County,NC,USA,0,0,0,,34.626412,-79.133749,https://opendata.arcgis.com/datasets/969678bce431494a8f64d7faade6e5b8_0.csv,0,180,131831
,Bladen County,NC,USA,0,0,0,,34.611776500000005,-78.5427315,https://opendata.arcgis.com/datasets/969678bce431494a8f64d7faade6e5b8_0.csv,0,181,33190
,Pender County,NC,USA,0,0,0,,34.512526,-77.894035,https://opendata.arcgis.com/datasets/969678bce431494a8f64d7faade6e5b8_0.csv,0,182,62162
,Columbus County,NC,USA,0,0,0,,34.2134885,-78.6167595,https://opendata.arcgis.com/datasets/969678bce431494a8f64d7faade6e5b8_0.csv,0,183,55655
,New Hanover County,NC,USA,0,0,0,,34.15828500000001,-77.872919,https://opendata.arcgis.com/datasets/969678bce431494a8f64d7faade6e5b8_0.csv,0,184,232274
,Brunswick County,NC,USA,1,0,0,,34.1056615,-78.292874,https://opendata.arcgis.com/datasets/969678bce431494a8f64d7faade6e5b8_0.csv,1,185,136744
,Iredell County,NC,USA,0,0,0,,35.7732565,-80.901307,https://opendata.arcgis.com/datasets/969678bce431494a8f64d7faade6e5b8_0.csv,0,186,178435
,Rowan County,NC,USA,0,0,0,,35.6830585,-80.47710000000001,https://opendata.arcgis.com/datasets/969678bce431494a8f64d7faade6e5b8_0.csv,0,187,141262
,Lincoln County,NC,USA,0,0,0,,35.484821999999994,-81.24025,https://opendata.arcgis.com/datasets/969678bce431494a8f64d7faade6e5b8_0.csv,0,188,83770
,Mecklenburg County,NC,USA,4,0,0,,35.2583695,-80.804163,https://opendata.arcgis.com/datasets/969678bce431494a8f64d7faade6e5b8_0.csv,4,189,1093901
,Cabarrus County,NC,USA,1,0,0,,35.3456055,-80.541589,https://opendata.arcgis.com/datasets/969678bce431494a8f64d7faade6e5b8_0.csv,1,190,211342
,Gaston County,NC,USA,0,0,0,,35.284431999999995,-81.1896935,https://opendata.arcgis.com/datasets/969678bce431494a8f64d7faade6e5b8_0.csv,0,191,222846
,,NC,USA,32,,,,-28.844672746443443,20.996920403668724,https://opendata.arcgis.com/datasets/969678bce431494a8f64d7faade6e5b8_0.csv,32,192,10488084
,Atlantic County,NJ,USA,0,,,0,39.509258,-74.6437035,https://opendata.arcgis.com/datasets/8840fd8ac1314f5188e6cf98b525321c_0.csv,0,193,265429
,Bergen County,NJ,USA,29,,,36,40.952146,-74.08225,https://opendata.arcgis.com/datasets/8840fd8ac1314f5188e6cf98b525321c_0.csv,29,194,936692
,Burlington County,NJ,USA,4,,,7,39.8658955,-74.72494950000001,https://opendata.arcgis.com/datasets/8840fd8ac1314f5188e6cf98b525321c_0.csv,4,195,445384
,Camden County,NJ,USA,2,,,5,39.800549000000004,-74.9381575,https://opendata.arcgis.com/datasets/8840fd8ac1314f5188e6cf98b525321c_0.csv,2,196,507078
,Cape May County,NJ,USA,0,,,0,39.1261435,-74.756719,https://opendata.arcgis.com/datasets/8840fd8ac1314f5188e6cf98b525321c_0.csv,0,197,92560
,Cumberland County,NJ,USA,0,,,1,39.373098,-75.135421,https://opendata.arcgis.com/datasets/8840fd8ac1314f5188e6cf98b525321c_0.csv,0,198,150972
,Essex County,NJ,USA,11,,,15,40.7914715,-74.24515199999999,https://opendata.arcgis.com/datasets/8840fd8ac1314f5188e6cf98b525321c_0.csv,11,199,799767
,Gloucester County,NJ,USA,0,,,0,39.7016335,-75.15904900000001,https://opendata.arcgis.com/datasets/8840fd8ac1314f5188e6cf98b525321c_0.csv,0,200,291408
,Hudson County,NJ,USA,11,,,17,40.732721999999995,-74.07540449999999,https://opendata.arcgis.com/datasets/8840fd8ac1314f5188e6cf98b525321c_0.csv,11,201,676061
,Hunterdon County,NJ,USA,0,,,1,40.5647375,-74.9494015,https://opendata.arcgis.com/datasets/8840fd8ac1314f5188e6cf98b525321c_0.csv,0,202,124714
,Mercer County,NJ,USA,1,,,1,40.280848500000005,-74.7122715,https://opendata.arcgis.com/datasets/8840fd8ac1314f5188e6cf98b525321c_0.csv,1,203,369811
,Monmouth County,NJ,USA,12,,,17,40.2778005,-74.2928135,https://opendata.arcgis.com/datasets/8840fd8ac1314f5188e6cf98b525321c_0.csv,12,204,621354
,Ocean County,NJ,USA,2,,,3,39.835446000000005,-74.29221150000001,https://opendata.arcgis.com/datasets/8840fd8ac1314f5188e6cf98b525321c_0.csv,2,205,601651
,Passaic County,NJ,USA,5,,,7,41.0114805,-74.304839,https://opendata.arcgis.com/datasets/8840fd8ac1314f5188e6cf98b525321c_0.csv,5,206,503310
,Salem County,NJ,USA,0,,,0,39.5848515,-75.31079349999999,https://opendata.arcgis.com/datasets/8840fd8ac1314f5188e6cf98b525321c_0.csv,0,207,62607
,Somerset County,NJ,USA,1,,,1,40.566201,-74.5998835,https://opendata.arcgis.com/datasets/8840fd8ac1314f5188e6cf98b525321c_0.csv,1,208,331164
,Sussex County,NJ,USA,0,,,1,41.128282,-74.678832,https://opendata.arcgis.com/datasets/8840fd8ac1314f5188e6cf98b525321c_0.csv,0,209,140799
,Union County,NJ,USA,4,,,9,40.665566,-74.300027,https://opendata.arcgis.com/datasets/8840fd8ac1314f5188e6cf98b525321c_0.csv,4,210,558067
,Warren County,NJ,USA,0,,,1,40.8430415,-74.985897,https://opendata.arcgis.com/datasets/8840fd8ac1314f5188e6cf98b525321c_0.csv,0,211,105779
,Morris County,NJ,USA,4,,,4,40.867802999999995,-74.5802275,https://opendata.arcgis.com/datasets/8840fd8ac1314f5188e6cf98b525321c_0.csv,4,212,494228
,Middlesex County,NJ,USA,12,,,16,40.430130500000004,-74.41841600000001,https://opendata.arcgis.com/datasets/8840fd8ac1314f5188e6cf98b525321c_0.csv,12,213,829685
,,NJ,USA,98,,,142,12.104873978005386,15.06717673331957,https://opendata.arcgis.com/datasets/8840fd8ac1314f5188e6cf98b525321c_0.csv,98,214,8882190
,,British Columbia,CAN,73,,,,54.15716767014678,-126.56202337499991,https://www.canada.ca/en/public-health/services/diseases/2019-novel-coronavirus-infection.html,73,215,5071000
,,Alberta,CAN,39,,,,54.49628672664678,-115.00016854279502,https://www.canada.ca/en/public-health/services/diseases/2019-novel-coronavirus-infection.html,39,216,4067175
,,Saskatchewan,CAN,1,,,,54.496338403094796,-105.6821561755884,https://www.canada.ca/en/public-health/services/diseases/2019-novel-coronavirus-infection.html,1,217,1098352
,,Manitoba,CAN,4,,,,54.496368513369816,-95.4742987434922,https://www.canada.ca/en/public-health/services/diseases/2019-novel-coronavirus-infection.html,4,218,1278365
,,Ontario,CAN,142,,,,49.26501413726137,-84.7533750036988,https://www.canada.ca/en/public-health/services/diseases/2019-novel-coronavirus-infection.html,142,219,13448494
,,Quebec,CAN,39,,,,53.79378896700006,-68.38833574149993,https://www.canada.ca/en/public-health/services/diseases/2019-novel-coronavirus-infection.html,39,220,8164361
,,Newfoundland and Labrador,CAN,0,,,,53.46112743006114,-60.21844100481229,https://www.canada.ca/en/public-health/services/diseases/2019-novel-coronavirus-infection.html,0,221,519716
,,New Brunswick,CAN,1,,,,46.36274594300005,-66.43830941249992,https://www.canada.ca/en/public-health/services/diseases/2019-novel-coronavirus-infection.html,1,222,747101
,,Nova Scotia,CAN,0,,,,45.266872463000055,-63.021209276499945,https://www.canada.ca/en/public-health/services/diseases/2019-novel-coronavirus-infection.html,0,223,923598
,,Prince Edward Island,CAN,1,,,,46.49290599200006,-63.21041826049995,https://www.canada.ca/en/public-health/services/diseases/2019-novel-coronavirus-infection.html,1,224,142907
,,,THA,114,1,35,,13.04083302850006,101.54455590850003,https://github.com/CSSEGISandData/COVID-19,78,225,68414135
,,,JPN,839,22,118,,37.87307291750005,137.65978516150005,https://github.com/CSSEGISandData/COVID-19,699,226,126451398
,,,SGP,226,0,105,,1.3585676125000532,103.80420983150006,https://github.com/CSSEGISandData/COVID-19,121,227,5888926
,,,NPL,1,0,1,,28.38379831950006,84.1027264815001,https://github.com/CSSEGISandData/COVID-19,0,228,29384297
,,,MYS,428,0,42,,3.9309068840000734,109.69719485800007,https://github.com/CSSEGISandData/COVID-19,386,229,31381992
,,New South Wales,AUS,134,2,4,,-32.82977854599065,147.3153664483503,https://github.com/CSSEGISandData/COVID-19,128,230,8089526
,,Victoria,AUS,57,0,8,,-36.537788791607284,145.4695804428331,https://github.com/CSSEGISandData/COVID-19,49,231,6594804
,,Queensland,AUS,61,0,8,,-19.64674041161055,145.75436445400004,https://github.com/CSSEGISandData/COVID-19,53,232,5095100
,,,KHM,7,0,1,,12.56212270450002,104.96757694500008,https://github.com/CSSEGISandData/COVID-19,6,233,16204486
,,,LKA,18,0,1,,7.8766543645000695,80.82227623750006,https://github.com/CSSEGISandData/COVID-19,17,234,22409381
,,,DEU,5795,11,46,,51.09924480150008,10.473758178500105,https://github.com/CSSEGISandData/COVID-19,5738,235,80594017
,,,FIN,244,0,10,,64.9866635165001,26.09634464500006,https://github.com/CSSEGISandData/COVID-19,234,236,5491218
,,,ARE,98,0,23,,24.340997059161296,53.97632897200003,https://github.com/CSSEGISandData/COVID-19,75,237,6072475
,,,PHL,140,11,2,,13,122,https://github.com/CSSEGISandData/COVID-19,127,,
,,,IND,113,2,13,,21.151850284000083,82.74863427400004,https://github.com/CSSEGISandData/COVID-19,98,238,1281935911
,,,ITA,24747,1809,2335,,41.826061709500074,12.56007714450007,https://github.com/CSSEGISandData/COVID-19,20603,239,62137802
,,,SWE,1022,3,1,,62.191185204500094,17.635630730000088,https://github.com/CSSEGISandData/COVID-19,1018,240,9960487
,,,ESP,7798,289,517,,35.73847077050007,-6.849639452499929,https://github.com/CSSEGISandData/COVID-19,6992,241,48958159
,,South Australia,AUS,20,0,3,,-32.035240980898976,135.0000995213503,https://github.com/CSSEGISandData/COVID-19,17,242,1751693
,,,BEL,886,4,1,,50.49042053300006,4.4297657472728815,https://github.com/CSSEGISandData/COVID-19,881,243,11491346
,,,EGY,110,2,21,,26.825424706000064,30.791862752500094,https://github.com/CSSEGISandData/COVID-19,87,244,97041072
,,,LBN,110,3,1,,33.86861807120964,35.85466820900007,https://github.com/CSSEGISandData/COVID-19,106,245,6229794
,,,IRQ,116,10,26,,33.21901997950006,43.65276391200004,https://github.com/CSSEGISandData/COVID-19,80,246,39192111
,,,OMN,22,0,9,,21.444199937000064,55.911594682500095,https://github.com/CSSEGISandData/COVID-19,13,247,3424386
,,,AFG,16,0,0,,33.930139364000084,67.6895422770001,https://github.com/CSSEGISandData/COVID-19,16,248,34124811
,,,BHR,214,0,60,,26.024400132000068,50.53386477950008,https://github.com/CSSEGISandData/COVID-19,154,249,1410942
,,,KWT,112,0,5,,29.315860290500055,47.48260848850009,https://github.com/CSSEGISandData/COVID-19,107,250,2875422
,,,DZA,48,4,12,,28.032339379000085,1.6432377520000898,https://github.com/CSSEGISandData/COVID-19,32,251,40969443
,,,HRV,49,0,1,,44.48165314050009,16.33771101500008,https://github.com/CSSEGISandData/COVID-19,48,252,4292095
,,,CHE,2200,14,4,,46.840811259500086,8.258983805500094,https://github.com/CSSEGISandData/COVID-19,2182,253,8236303
,,,AUT,860,1,6,,47.71313527500007,13.334746337500093,https://github.com/CSSEGISandData/COVID-19,853,254,8754413
,,,ISR,251,0,4,,31.448389692000035,35.06821170350008,https://github.com/CSSEGISandData/COVID-19,247,255,8299706
,,,PAK,53,0,2,,30.377750552000087,68.94667484550007,https://github.com/CSSEGISandData/COVID-19,51,256,204924861
,,,BRA,162,0,0,,-14.236725569657125,-54.38839290699988,https://github.com/CSSEGISandData/COVID-19,162,257,207353391
,,,GEO,33,0,0,,42.31029968300004,43.34038972821833,https://github.com/CSSEGISandData/COVID-19,33,258,4926330
,,,GRC,331,4,8,,38.322331546000065,24.119802279500078,https://github.com/CSSEGISandData/COVID-19,319,259,10768477
,,,MKD,14,0,1,,41.591247966000054,21.726869751000095,https://github.com/CSSEGISandData/COVID-19,13,260,2103721
,,,NOR,1221,3,1,,69.25525543850006,18.013723178000077,https://github.com/CSSEGISandData/COVID-19,1217,261,5320045
,,,ROU,131,0,9,,45.95662750300005,24.950926754500074,https://github.com/CSSEGISandData/COVID-19,122,262,21529967
,,,EST,171,0,1,,58.572233381000025,24.943451368500064,https://github.com/CSSEGISandData/COVID-19,170,263,1251581
,,,NLD,1135,20,2,,52.105282697500066,5.272002682500101,https://github.com/CSSEGISandData/COVID-19,1113,264,17084719
,,,SMR,101,5,4,,43.92963720000006,12.437976970500117,https://github.com/CSSEGISandData/COVID-19,92,265,33537
,,,BLR,27,0,3,,53.72384073950006,27.942588541500044,https://github.com/CSSEGISandData/COVID-19,24,266,9549747
,,,ISL,171,5,8,,64.96666087450004,-18.861826138499936,https://github.com/CSSEGISandData/COVID-19,158,267,339747
,,,LTU,12,0,1,,55.16278391600002,23.911012610500066,https://github.com/CSSEGISandData/COVID-19,11,268,2823859
,,,MEX,41,0,4,,23.629557940500092,-101.93334401247205,https://github.com/CSSEGISandData/COVID-19,37,269,124574795
,,,NZL,8,0,0,,-40.9006,174.886,https://github.com/CSSEGISandData/COVID-19,8,,
,,,NGA,2,0,0,,9.07578074450008,8.671077514500098,https://github.com/CSSEGISandData/COVID-19,2,270,190632261
,,Western Australia,AUS,17,1,0,,-24.407891534499925,120.95978010457588,https://github.com/CSSEGISandData/COVID-19,16,271,2621680
,,,IRL,129,2,0,,53.46108633000006,-8.136179165499925,https://github.com/CSSEGISandData/COVID-19,127,272,5011102
,,,LUX,59,1,0,,49.80347279900003,6.1075130615000575,https://github.com/CSSEGISandData/COVID-19,58,273,594130
,,,MCO,2,0,0,,43.7333,7.4167,https://github.com/CSSEGISandData/COVID-19,2,,
,,,QAT,401,0,4,,25.363913984500023,51.18376712300005,https://github.com/CSSEGISandData/COVID-19,397,274,2314307
,,,ECU,28,2,0,,-1.7634670984999161,-83.4578538649999,https://github.com/CSSEGISandData/COVID-19,26,275,16290913
,,,AZE,23,1,6,,40.14320973750006,47.50227481750011,https://github.com/CSSEGISandData/COVID-19,16,276,9961396
,,,ARM,26,0,0,,40.077076823500036,45.01914310700013,https://github.com/CSSEGISandData/COVID-19,26,277,3045191
,,,DOM,11,0,0,,18.771246649000062,-70.13417985399988,https://github.com/CSSEGISandData/COVID-19,11,278,10734247
,,,IDN,117,5,8,,-2.6357561174999375,118.08721907200007,https://github.com/CSSEGISandData/COVID-19,104,279,260580739
,,,PRT,245,0,2,,37.400416263500055,-15.94334102749994,https://github.com/CSSEGISandData/COVID-19,243,280,10839514
,,,AND,1,0,1,,42.51501586950006,1.5681518960000886,https://github.com/CSSEGISandData/COVID-19,0,281,85702
,,Tasmania,AUS,6,0,0,,-41.60023365649994,146.16134687600004,https://github.com/CSSEGISandData/COVID-19,6,282,534281
,,,LVA,30,0,1,,56.862861023500045,24.59194014100008,https://github.com/CSSEGISandData/COVID-19,29,283,1944643
,,,MAR,28,1,1,,28.67223747529175,-9.030622863196513,https://github.com/CSSEGISandData/COVID-19,26,284,33986655
,,,SAU,103,0,1,,24.244550886000077,45.132142167500064,https://github.com/CSSEGISandData/COVID-19,102,285,28571770
,,,SEN,24,0,1,,14.474492289500091,-14.37969132899994,https://github.com/CSSEGISandData/COVID-19,23,286,14668522
,,,ARG,45,2,1,,-38.42173074799991,-63.626654215499926,https://github.com/CSSEGISandData/COVID-19,42,287,44293293
,,,CHL,74,0,0,,-36.567062457499944,-71.3604937374999,https://github.com/CSSEGISandData/COVID-19,74,288,17789267
,,,JOR,8,0,1,,31.280817871500048,37.04788003839781,https://github.com/CSSEGISandData/COVID-19,7,289,10248069
,,,UKR,3,1,0,,48.79241852100008,31.137251424000127,https://github.com/CSSEGISandData/COVID-19,2,290,44033874
,,,HUN,32,1,1,,47.156127930000025,19.485817912000087,https://github.com/CSSEGISandData/COVID-19,30,291,9850845
,,Northern Territory,AUS,1,0,0,,-18.516157321898987,133.50015133877957,https://github.com/CSSEGISandData/COVID-19,1,292,245869
,,,LIE,4,0,0,,47.15983571400008,9.533092081500058,https://github.com/CSSEGISandData/COVID-19,4,293,38244
,,,POL,119,3,0,,51.93482900350006,19.125478149000088,https://github.com/CSSEGISandData/COVID-19,116,294,38476269
,,,TUN,18,0,0,,33.78217031200008,9.521981649000097,https://github.com/CSSEGISandData/COVID-19,18,295,11403800
,,,BIH,24,0,0,,43.91899993950011,17.668099406000096,https://github.com/CSSEGISandData/COVID-19,24,296,3856181
,,,SVN,219,1,0,,46.14379954050001,14.940281412500084,https://github.com/CSSEGISandData/COVID-19,218,297,1972126
,,,ZAF,51,0,0,,-28.469792578999943,24.690074089500087,https://github.com/CSSEGISandData/COVID-19,51,298,54841552
,,,BTN,1,0,0,,27.518180482737833,90.40745792650009,https://github.com/CSSEGISandData/COVID-19,1,299,758288
,,,CMR,2,0,0,,7.407972718000032,12.350860429500074,https://github.com/CSSEGISandData/COVID-19,2,300,24994885
,,,COL,34,0,0,,4.114416812000066,-72.93652033249992,https://github.com/CSSEGISandData/COVID-19,34,301,47698524
,,,CRI,27,0,0,,9.615482479500045,-84.21760006449992,https://github.com/CSSEGISandData/COVID-19,27,302,4930258
,,,PER,43,0,0,,-9.190602483184005,-75.01090500599992,https://github.com/CSSEGISandData/COVID-19,43,303,31036656
,,,SRB,48,0,0,,44.20522467850007,20.9182886145001,https://github.com/CSSEGISandData/COVID-19,48,304,7111024
,,,SVK,54,0,0,,48.67589304650005,19.692058553000123,https://github.com/CSSEGISandData/COVID-19,54,305,5445829
,,,TGO,1,0,0,,8.61773549700009,0.8081207685000891,https://github.com/CSSEGISandData/COVID-19,1,306,7965055
,,,MLT,21,0,1,,35.93801924848754,14.40598214292092,https://github.com/CSSEGISandData/COVID-19,20,307,
,,,MTQ,9,0,0,,14.6415,-61.0242,https://github.com/CSSEGISandData/COVID-19,9,,
,,,BGR,51,2,0,,42.73391529800004,25.47427473600007,https://github.com/CSSEGISandData/COVID-19,49,308,7101510
,,,MDV,13,0,0,,3.2028,73.2207,https://github.com/CSSEGISandData/COVID-19,13,,
,,,BGD,5,0,0,,23.73811778050007,90.33232039450004,https://github.com/CSSEGISandData/COVID-19,5,309,157826578
,,,PRY,6,0,0,,-23.43368479399996,-58.44782303899994,https://github.com/CSSEGISandData/COVID-19,6,310,6943739
,,,ALB,42,1,0,,41.11245290150006,20.154355916000085,https://github.com/CSSEGISandData/COVID-19,41,311,3047987
,,,CYP,26,0,0,,34.910753335500104,33.197142898000095,https://github.com/CSSEGISandData/COVID-19,26,312,1221549
,,,BRN,50,0,0,,4.510995486500057,114.66157535500005,https://github.com/CSSEGISandData/COVID-19,50,313,443593
,,CA,USA,426,6,6,,13.881211864033439,-88.73667151233042,https://github.com/CSSEGISandData/COVID-19,414,314,39512223
,,MA,USA,164,0,1,,3.8958436470103948,-57.491786678543065,https://github.com/CSSEGISandData/COVID-19,163,315,6892503
,,GA,USA,99,1,0,,5.003778723500062,46.67953211888616,https://github.com/CSSEGISandData/COVID-19,98,316,10617423
,,FL,USA,115,4,0,,53.20875990795537,-3.1370130791734043,https://github.com/CSSEGISandData/COVID-19,111,317,21477737
,,IL,USA,93,0,2,,33.07065725892534,46.81172136345015,https://github.com/CSSEGISandData/COVID-19,91,318,12671821
,,PA,USA,66,0,0,,-32.0391034891347,-57.22248977138129,https://github.com/CSSEGISandData/COVID-19,66,319,12801989
,,SC,USA,28,0,0,,45.898594465640834,19.585981719498946,https://github.com/CSSEGISandData/COVID-19,28,320,5148714
,,TN,USA,39,0,0,,11.370549577000084,106.12875657678063,https://github.com/CSSEGISandData/COVID-19,39,321,6829174
,,VA,USA,45,1,0,,47.69023320653376,16.562298798952522,https://github.com/CSSEGISandData/COVID-19,44,322,8535519
,,AZ,USA,13,0,1,,23.795429430473412,53.78359968700005,https://github.com/CSSEGISandData/COVID-19,12,323,7278717
,,IN,USA,20,0,0,,43.14869771655038,44.835279168249,https://github.com/CSSEGISandData/COVID-19,20,324,6732219
,,KY,USA,20,0,0,,13.788978577500039,-10.19809332590178,https://github.com/CSSEGISandData/COVID-19,20,325,4467673
,,NV,USA,24,0,0,,41.01050781662638,21.66318692014022,https://github.com/CSSEGISandData/COVID-19,24,326,3080156
,,NH,USA,13,0,0,,44.002575579129676,-71.64192281532604,https://github.com/CSSEGISandData/COVID-19,13,327,1359711
,,MN,USA,35,0,0,,54.15832285890196,-6.933507071014063,https://github.com/CSSEGISandData/COVID-19,35,328,5639632
,,NE,USA,17,0,0,,-21.0124630734999,27.602830536104022,https://github.com/CSSEGISandData/COVID-19,17,329,1934408
,,OH,USA,37,0,0,,40.36645852284252,-82.67188114679749,https://github.com/CSSEGISandData/COVID-19,37,330,11689100
,,RI,USA,20,0,0,,0.7348025577156534,101.93572187668923,https://github.com/CSSEGISandData/COVID-19,20,331,1059361
,,WI,USA,32,0,1,,57.796128648000064,-6.855844692999938,https://github.com/CSSEGISandData/COVID-19,31,332,5822434
,,CT,USA,24,0,0,,-10.031169938956474,34.05329914828664,https://github.com/CSSEGISandData/COVID-19,24,333,3565287
,,HI,USA,6,0,0,,4.370262062444226,45.49839878947134,https://github.com/CSSEGISandData/COVID-19,6,334,1415872
,,OK,USA,7,0,0,,-18.289010747629185,19.49680472116094,https://github.com/CSSEGISandData/COVID-19,7,335,3956971
,,UT,USA,28,0,0,,30.085476993671897,79.29053999553955,https://github.com/CSSEGISandData/COVID-19,28,336,3205958
,,,BFA,3,0,0,,12.230804951500069,-1.5662045904998934,https://github.com/CSSEGISandData/COVID-19,3,337,20107509
,,,VAT,1,0,0,,41.90333333950011,12.453533325000109,https://github.com/CSSEGISandData/COVID-19,1,338,1000
,,,MNG,1,0,0,,46.85141784700008,103.85503503500007,https://github.com/CSSEGISandData/COVID-19,1,339,3068243
,,,PAN,43,1,0,,8.420921827000058,-80.07274338849989,https://github.com/CSSEGISandData/COVID-19,42,340,3753142
,,KS,USA,8,1,0,,-13.001272450762997,33.45296190966974,https://github.com/CSSEGISandData/COVID-19,7,341,2913314
,,MO,USA,5,0,0,,13.766638946280324,-88.10526448763456,https://github.com/CSSEGISandData/COVID-19,5,342,6137428
,,VT,USA,8,0,0,,43.2286709521527,25.622240024407574,https://github.com/CSSEGISandData/COVID-19,8,343,623989
,,AK,USA,1,0,0,,60.053117394710654,11.221986756417863,https://github.com/CSSEGISandData/COVID-19,1,344,731545
,,AR,USA,16,0,0,,28.008685410239444,94.46749434450007,https://github.com/CSSEGISandData/COVID-19,16,345,3017804
,,DE,USA,7,0,0,,9.482044681239529,-7.372542280711016,https://github.com/CSSEGISandData/COVID-19,7,346,973764
,,ID,USA,5,0,0,,35.84422068938329,36.68586180312968,https://github.com/CSSEGISandData/COVID-19,5,347,1787065
,,ME,USA,12,0,0,,33.07348753200004,10.639019813077255,https://github.com/CSSEGISandData/COVID-19,12,348,1344212
,,MI,USA,33,0,0,,-26.9553565436281,-57.118730231514974,https://github.com/CSSEGISandData/COVID-19,33,349,9986857
,,MT,USA,7,0,0,,46.7125883042568,16.272058415378368,https://github.com/CSSEGISandData/COVID-19,7,350,1068778
,,NM,USA,13,0,0,,45.35383134546877,111.62347220837569,https://github.com/CSSEGISandData/COVID-19,13,351,2096829
,,ND,USA,1,0,0,,47.46721085597658,-100.3019580214955,https://github.com/CSSEGISandData/COVID-19,1,352,762062
,,SD,USA,9,1,0,,26.13054169295833,68.8897290410001,https://github.com/CSSEGISandData/COVID-19,8,353,884659
,,WV,USA,0,0,0,,38.92806805344787,-80.1829407161911,https://github.com/CSSEGISandData/COVID-19,0,354,1792147
,,WY,USA,3,0,0,,42.999967466625236,-107.55199589229656,https://github.com/CSSEGISandData/COVID-19,3,355,578759
,,Hubei,CHN,67794,3085,54288,,31.166405443456426,112.26392825753302,https://github.com/CSSEGISandData/COVID-19,10421,356,59170000
,,,IRN,13938,724,4590,,32.412651216000036,53.6631116130001,https://github.com/CSSEGISandData/COVID-19,8624,357,82021564
,,,KOR,8162,75,510,,35.91235993050006,127.85698489700007,https://github.com/CSSEGISandData/COVID-19,7577,358,51181299
,,Guangdong,CHN,1360,8,1304,,22.876783758944043,113.41792352680932,https://github.com/CSSEGISandData/COVID-19,48,359,113460000
,,Henan,CHN,1273,22,1250,,33.87707977965809,113.48442223524788,https://github.com/CSSEGISandData/COVID-19,1,360,96050000
,,Zhejiang,CHN,1231,1,1211,,29.189050400871963,120.1641359794138,https://github.com/CSSEGISandData/COVID-19,19,361,57370000
,,Hunan,CHN,1018,4,1014,,27.369414984613826,111.50909061104284,https://github.com/CSSEGISandData/COVID-19,0,362,68990000
,,Anhui,CHN,990,6,984,,32.02378204990168,117.2581712176775,https://github.com/CSSEGISandData/COVID-19,0,363,63240000
,,Jiangxi,CHN,935,1,934,,27.275131334293633,116.01917707751011,https://github.com/CSSEGISandData/COVID-19,0,364,46480000
,,Shandong,CHN,760,7,741,,36.33507593620547,118.74515424940193,https://github.com/CSSEGISandData/COVID-19,12,365,100470000
,,Jiangsu,CHN,631,0,631,,32.934811713190015,119.14963721029278,https://github.com/CSSEGISandData/COVID-19,0,366,80510000
,,Chongqing,CHN,576,6,570,,30.198712571927643,107.73296451180275,https://github.com/CSSEGISandData/COVID-19,0,367,31020000
,,Sichuan,CHN,539,3,516,,30.165213324835065,102.93966535826965,https://github.com/CSSEGISandData/COVID-19,20,368,83410000
,,Heilongjiang,CHN,482,13,453,,48.501949771374576,127.97325321185173,https://github.com/CSSEGISandData/COVID-19,16,369,37730000
,,Beijing,CHN,442,8,353,,40.236575323991985,116.42780846573805,https://github.com/CSSEGISandData/COVID-19,81,370,21540000
,,Shanghai,CHN,353,3,324,,31.266158547445322,121.43153719907554,https://github.com/CSSEGISandData/COVID-19,26,371,24240000
,,Hebei,CHN,318,6,310,,39.323827419599695,116.65206139450123,https://github.com/CSSEGISandData/COVID-19,2,372,75560000
,,Fujian,CHN,296,1,295,,25.971159641604146,118.13227705193037,https://github.com/CSSEGISandData/COVID-19,0,373,39410000
,,Guangxi,CHN,252,2,243,,23.899949245349177,108.27096784823755,https://github.com/CSSEGISandData/COVID-19,7,374,49260000
,,Shaanxi,CHN,245,2,232,,35.63509908705319,108.36171166401203,https://github.com/CSSEGISandData/COVID-19,11,375,38640000
,,Yunnan,CHN,174,2,172,,25.179122725058342,101.85510583221756,https://github.com/CSSEGISandData/COVID-19,0,376,48300000
,,Hainan,CHN,168,6,160,,19.150763250500063,109.81287682400003,https://github.com/CSSEGISandData/COVID-19,2,377,9340000
,,Guizhou,CHN,146,2,143,,26.9387435980386,106.60127648352287,https://github.com/CSSEGISandData/COVID-19,1,378,36000000
,,Tianjin,CHN,136,3,133,,39.40813751918114,117.34508644325369,https://github.com/CSSEGISandData/COVID-19,0,379,15600000
,,Shanxi,CHN,133,0,133,,37.66312775369286,112.3891919290642,https://github.com/CSSEGISandData/COVID-19,0,380,37180000
,,Gansu,CHN,133,2,91,,37.69770367228662,100.73804263765757,https://github.com/CSSEGISandData/COVID-19,40,381,26370000
,,,Hong Kong,145,4,81,,22.41313304250005,114.21021569100003,https://github.com/CSSEGISandData/COVID-19,60,382,7191503
,,Liaoning,CHN,125,1,114,,41.09091390618639,122.31055016440854,https://github.com/CSSEGISandData/COVID-19,10,383,43590000
,,Jilin,CHN,93,1,91,,43.56576924140737,126.47365482303488,https://github.com/CSSEGISandData/COVID-19,1,384,27040000
,,,CZE,253,0,0,,49.80312398300006,15.540038086000095,https://github.com/CSSEGISandData/COVID-19,253,385,10674723
,,Xinjiang,CHN,76,3,73,,41.752899103285706,84.98429810398284,https://github.com/CSSEGISandData/COVID-19,0,386,24870000
,,Inner Mongolia,CHN,75,1,71,,45.35383134546877,111.62347220837569,https://github.com/CSSEGISandData/COVID-19,3,351,25000034
,,Ningxia,CHN,75,0,73,,37.31081075681095,106.00808271719359,https://github.com/CSSEGISandData/COVID-19,2,387,6880000
,,,TWN,59,1,20,,23.598456122000044,120.98259524850005,https://github.com/CSSEGISandData/COVID-19,38,388,23508428
,,,VNM,56,0,16,,15.941768090000089,105.79183617800007,https://github.com/CSSEGISandData/COVID-19,40,389,96160163
,,,RUS,63,0,8,,61.240742495500065,4.263256414560601e-14,https://github.com/CSSEGISandData/COVID-19,55,390,142257519
,,Qinghai,CHN,18,0,18,,35.43499502195269,96.23774885477579,https://github.com/CSSEGISandData/COVID-19,0,391,6030000
,,Macau,CHN,10,0,10,,22.1667,113.55,https://github.com/CSSEGISandData/COVID-19,0,,667400
,,,MDA,23,0,0,,46.967069702500055,28.28525496400006,https://github.com/CSSEGISandData/COVID-19,23,392,3474121
,,,BOL,10,0,0,,-16.286937560999938,-63.58694087799992,https://github.com/CSSEGISandData/COVID-19,10,393,11138234
,,St Martin,FRA,2,0,0,,18.07776461717568,-63.06228647314417,https://github.com/CSSEGISandData/COVID-19,2,394,
,,,HND,3,0,0,,14.484747626000058,-86.24603266122396,https://github.com/CSSEGISandData/COVID-19,3,395,9038741
,,Channel Islands,GBR,3,0,0,,49.3723,-2.3644,https://github.com/CSSEGISandData/COVID-19,3,,
,,Tibet,CHN,1,0,1,,31.88221486755922,88.74489831230724,https://github.com/CSSEGISandData/COVID-19,0,396,3440000
,,,COD,2,0,0,,-4.029468688999948,21.726683794000053,https://github.com/CSSEGISandData/COVID-19,2,397,83301151
,,,CIV,1,0,0,,7.533667911000066,-5.536220662499915,https://github.com/CSSEGISandData/COVID-19,1,398,24184810
,,Saint Barthelemy,FRA,1,0,0,,17.903509833000072,-62.82453365799992,https://github.com/CSSEGISandData/COVID-19,1,399,9793
,,,JAM,10,0,0,,18.11774323150007,-77.30223548049992,https://github.com/CSSEGISandData/COVID-19,10,400,2990561
,,,REU,7,0,0,,-21.1151,55.5364,https://github.com/CSSEGISandData/COVID-19,7,,
,,,TUR,6,0,0,,38.95576283850008,35.425474377000086,https://github.com/CSSEGISandData/COVID-19,6,401,80845215
,,Gibraltar,GBR,1,0,1,,36.13020456349999,-5.348580120852014,https://github.com/CSSEGISandData/COVID-19,0,402,32194
,,,CUB,4,0,0,,21.528102931500058,-79.28561357349994,https://github.com/CSSEGISandData/COVID-19,4,403,11147407
,,,GUY,4,1,0,,4.887909040000061,-58.9307134609999,https://github.com/CSSEGISandData/COVID-19,3,404,737718
,,Australian Capital Territory,AUS,1,0,0,,-35.53036325446061,149.06023522322693,https://github.com/CSSEGISandData/COVID-19,1,405,426709
,,,KAZ,9,0,0,,47.96872690850006,66.90155419950011,https://github.com/CSSEGISandData/COVID-19,9,406,18556698
,,French Polynesia,FRA,3,0,0,,-17.6797,149.4068,https://github.com/CSSEGISandData/COVID-19,3,,
,,,CYM,1,0,0,,19.329608600000057,-81.21929895699992,https://github.com/CSSEGISandData/COVID-19,1,407,58441
,,,GLP,3,0,0,,16.265,-61.551,https://github.com/CSSEGISandData/COVID-19,3,,
,,,ETH,1,0,0,,9.170952962500039,40.484484497000125,https://github.com/CSSEGISandData/COVID-19,1,408,105350020
,,,SDN,1,1,0,,15.342520469500087,30.205510901500105,https://github.com/CSSEGISandData/COVID-19,0,409,37345935
,,,GIN,1,0,0,,9.955672506000056,-11.356289228999898,https://github.com/CSSEGISandData/COVID-19,1,410,12413867
,,,ABW,2,0,0,,12.497626043500048,-69.9691462879999,https://github.com/CSSEGISandData/COVID-19,2,411,115120
,,,KEN,3,0,0,,0.1521078450765998,37.889294067000066,https://github.com/CSSEGISandData/COVID-19,3,412,47615739
,,,ATG,1,0,0,,17.098659572500083,-61.78465735599994,https://github.com/CSSEGISandData/COVID-19,1,413,94731
,,,URY,4,0,0,,-32.535970353999936,-55.78074845749991,https://github.com/CSSEGISandData/COVID-19,4,414,3360148
,,,GHA,6,0,0,,7.936054182000099,-1.038557295499956,https://github.com/CSSEGISandData/COVID-19,6,415,27499924
,,PR,USA,5,0,0,,58.30971624953123,24.422173129022518,https://github.com/CSSEGISandData/COVID-19,5,416,3193694
,,,JEY,2,0,0,,49.21578603700004,-2.133269823499944,https://github.com/CSSEGISandData/COVID-19,2,417,98840
,,,NAM,2,0,0,,-22.95521270749991,18.48870100550009,https://github.com/CSSEGISandData/COVID-19,2,418,2484780
,,,SYC,2,0,0,,-4.6842609996816105,55.46512857035178,https://github.com/CSSEGISandData/COVID-19,2,419,93920
,,,TTO,2,0,0,,10.451544501000058,-61.33045406799994,https://github.com/CSSEGISandData/COVID-19,2,420,1218208
,,,VEN,10,0,0,,6.444529930500067,-66.5967054854999,https://github.com/CSSEGISandData/COVID-19,10,421,31304016
,,,CUW,1,0,0,,12.219590562000064,-68.97252356699991,https://github.com/CSSEGISandData/COVID-19,1,422,149648
,,,SWZ,1,0,0,,-26.52995574899993,31.451547485500043,https://github.com/CSSEGISandData/COVID-19,1,423,1467152
,,,GAB,1,0,0,,-0.8136401413979657,11.649647050500107,https://github.com/CSSEGISandData/COVID-19,1,424,1772255
,,,GTM,1,0,0,,15.773375903990305,-90.2335965784999,https://github.com/CSSEGISandData/COVID-19,1,425,15460732
,,,GGY,1,0,0,,49.46224599800004,-2.601714647499932,https://github.com/CSSEGISandData/COVID-19,1,426,66502
,,,MRT,1,0,0,,17.606562093000058,8.053466634000088,https://github.com/CSSEGISandData/COVID-19,1,427,19245344
,,,RWA,1,0,0,,-1.943601175999916,29.873323404500084,https://github.com/CSSEGISandData/COVID-19,1,428,11901484
,,,LCA,2,0,0,,13.86609528200006,-60.981353318999936,https://github.com/CSSEGISandData/COVID-19,2,429,164994
,,,VCT,1,0,0,,12.9843,-61.2872,https://github.com/CSSEGISandData/COVID-19,1,,
,,,SUR,1,0,0,,3.922540270500072,-56.02702432849992,https://github.com/CSSEGISandData/COVID-19,1,430,591919
,,,occupied Palestinian territory,0,0,0,,31.87704451700006,34.88061508765307,https://github.com/CSSEGISandData/COVID-19,0,431,4543126
,,GU,USA,3,0,0,,20.219303647966534,-74.81395931680615,https://github.com/CSSEGISandData/COVID-19,3,432,
,,,Kosovo,2,0,0,,42.521824239500006,20.90180383250008,https://github.com/CSSEGISandData/COVID-19,2,433,1895250
,,,CAF,1,0,0,,6.61864105250006,20.91950301100013,https://github.com/CSSEGISandData/COVID-19,1,434,5625118
,,,Congo (Brazzaville),1,0,0,,-4.029468688999948,21.726683794000053,https://github.com/CSSEGISandData/COVID-19,1,397,83301151
,,,GNQ,1,0,0,,2.3796428239493608,9.89327355600011,https://github.com/CSSEGISandData/COVID-19,1,435,778358
,,,UZB,1,0,0,,41.373793538500024,64.48963423650005,https://github.com/CSSEGISandData/COVID-19,1,436,29748859
,Zurich,,CHE,140,0,11,0,,,https://raw.githubusercontent.com/openZH/covid_19/master/COVID19_Fallzahlen_Kanton_ZH_total.csv,129,,
,,Abruzzo,ITA,137,3,6,,42.66082319813205,13.744413115262155,https://raw.githubusercontent.com/pcm-dpc/COVID-19/master/dati-regioni/dpc-covid19-ita-regioni.csv,128,437,1311580
,,Basilicata,ITA,11,0,0,,40.44653860227464,16.459736550651286,https://raw.githubusercontent.com/pcm-dpc/COVID-19/master/dati-regioni/dpc-covid19-ita-regioni.csv,11,438,562869
,,Trentino-South Tyrol,ITA,204,5,0,,46.65500433907897,11.419398570635366,https://raw.githubusercontent.com/pcm-dpc/COVID-19/master/dati-regioni/dpc-covid19-ita-regioni.csv,199,439,
,,Calabria,ITA,68,1,1,,39.5898477544993,16.382504226901737,https://raw.githubusercontent.com/pcm-dpc/COVID-19/master/dati-regioni/dpc-covid19-ita-regioni.csv,66,440,1947131
,,Campania,ITA,333,9,28,,40.42080761596819,15.128396085031028,https://raw.githubusercontent.com/pcm-dpc/COVID-19/master/dati-regioni/dpc-covid19-ita-regioni.csv,296,441,5801692
,,Emilia-Romagna,ITA,3093,284,68,,43.962721009377134,12.428037128200344,https://raw.githubusercontent.com/pcm-dpc/COVID-19/master/dati-regioni/dpc-covid19-ita-regioni.csv,2741,442,
,,Friuli Venezia Giulia,ITA,347,14,17,,,,https://raw.githubusercontent.com/pcm-dpc/COVID-19/master/dati-regioni/dpc-covid19-ita-regioni.csv,316,,1215220
,,Lazio,ITA,436,16,24,,41.46857342788178,13.23770878768039,https://raw.githubusercontent.com/pcm-dpc/COVID-19/master/dati-regioni/dpc-covid19-ita-regioni.csv,396,443,5879082
,,Liguria,ITA,559,33,33,,43.9624361855808,7.804047252883208,https://raw.githubusercontent.com/pcm-dpc/COVID-19/master/dati-regioni/dpc-covid19-ita-regioni.csv,493,444,1550640
,,Lombardia,ITA,13272,1218,2011,,45.83250851330723,8.81203281436288,https://raw.githubusercontent.com/pcm-dpc/COVID-19/master/dati-regioni/dpc-covid19-ita-regioni.csv,10043,445,10060574
,,Marche,ITA,1133,46,0,,43.70137131236979,12.68651335143364,https://raw.githubusercontent.com/pcm-dpc/COVID-19/master/dati-regioni/dpc-covid19-ita-regioni.csv,1087,446,1525271
,,Molise,ITA,17,0,0,,41.72552939473218,14.763117463999748,https://raw.githubusercontent.com/pcm-dpc/COVID-19/master/dati-regioni/dpc-covid19-ita-regioni.csv,17,447,305617
,,Piemonte,ITA,1111,81,0,,46.11130799127415,8.289296916581662,https://raw.githubusercontent.com/pcm-dpc/COVID-19/master/dati-regioni/dpc-covid19-ita-regioni.csv,1030,448,4356406
,,Puglia,ITA,230,16,2,,,,https://raw.githubusercontent.com/pcm-dpc/COVID-19/master/dati-regioni/dpc-covid19-ita-regioni.csv,212,,4029053
,,Sardegna,ITA,77,2,0,,39.217166975181996,8.61039424380536,https://raw.githubusercontent.com/pcm-dpc/COVID-19/master/dati-regioni/dpc-covid19-ita-regioni.csv,75,449,1639591
,,Sicilia,ITA,188,2,7,,,,https://raw.githubusercontent.com/pcm-dpc/COVID-19/master/dati-regioni/dpc-covid19-ita-regioni.csv,179,,4999891
,,Toscana,ITA,781,8,10,,42.775460274884864,11.25647373115611,https://raw.githubusercontent.com/pcm-dpc/COVID-19/master/dati-regioni/dpc-covid19-ita-regioni.csv,763,450,3729641
,,Trento,ITA,378,6,5,,46.10760284849263,11.214905976229801,https://raw.githubusercontent.com/pcm-dpc/COVID-19/master/dati-regioni/dpc-covid19-ita-regioni.csv,367,451,1072276
,,Umbria,ITA,143,1,3,,42.65399553886303,12.3954968414061,https://raw.githubusercontent.com/pcm-dpc/COVID-19/master/dati-regioni/dpc-covid19-ita-regioni.csv,139,452,882015
,,Valle d'Aosta,ITA,57,1,0,,45.72520261050006,7.35008091679296,https://raw.githubusercontent.com/pcm-dpc/COVID-19/master/dati-regioni/dpc-covid19-ita-regioni.csv,56,453,125666
,,Veneto,ITA,2172,63,120,,46.27818462507037,12.220946053117842,https://raw.githubusercontent.com/pcm-dpc/COVID-19/master/dati-regioni/dpc-covid19-ita-regioni.csv,1989,454,4905854
,Copiah County,MS,USA,2,,,,31.867576,-90.42352199999999,"https://msdh.ms.gov/msdhsite/_static/14,0,420.html",2,455,28543
,Hinds County,MS,USA,2,,,,32.3110675,-90.3971595,"https://msdh.ms.gov/msdhsite/_static/14,0,420.html",2,456,237085
,Forrest County,MS,USA,3,,,,31.1719645,-89.2947915,"https://msdh.ms.gov/msdhsite/_static/14,0,420.html",3,457,75036
,Leflore County,MS,USA,1,,,,33.523355,-90.277601,"https://msdh.ms.gov/msdhsite/_static/14,0,420.html",1,458,28919
,Pearl River County,MS,USA,2,,,,30.7364495,-89.596482,"https://msdh.ms.gov/msdhsite/_static/14,0,420.html",2,459,55387
,,MS,USA,10,,,,-20.91221119876881,28.88710896780958,"https://msdh.ms.gov/msdhsite/_static/14,0,420.html",10,460,2976149
,,DC,USA,17,,,120,38.899451555326564,-77.0145477695639,https://coronavirus.dc.gov/page/coronavirus-data,17,461,705749
,Baldwin County,AL,USA,1,1,,,30.765086,-87.69793150000001,http://www.alabamapublichealth.gov/infectiousdiseases/2019-coronavirus.html,0,462,218022
,Elmore County,AL,USA,1,1,,,32.5876855,-86.13298,http://www.alabamapublichealth.gov/infectiousdiseases/2019-coronavirus.html,0,463,81887
,Lee County,AL,USA,1,1,,,32.578877500000004,-85.348772,http://www.alabamapublichealth.gov/infectiousdiseases/2019-coronavirus.html,0,464,163941
,Jefferson County,AL,USA,12,12,,,33.544622000000004,-86.92924049999999,http://www.alabamapublichealth.gov/infectiousdiseases/2019-coronavirus.html,0,465,659300
,Limestone County,AL,USA,1,1,,,34.774907,-87.030965,http://www.alabamapublichealth.gov/infectiousdiseases/2019-coronavirus.html,0,466,96174
,Montgomery County,AL,USA,1,1,,,32.2330785,-86.2080335,http://www.alabamapublichealth.gov/infectiousdiseases/2019-coronavirus.html,0,467,225763
,Shelby County,AL,USA,2,2,,,33.2828065,-86.6839795,http://www.alabamapublichealth.gov/infectiousdiseases/2019-coronavirus.html,0,468,215707
,Tuscaloosa County,AL,USA,3,3,,,33.306606,-87.4532105,http://www.alabamapublichealth.gov/infectiousdiseases/2019-coronavirus.html,0,469,208911
,,AL,USA,22,22,,,10.447463789112518,-84.7976370213814,http://www.alabamapublichealth.gov/infectiousdiseases/2019-coronavirus.html,0,470,4903185
,Adams County,CO,USA,6,,,,39.87063,-104.3794855,https://docs.google.com/document/d/e/2PACX-1vRSxDeeJEaDxir0cCd9Sfji8ZPKzNaCPZnvRCbG63Oa1ztz4B4r7xG_wsoC9ucd_ei3--Pz7UD50yQD/pub,6,471,511868
,Arapahoe County,CO,USA,15,,,,39.6533655,-104.38034350000001,https://docs.google.com/document/d/e/2PACX-1vRSxDeeJEaDxir0cCd9Sfji8ZPKzNaCPZnvRCbG63Oa1ztz4B4r7xG_wsoC9ucd_ei3--Pz7UD50yQD/pub,15,472,651215
,Boulder County,CO,USA,3,,,,40.0878355,-105.37153699999999,https://docs.google.com/document/d/e/2PACX-1vRSxDeeJEaDxir0cCd9Sfji8ZPKzNaCPZnvRCbG63Oa1ztz4B4r7xG_wsoC9ucd_ei3--Pz7UD50yQD/pub,3,473,326078
,Clear Creek County,CO,USA,1,,,,39.7084305,-105.66211949999999,https://docs.google.com/document/d/e/2PACX-1vRSxDeeJEaDxir0cCd9Sfji8ZPKzNaCPZnvRCbG63Oa1ztz4B4r7xG_wsoC9ucd_ei3--Pz7UD50yQD/pub,1,474,9605
,Denver County,CO,USA,24,,,,39.76426,-104.855181,https://docs.google.com/document/d/e/2PACX-1vRSxDeeJEaDxir0cCd9Sfji8ZPKzNaCPZnvRCbG63Oa1ztz4B4r7xG_wsoC9ucd_ei3--Pz7UD50yQD/pub,24,475,716492
,Douglas County,CO,USA,8,,,,39.34788,-104.994923,https://docs.google.com/document/d/e/2PACX-1vRSxDeeJEaDxir0cCd9Sfji8ZPKzNaCPZnvRCbG63Oa1ztz4B4r7xG_wsoC9ucd_ei3--Pz7UD50yQD/pub,8,476,342776
,Eagle County,CO,USA,22,,,,39.6373275,-106.645068,https://docs.google.com/document/d/e/2PACX-1vRSxDeeJEaDxir0cCd9Sfji8ZPKzNaCPZnvRCbG63Oa1ztz4B4r7xG_wsoC9ucd_ei3--Pz7UD50yQD/pub,22,477,54993
,El Paso County,CO,USA,4,,,,38.824693999999994,-104.5619235,https://docs.google.com/document/d/e/2PACX-1vRSxDeeJEaDxir0cCd9Sfji8ZPKzNaCPZnvRCbG63Oa1ztz4B4r7xG_wsoC9ucd_ei3--Pz7UD50yQD/pub,4,478,713856
,Garfield County,CO,USA,1,,,,39.728802,-108.0417065,https://docs.google.com/document/d/e/2PACX-1vRSxDeeJEaDxir0cCd9Sfji8ZPKzNaCPZnvRCbG63Oa1ztz4B4r7xG_wsoC9ucd_ei3--Pz7UD50yQD/pub,1,479,59770
,Gunnison County,CO,USA,8,,,,38.702179,-106.94099,https://docs.google.com/document/d/e/2PACX-1vRSxDeeJEaDxir0cCd9Sfji8ZPKzNaCPZnvRCbG63Oa1ztz4B4r7xG_wsoC9ucd_ei3--Pz7UD50yQD/pub,8,480,17246
,Jefferson County,CO,USA,12,,,,39.5219745,-105.2238445,https://docs.google.com/document/d/e/2PACX-1vRSxDeeJEaDxir0cCd9Sfji8ZPKzNaCPZnvRCbG63Oa1ztz4B4r7xG_wsoC9ucd_ei3--Pz7UD50yQD/pub,12,481,580233
,Larimer County,CO,USA,1,,,,40.628046999999995,-105.5669625,https://docs.google.com/document/d/e/2PACX-1vRSxDeeJEaDxir0cCd9Sfji8ZPKzNaCPZnvRCbG63Oa1ztz4B4r7xG_wsoC9ucd_ei3--Pz7UD50yQD/pub,1,482,350518
,Mesa County,CO,USA,1,,,,38.933332,-108.21971400000001,https://docs.google.com/document/d/e/2PACX-1vRSxDeeJEaDxir0cCd9Sfji8ZPKzNaCPZnvRCbG63Oa1ztz4B4r7xG_wsoC9ucd_ei3--Pz7UD50yQD/pub,1,483,153207
,Pitkin County,CO,USA,2,,,,39.171949,-106.946222,https://docs.google.com/document/d/e/2PACX-1vRSxDeeJEaDxir0cCd9Sfji8ZPKzNaCPZnvRCbG63Oa1ztz4B4r7xG_wsoC9ucd_ei3--Pz7UD50yQD/pub,2,484,17950
,Pueblo County,CO,USA,1,,,,38.1285485,-104.5522995,https://docs.google.com/document/d/e/2PACX-1vRSxDeeJEaDxir0cCd9Sfji8ZPKzNaCPZnvRCbG63Oa1ztz4B4r7xG_wsoC9ucd_ei3--Pz7UD50yQD/pub,1,485,167529
,Summit County,CO,USA,1,,,,39.6416725,-106.10532549999999,https://docs.google.com/document/d/e/2PACX-1vRSxDeeJEaDxir0cCd9Sfji8ZPKzNaCPZnvRCbG63Oa1ztz4B4r7xG_wsoC9ucd_ei3--Pz7UD50yQD/pub,1,486,31007
,Weld County,CO,USA,5,,,,40.5011525,-104.315327,https://docs.google.com/document/d/e/2PACX-1vRSxDeeJEaDxir0cCd9Sfji8ZPKzNaCPZnvRCbG63Oa1ztz4B4r7xG_wsoC9ucd_ei3--Pz7UD50yQD/pub,5,487,314305
,Unknown county County,CO,USA,1,,,,,,https://docs.google.com/document/d/e/2PACX-1vRSxDeeJEaDxir0cCd9Sfji8ZPKzNaCPZnvRCbG63Oa1ztz4B4r7xG_wsoC9ucd_ei3--Pz7UD50yQD/pub,1,,
,,CO,USA,116,,,,45.94117645058273,9.174864674246866,https://docs.google.com/document/d/e/2PACX-1vRSxDeeJEaDxir0cCd9Sfji8ZPKzNaCPZnvRCbG63Oa1ztz4B4r7xG_wsoC9ucd_ei3--Pz7UD50yQD/pub,116,488,5758736
,Clackamas County,OR,USA,1,,,,45.1737,-122.26009400000001,https://www.oregon.gov/oha/PH/DISEASESCONDITIONS/DISEASESAZ/Pages/emerging-respiratory-infections.aspx,1,489,416075
,Deschutes County,OR,USA,4,,,,44.001645499999995,-120.94952,https://www.oregon.gov/oha/PH/DISEASESCONDITIONS/DISEASESAZ/Pages/emerging-respiratory-infections.aspx,4,490,191996
,Douglas County,OR,USA,1,,,,43.3222345,-123.0963585,https://www.oregon.gov/oha/PH/DISEASESCONDITIONS/DISEASESAZ/Pages/emerging-respiratory-infections.aspx,1,491,110283
,Jackson County,OR,USA,2,,,,42.4995805,-122.756742,https://www.oregon.gov/oha/PH/DISEASESCONDITIONS/DISEASESAZ/Pages/emerging-respiratory-infections.aspx,2,492,219564
,Klamath County,OR,USA,1,,,,42.804975999999996,-121.58491599999999,https://www.oregon.gov/oha/PH/DISEASESCONDITIONS/DISEASESAZ/Pages/emerging-respiratory-infections.aspx,1,493,67653
,Linn County,OR,USA,10,,,,44.496468,-122.5272075,https://www.oregon.gov/oha/PH/DISEASESCONDITIONS/DISEASESAZ/Pages/emerging-respiratory-infections.aspx,10,494,127335
,Marion County,OR,USA,2,,,,44.984239,-122.4575375,https://www.oregon.gov/oha/PH/DISEASESCONDITIONS/DISEASESAZ/Pages/emerging-respiratory-infections.aspx,2,495,346868
,Multnomah County,OR,USA,1,,,,45.580658,-122.374808,https://www.oregon.gov/oha/PH/DISEASESCONDITIONS/DISEASESAZ/Pages/emerging-respiratory-infections.aspx,1,496,811880
,Polk County,OR,USA,1,,,,44.8977695,-123.38289850000001,https://www.oregon.gov/oha/PH/DISEASESCONDITIONS/DISEASESAZ/Pages/emerging-respiratory-infections.aspx,1,497,85234
,Umatilla County,OR,USA,2,,,,45.4984405,-118.7037805,https://www.oregon.gov/oha/PH/DISEASESCONDITIONS/DISEASESAZ/Pages/emerging-respiratory-infections.aspx,2,498,77516
,Washington County,OR,USA,13,,,,45.5483985,-123.114875,https://www.oregon.gov/oha/PH/DISEASESCONDITIONS/DISEASESAZ/Pages/emerging-respiratory-infections.aspx,13,499,597695
,Yamhill County,OR,USA,1,,,,45.254474,-123.31725850000001,https://www.oregon.gov/oha/PH/DISEASESCONDITIONS/DISEASESAZ/Pages/emerging-respiratory-infections.aspx,1,500,107002
,,OR,USA,39,,,,-18.613514702841258,-67.60700517144237,https://www.oregon.gov/oha/PH/DISEASESCONDITIONS/DISEASESAZ/Pages/emerging-respiratory-infections.aspx,39,501,4217737
,De Soto Parish,LA,USA,0,0,,,32.0948115,-93.699102,https://opendata.arcgis.com/datasets/cba425c2e5b8421c88827dc0ec8c663b_0.csv,0,502,27436
,St. John the Baptist Parish,LA,USA,1,0,,,30.0930385,-90.4833525,https://opendata.arcgis.com/datasets/cba425c2e5b8421c88827dc0ec8c663b_0.csv,1,503,43184
,Lafourche Parish,LA,USA,1,0,,,29.4895455,-90.50821049999999,https://opendata.arcgis.com/datasets/cba425c2e5b8421c88827dc0ec8c663b_0.csv,1,504,98115
,Orleans Parish,LA,USA,74,0,,,30.033868,-89.88147699999999,https://opendata.arcgis.com/datasets/cba425c2e5b8421c88827dc0ec8c663b_0.csv,74,505,391006
,Sabine Parish,LA,USA,0,0,,,31.505406999999998,-93.557699,https://opendata.arcgis.com/datasets/cba425c2e5b8421c88827dc0ec8c663b_0.csv,0,506,24032
,Tangipahoa Parish,LA,USA,0,0,,,30.612403,-90.405269,https://opendata.arcgis.com/datasets/cba425c2e5b8421c88827dc0ec8c663b_0.csv,0,507,133777
,St. Tammany Parish,LA,USA,4,0,,,30.43073,-89.891049,https://opendata.arcgis.com/datasets/cba425c2e5b8421c88827dc0ec8c663b_0.csv,4,508,258111
,Livingston Parish,LA,USA,0,0,,,30.412879,-90.696248,https://opendata.arcgis.com/datasets/cba425c2e5b8421c88827dc0ec8c663b_0.csv,0,509,139567
,St. Charles Parish,LA,USA,3,0,,,29.961458,-90.3585315,https://opendata.arcgis.com/datasets/cba425c2e5b8421c88827dc0ec8c663b_0.csv,3,510,52879
,Calcasieu Parish,LA,USA,0,0,,,30.2639165,-93.326522,https://opendata.arcgis.com/datasets/cba425c2e5b8421c88827dc0ec8c663b_0.csv,0,511,203112
,Union Parish,LA,USA,0,0,,,32.7976865,-92.394117,https://opendata.arcgis.com/datasets/cba425c2e5b8421c88827dc0ec8c663b_0.csv,0,512,22330
,Caldwell Parish,LA,USA,0,0,,,32.102264500000004,-92.09278499999999,https://opendata.arcgis.com/datasets/cba425c2e5b8421c88827dc0ec8c663b_0.csv,0,513,9960
,Tensas Parish,LA,USA,0,0,,,31.991290499999998,-91.3045835,https://opendata.arcgis.com/datasets/cba425c2e5b8421c88827dc0ec8c663b_0.csv,0,514,4462
,Jackson Parish,LA,USA,0,0,,,32.3212645,-92.56701000000001,https://opendata.arcgis.com/datasets/cba425c2e5b8421c88827dc0ec8c663b_0.csv,0,515,15902
,Grant Parish,LA,USA,0,0,,,31.5926135,-92.58483,https://opendata.arcgis.com/datasets/cba425c2e5b8421c88827dc0ec8c663b_0.csv,0,516,22482
,Lincoln Parish,LA,USA,0,0,,,32.606269499999996,-92.64820449999999,https://opendata.arcgis.com/datasets/cba425c2e5b8421c88827dc0ec8c663b_0.csv,0,517,47196
,Jefferson Davis Parish,LA,USA,0,0,,,30.2628035,-92.857122,https://opendata.arcgis.com/datasets/cba425c2e5b8421c88827dc0ec8c663b_0.csv,0,518,31582
,Lafayette Parish,LA,USA,0,0,,,30.2075775,-92.0951095,https://opendata.arcgis.com/datasets/cba425c2e5b8421c88827dc0ec8c663b_0.csv,0,519,242782
,East Carroll Parish,LA,USA,0,0,,,32.7714455,-91.2303025,https://opendata.arcgis.com/datasets/cba425c2e5b8421c88827dc0ec8c663b_0.csv,0,520,7037
,East Feliciana Parish,LA,USA,0,0,,,30.824589,-91.0732675,https://opendata.arcgis.com/datasets/cba425c2e5b8421c88827dc0ec8c663b_0.csv,0,521,19305
,Iberville Parish,LA,USA,0,0,,,30.2613845,-91.3600815,https://opendata.arcgis.com/datasets/cba425c2e5b8421c88827dc0ec8c663b_0.csv,0,522,32721
,Richland Parish,LA,USA,0,0,,,32.409445500000004,-91.732693,https://opendata.arcgis.com/datasets/cba425c2e5b8421c88827dc0ec8c663b_0.csv,0,523,20192
,St. Martin Parish,LA,USA,0,0,,,30.09857,-91.53909150000001,https://opendata.arcgis.com/datasets/cba425c2e5b8421c88827dc0ec8c663b_0.csv,0,524,53621
,Claiborne Parish,LA,USA,0,0,,,32.8016545,-92.981675,https://opendata.arcgis.com/datasets/cba425c2e5b8421c88827dc0ec8c663b_0.csv,0,525,15944
,St. Landry Parish,LA,USA,0,0,,,30.573712,-92.08607749999999,https://opendata.arcgis.com/datasets/cba425c2e5b8421c88827dc0ec8c663b_0.csv,0,526,82764
,Pointe Coupee Parish,LA,USA,0,0,,,30.750701999999997,-91.5623665,https://opendata.arcgis.com/datasets/cba425c2e5b8421c88827dc0ec8c663b_0.csv,0,527,21940
,LaSalle Parish,LA,USA,0,0,,,,,https://opendata.arcgis.com/datasets/cba425c2e5b8421c88827dc0ec8c663b_0.csv,0,,14917
,Webster Parish,LA,USA,0,0,,,32.7143435,-93.3384255,https://opendata.arcgis.com/datasets/cba425c2e5b8421c88827dc0ec8c663b_0.csv,0,528,38798
,St. James Parish,LA,USA,0,0,,,30.027838,-90.8028455,https://opendata.arcgis.com/datasets/cba425c2e5b8421c88827dc0ec8c663b_0.csv,0,529,21037
,Morehouse Parish,LA,USA,0,0,,,32.7570325,-91.76029249999999,https://opendata.arcgis.com/datasets/cba425c2e5b8421c88827dc0ec8c663b_0.csv,0,530,25398
,Rapides Parish,LA,USA,0,0,,,31.203797,-92.5286315,https://opendata.arcgis.com/datasets/cba425c2e5b8421c88827dc0ec8c663b_0.csv,0,531,130562
,Avoyelles Parish,LA,USA,0,0,,,31.095483,-91.97901999999999,https://opendata.arcgis.com/datasets/cba425c2e5b8421c88827dc0ec8c663b_0.csv,0,532,40462
,Winn Parish,LA,USA,0,0,,,31.928432,-92.64287350000001,https://opendata.arcgis.com/datasets/cba425c2e5b8421c88827dc0ec8c663b_0.csv,0,533,14134
,Catahoula Parish,LA,USA,0,0,,,31.5993165,-91.776279,https://opendata.arcgis.com/datasets/cba425c2e5b8421c88827dc0ec8c663b_0.csv,0,534,9608
,Assumption Parish,LA,USA,0,0,,,29.8539995,-91.0722915,https://opendata.arcgis.com/datasets/cba425c2e5b8421c88827dc0ec8c663b_0.csv,0,535,22300
,Caddo Parish,LA,USA,2,0,,,32.6074585,-93.757198,https://opendata.arcgis.com/datasets/cba425c2e5b8421c88827dc0ec8c663b_0.csv,2,536,242922
,Washington Parish,LA,USA,0,0,,,30.835068999999997,-90.03715650000001,https://opendata.arcgis.com/datasets/cba425c2e5b8421c88827dc0ec8c663b_0.csv,0,537,46582
,East Baton Rouge Parish,LA,USA,0,0,,,30.516002,-91.0821615,https://opendata.arcgis.com/datasets/cba425c2e5b8421c88827dc0ec8c663b_0.csv,0,538,440956
,Natchitoches Parish,LA,USA,0,0,,,31.747528000000003,-93.080363,https://opendata.arcgis.com/datasets/cba425c2e5b8421c88827dc0ec8c663b_0.csv,0,539,38659
,Bienville Parish,LA,USA,0,0,,,32.366091999999995,-93.10068150000001,https://opendata.arcgis.com/datasets/cba425c2e5b8421c88827dc0ec8c663b_0.csv,0,540,13308
,Bossier Parish,LA,USA,1,0,,,32.627677000000006,-93.5978795,https://opendata.arcgis.com/datasets/cba425c2e5b8421c88827dc0ec8c663b_0.csv,1,541,127185
,Allen Parish,LA,USA,0,0,,,30.661153,-92.856948,https://opendata.arcgis.com/datasets/cba425c2e5b8421c88827dc0ec8c663b_0.csv,0,542,25605
,Ouachita Parish,LA,USA,0,0,,,32.4907775,-92.159829,https://opendata.arcgis.com/datasets/cba425c2e5b8421c88827dc0ec8c663b_0.csv,0,543,154475
,St. Helena Parish,LA,USA,0,0,,,30.824559,-90.738279,https://opendata.arcgis.com/datasets/cba425c2e5b8421c88827dc0ec8c663b_0.csv,0,544,10262
,West Feliciana Parish,LA,USA,0,0,,,30.8493775,-91.46312950000001,https://opendata.arcgis.com/datasets/cba425c2e5b8421c88827dc0ec8c663b_0.csv,0,545,15460
,West Carroll Parish,LA,USA,0,0,,,32.7940275,-91.45007849999999,https://opendata.arcgis.com/datasets/cba425c2e5b8421c88827dc0ec8c663b_0.csv,0,546,10982
,Concordia Parish,LA,USA,0,0,,,31.366113,-91.622707,https://opendata.arcgis.com/datasets/cba425c2e5b8421c88827dc0ec8c663b_0.csv,0,547,19572
,West Baton Rouge Parish,LA,USA,0,0,,,30.490574000000002,-91.313597,https://opendata.arcgis.com/datasets/cba425c2e5b8421c88827dc0ec8c663b_0.csv,0,548,26427
,Madison Parish,LA,USA,0,0,,,32.341573,-91.216415,https://opendata.arcgis.com/datasets/cba425c2e5b8421c88827dc0ec8c663b_0.csv,0,549,11161
,Ascension Parish,LA,USA,0,0,,,30.204696499999997,-90.869644,https://opendata.arcgis.com/datasets/cba425c2e5b8421c88827dc0ec8c663b_0.csv,0,550,124672
,Acadia Parish,LA,USA,0,0,,,30.2652335,-92.38683499999999,https://opendata.arcgis.com/datasets/cba425c2e5b8421c88827dc0ec8c663b_0.csv,0,551,62190
,Beauregard Parish,LA,USA,0,0,,,30.6430015,-93.35856949999999,https://opendata.arcgis.com/datasets/cba425c2e5b8421c88827dc0ec8c663b_0.csv,0,552,37253
,Franklin Parish,LA,USA,0,0,,,32.1420035,-91.6867355,https://opendata.arcgis.com/datasets/cba425c2e5b8421c88827dc0ec8c663b_0.csv,0,553,20156
,Evangeline Parish,LA,USA,0,0,,,30.7409765,-92.40312349999999,https://opendata.arcgis.com/datasets/cba425c2e5b8421c88827dc0ec8c663b_0.csv,0,554,33443
,Vernon Parish,LA,USA,0,0,,,31.1119345,-93.19772900000001,https://opendata.arcgis.com/datasets/cba425c2e5b8421c88827dc0ec8c663b_0.csv,0,555,48860
,Red River Parish,LA,USA,0,0,,,32.062484,-93.367939,https://opendata.arcgis.com/datasets/cba425c2e5b8421c88827dc0ec8c663b_0.csv,0,556,8477
,Vermilion Parish,LA,USA,0,0,,,29.8402345,-92.351531,https://opendata.arcgis.com/datasets/cba425c2e5b8421c88827dc0ec8c663b_0.csv,0,557,59830
,Plaquemines Parish,LA,USA,0,0,,,29.4150075,-89.5381785,https://opendata.arcgis.com/datasets/cba425c2e5b8421c88827dc0ec8c663b_0.csv,0,558,23410
,St. Mary Parish,LA,USA,0,0,,,29.7141755,-91.48180049999999,https://opendata.arcgis.com/datasets/cba425c2e5b8421c88827dc0ec8c663b_0.csv,0,559,49774
,Cameron Parish,LA,USA,0,0,,,29.8158395,-93.27240900000001,https://opendata.arcgis.com/datasets/cba425c2e5b8421c88827dc0ec8c663b_0.csv,0,560,6968
,Iberia Parish,LA,USA,0,0,,,29.7982045,-91.632762,https://opendata.arcgis.com/datasets/cba425c2e5b8421c88827dc0ec8c663b_0.csv,0,561,70941
,St. Bernard Parish,LA,USA,1,0,,,29.8500655,-89.4145595,https://opendata.arcgis.com/datasets/cba425c2e5b8421c88827dc0ec8c663b_0.csv,1,562,46721
,Terrebonne Parish,LA,USA,2,0,,,29.406244,-90.8557755,https://opendata.arcgis.com/datasets/cba425c2e5b8421c88827dc0ec8c663b_0.csv,2,563,111021
,Jefferson Parish,LA,USA,14,0,,,29.696731,-90.114832,https://opendata.arcgis.com/datasets/cba425c2e5b8421c88827dc0ec8c663b_0.csv,14,564,434051
,,LA,USA,103,,,,10.715987449983892,106.13383655129704,https://opendata.arcgis.com/datasets/cba425c2e5b8421c88827dc0ec8c663b_0.csv,103,565,4648794
,Carroll County,IA,USA,1,,,,42.0363995,-94.8607925,https://idph.iowa.gov/emerging-health-issues/novel-coronavirus,1,566,20154
,Dallas County,IA,USA,1,,,,41.683413,-94.03547599999999,https://idph.iowa.gov/emerging-health-issues/novel-coronavirus,1,567,90180
,Harrison County,IA,USA,1,,,,41.6857895,-95.8184015,https://idph.iowa.gov/emerging-health-issues/novel-coronavirus,1,568,14134
,Johnson County,IA,USA,14,,,,41.6426345,-91.5995785,https://idph.iowa.gov/emerging-health-issues/novel-coronavirus,14,569,151260
,Pottawattamie County,IA,USA,1,,,,41.3330975,-95.5872695,https://idph.iowa.gov/emerging-health-issues/novel-coronavirus,1,570,93533
,,IA,USA,18,,,,46.933647162536516,28.787421502350412,https://idph.iowa.gov/emerging-health-issues/novel-coronavirus,18,571,3155070
,Bell County,TX,USA,1,,,,31.0362865,-97.4920175,https://www.dshs.state.tx.us/news/updates.shtm,1,572,355642
,Bexar County,TX,USA,3,,,,29.4374885,-98.4636305,https://www.dshs.state.tx.us/news/updates.shtm,3,573,1986049
,Brazoria County,TX,USA,2,,,,29.2119295,-95.46632349999999,https://www.dshs.state.tx.us/news/updates.shtm,2,574,370200
,Collin County,TX,USA,6,,,,33.193628000000004,-96.569696,https://www.dshs.state.tx.us/news/updates.shtm,6,575,1005146
,Dallas County,TX,USA,8,,,,32.767269,-96.7776255,https://www.dshs.state.tx.us/news/updates.shtm,8,576,2637772
,El Paso County,TX,USA,1,,,,31.6946625,-106.299987,https://www.dshs.state.tx.us/news/updates.shtm,1,577,840758
,Fort Bend County,TX,USA,9,,,,29.525435,-95.75651500000001,https://www.dshs.state.tx.us/news/updates.shtm,9,578,787858
,Galveston County,TX,USA,1,,,,29.3376555,-94.8019735,https://www.dshs.state.tx.us/news/updates.shtm,1,579,337890
,Gregg County,TX,USA,1,,,,32.5138005,-94.78307699999999,https://www.dshs.state.tx.us/news/updates.shtm,1,580,123707
,Harris County,TX,USA,10,,,,29.833973999999998,-95.43486150000001,https://www.dshs.state.tx.us/news/updates.shtm,10,581,4698619
,Hays County,TX,USA,1,,,,30.054378,-98.0039075,https://www.dshs.state.tx.us/news/updates.shtm,1,582,222631
,Lavaca County,TX,USA,1,,,,29.347974999999998,-96.9003315,https://www.dshs.state.tx.us/news/updates.shtm,1,583,20110
,Matagorda County,TX,USA,1,,,,28.8068055,-95.943229,https://www.dshs.state.tx.us/news/updates.shtm,1,584,36552
,Montgomery County,TX,USA,3,,,,30.3290225,-95.463474,https://www.dshs.state.tx.us/news/updates.shtm,3,585,590925
,Smith County,TX,USA,4,,,,32.4112925,-95.2899065,https://www.dshs.state.tx.us/news/updates.shtm,4,586,230221
,Tarrant County,TX,USA,3,,,,32.7714195,-97.29143450000001,https://www.dshs.state.tx.us/news/updates.shtm,3,587,2084931
,Travis County,TX,USA,1,,,,30.326374,-97.771258,https://www.dshs.state.tx.us/news/updates.shtm,1,588,1248743
,,TX,USA,56,,,,31.177528238191037,-100.0884705015624,https://www.dshs.state.tx.us/news/updates.shtm,56,589,28995881
,New Castle County,DE,USA,7,,,,39.565300500000006,-75.5969975,https://www.dhss.delaware.gov/dhss/dph/epi/2019novelcoronavirus.html,7,590,559335
,Kent County,DE,USA,0,,,,39.0977575,-75.5358555,https://www.dhss.delaware.gov/dhss/dph/epi/2019novelcoronavirus.html,0,591,178550
,Sussex County,DE,USA,0,,,,38.706443,-75.38576900000001,https://www.dhss.delaware.gov/dhss/dph/epi/2019novelcoronavirus.html,0,592,229286
,Manatee County,FL,USA,4,,,,27.4272245,-82.4000485,http://www.floridahealth.gov/diseases-and-conditions/COVID-19/index.html,4,593,394855
,Hillsborough County,FL,USA,4,,,,27.909229500000002,-82.3526,http://www.floridahealth.gov/diseases-and-conditions/COVID-19/index.html,4,594,1436888
,Santa Rosa County,FL,USA,1,,,,30.669196499999998,-87.047978,http://www.floridahealth.gov/diseases-and-conditions/COVID-19/index.html,1,595,179349
,Broward County,FL,USA,36,,,,26.1561005,-80.478035,http://www.floridahealth.gov/diseases-and-conditions/COVID-19/index.html,36,596,1951260
,Lee County,FL,USA,5,,,,26.5528805,-81.9169395,http://www.floridahealth.gov/diseases-and-conditions/COVID-19/index.html,5,597,754610
,Charlotte County,FL,USA,1,,,,26.902401,-81.9689695,http://www.floridahealth.gov/diseases-and-conditions/COVID-19/index.html,1,598,184998
,Okaloosa County,FL,USA,1,,,,30.687763500000003,-86.59446449999999,http://www.floridahealth.gov/diseases-and-conditions/COVID-19/index.html,1,599,207269
,Volusia County,FL,USA,5,,,,29.0200235,-81.20657349999999,http://www.floridahealth.gov/diseases-and-conditions/COVID-19/index.html,5,600,547538
,Nassau County,FL,USA,1,,,,30.550462500000002,-81.73892599999999,http://www.floridahealth.gov/diseases-and-conditions/COVID-19/index.html,1,601,85832
,Collier County,FL,USA,5,,,,26.1601955,-81.35938300000001,http://www.floridahealth.gov/diseases-and-conditions/COVID-19/index.html,5,602,378488
,Pinellas County,FL,USA,2,,,,27.893119,-82.70897249999999,http://www.floridahealth.gov/diseases-and-conditions/COVID-19/index.html,2,603,975280
,Pasco County,FL,USA,2,,,,28.3252435,-82.4298955,http://www.floridahealth.gov/diseases-and-conditions/COVID-19/index.html,2,604,539630
,Miami-Dade County,FL,USA,13,,,,25.5606775,-80.495494,http://www.floridahealth.gov/diseases-and-conditions/COVID-19/index.html,13,605,2761581
,Seminole County,FL,USA,1,,,,28.745247499999998,-81.2234725,http://www.floridahealth.gov/diseases-and-conditions/COVID-19/index.html,1,606,467832
,Palm Beach County,FL,USA,5,,,,26.645985500000002,-80.4587305,http://www.floridahealth.gov/diseases-and-conditions/COVID-19/index.html,5,607,1485941
,Sarasota County,FL,USA,1,,,,27.167500500000003,-82.349667,http://www.floridahealth.gov/diseases-and-conditions/COVID-19/index.html,1,608,426718
,Alachua County,FL,USA,1,,,,29.681131999999998,-82.3544225,http://www.floridahealth.gov/diseases-and-conditions/COVID-19/index.html,1,609,269956
,Duval County,FL,USA,4,,,,30.34499,-81.714645,http://www.floridahealth.gov/diseases-and-conditions/COVID-19/index.html,4,610,950181
,Clay County,FL,USA,3,,,,29.956068000000002,-81.815316,http://www.floridahealth.gov/diseases-and-conditions/COVID-19/index.html,3,611,216072
,Orange County,FL,USA,2,,,,28.566533999999997,-81.2607525,http://www.floridahealth.gov/diseases-and-conditions/COVID-19/index.html,2,612,1380645
,Osceola County,FL,USA,1,,,,27.995169500000003,-81.2600415,http://www.floridahealth.gov/diseases-and-conditions/COVID-19/index.html,1,613,367990
,Citrus County,FL,USA,1,,,,28.858776,-82.4640235,http://www.floridahealth.gov/diseases-and-conditions/COVID-19/index.html,1,614,147929
,St. Johns County,FL,USA,1,,,,29.937673,-81.4511455,http://www.floridahealth.gov/diseases-and-conditions/COVID-19/index.html,1,615,254261
,Albany County,NY,USA,8,,,,42.613902,-73.9708125,https://www.health.ny.gov/diseases/communicable/coronavirus/,8,616,307117
,Broome County,NY,USA,1,,,,42.206783,-75.74488,https://www.health.ny.gov/diseases/communicable/coronavirus/,1,617,191659
,Delaware County,NY,USA,1,,,,42.183063,-74.92498599999999,https://www.health.ny.gov/diseases/communicable/coronavirus/,1,618,44527
,Dutchess County,NY,USA,7,,,,41.7599055,-73.74371099999999,https://www.health.ny.gov/diseases/communicable/coronavirus/,7,619,293718
,Erie County,NY,USA,3,,,,42.768297000000004,-78.79997900000001,https://www.health.ny.gov/diseases/communicable/coronavirus/,3,620,919719
,Greene County,NY,USA,2,,,,42.28041,-74.1565635,https://www.health.ny.gov/diseases/communicable/coronavirus/,2,621,47491
,Herkimer County,NY,USA,1,,,,43.460950999999994,-74.957551,https://www.health.ny.gov/diseases/communicable/coronavirus/,1,622,61833
,Monroe County,NY,USA,2,,,,43.154810499999996,-77.684384,https://www.health.ny.gov/diseases/communicable/coronavirus/,2,623,742474
,Montgomery County,NY,USA,1,,,,42.910201,-74.4234035,https://www.health.ny.gov/diseases/communicable/coronavirus/,1,624,49455
,Nassau County,NY,USA,98,,,,40.7528025,-73.5961185,https://www.health.ny.gov/diseases/communicable/coronavirus/,98,625,1358343
,Orange County,NY,USA,6,,,,41.3878105,-74.354217,https://www.health.ny.gov/diseases/communicable/coronavirus/,6,626,381951
,Putnam County,NY,USA,2,,,,41.4244435,-73.7563255,https://www.health.ny.gov/diseases/communicable/coronavirus/,2,627,98892
,Rockland County,NY,USA,13,,,,41.160945,-74.06082649999999,https://www.health.ny.gov/diseases/communicable/coronavirus/,13,628,325695
,Saratoga County,NY,USA,3,,,,43.0867325,-73.866721,https://www.health.ny.gov/diseases/communicable/coronavirus/,3,629,230163
,Schenectady County,NY,USA,2,,,,42.834184,-74.0573495,https://www.health.ny.gov/diseases/communicable/coronavirus/,2,630,155350
,Suffolk County,NY,USA,47,,,,40.9499955,-72.6766375,https://www.health.ny.gov/diseases/communicable/coronavirus/,47,631,1481093
,Tioga County,NY,USA,1,,,,42.2043415,-76.322135,https://www.health.ny.gov/diseases/communicable/coronavirus/,1,632,48560
,Tompkins County,NY,USA,1,,,,42.445197500000006,-76.4683765,https://www.health.ny.gov/diseases/communicable/coronavirus/,1,633,102793
,Ulster County,NY,USA,5,,,,41.878800999999996,-74.345684,https://www.health.ny.gov/diseases/communicable/coronavirus/,5,634,178599
,Westchester County,NY,USA,196,,,,41.122837000000004,-73.7326465,https://www.health.ny.gov/diseases/communicable/coronavirus/,196,635,967612
,New York County,NY,USA,329,,,,40.7808115,-73.9771565,https://www.health.ny.gov/diseases/communicable/coronavirus/,329,636,1628701
,,NY,USA,729,,,,-3.095310059778787,10.953043415920217,https://www.health.ny.gov/diseases/communicable/coronavirus/,729,637,19453561
,Clark County,WA,USA,3,0,,,45.80125099999999,-122.5203415,https://www.doh.wa.gov/Emergencies/Coronavirus,3,638,481857
,Columbia County,WA,USA,1,0,,,46.3118295,-117.92289099999999,https://www.doh.wa.gov/Emergencies/Coronavirus,1,639,4059
,Grant County,WA,USA,2,1,,,47.293631,-119.508134,https://www.doh.wa.gov/Emergencies/Coronavirus,1,640,97331
,Grays Harbor County,WA,USA,1,0,,,47.162482,-123.756045,https://www.doh.wa.gov/Emergencies/Coronavirus,1,641,73901
,Island County,WA,USA,6,0,,,48.157794,-122.559821,https://www.doh.wa.gov/Emergencies/Coronavirus,6,642,84460
,Jefferson County,WA,USA,3,0,,,47.8304245,-123.61055200000001,https://www.doh.wa.gov/Emergencies/Coronavirus,3,643,31729
,King County,WA,USA,420,37,,,47.4324805,-121.7969185,https://www.doh.wa.gov/Emergencies/Coronavirus,383,644,2233163
,Kitsap County,WA,USA,3,0,,,47.6719585,-122.7433825,https://www.doh.wa.gov/Emergencies/Coronavirus,3,645,269805
,Kittitas County,WA,USA,3,0,,,47.167153,-120.688514,https://www.doh.wa.gov/Emergencies/Coronavirus,3,646,47364
,Lincoln County,WA,USA,1,0,,,47.609032,-118.399462,https://www.doh.wa.gov/Emergencies/Coronavirus,1,647,10740
,Pierce County,WA,USA,29,0,,,47.066154,-122.10319799999999,https://www.doh.wa.gov/Emergencies/Coronavirus,29,648,891299
,Skagit County,WA,USA,4,0,,,48.476543,-121.712645,https://www.doh.wa.gov/Emergencies/Coronavirus,4,649,128206
,Snohomish County,WA,USA,176,4,,,48.037258,-121.65598399999999,https://www.doh.wa.gov/Emergencies/Coronavirus,172,650,814901
,Spokane County,WA,USA,3,0,,,47.653568500000006,-117.431769,https://www.doh.wa.gov/Emergencies/Coronavirus,3,651,514631
,Thurston County,WA,USA,3,0,,,46.9761355,-122.7023935,https://www.doh.wa.gov/Emergencies/Coronavirus,3,652,286419
,Whatcom County,WA,USA,3,0,,,48.821715499999996,-121.884438,https://www.doh.wa.gov/Emergencies/Coronavirus,3,653,225685
,Yakima County,WA,USA,4,0,,,46.564808,-120.69510149999999,https://www.doh.wa.gov/Emergencies/Coronavirus,4,654,251446
,,WA,USA,769,42,,,37.87138458300004,45.68986573358319,https://www.doh.wa.gov/Emergencies/Coronavirus,727,655,7614893
,San Francisco County,CA,USA,37,0,,,37.7901875,-122.4356335,https://www.sfdph.org/dph/alerts/coronavirus.asp,37,656,883305
,San Mateo County,CA,USA,31,1,,,37.407824500000004,-122.30050299999999,https://www.smchealth.org/coronavirus,30,657,769545
,Alameda County,CA,USA,0,0,,,37.6801065,-121.9024445,http://www.acphd.org/2019-ncov.aspx,0,658,1666753
,Sonoma County,CA,USA,5,,,,38.4810965,-122.946388,https://socoemergency.org/emergency/novel-coronavirus/novel-coronavirus-in-sonoma-county/,5,659,499942
,Santa Cruz County,CA,USA,7,,,,37.0683515,-121.94941800000001,http://www.santacruzhealth.org/HSAHome/HSADivisions/PublicHealth/CommunicableDiseaseControl/Coronavirus.aspx,7,660,274255
,Santa Clara County,CA,USA,114,2,,,37.190824000000006,-121.70515,https://www.sccgov.org/sites/phd/DiseaseInformation/novel-coronavirus/Pages/home.aspx,112,661,1937570
,Solano County,CA,USA,7,,,,38.2871145,-122.0001255,http://www.solanocounty.com/depts/ph/coronavirus.asp,7,662,446610
,Contra Costa County,CA,USA,29,0,,,37.9092535,-121.983341,https://www.coronavirus.cchealth.org/,29,663,1150215
,Stanislaus County,CA,USA,2,,,,37.606097500000004,-120.937052,http://www.schsa.org/PublicHealth/pages/corona-virus/,2,664,549815
,Yolo County,CA,USA,2,,,,38.619189,-121.962515,https://www.yolocounty.org/health-human-services/adults/communicable-disease-investigation-and-control/novel-coronavirus-2019,2,665,220408
,Sacramento County,CA,USA,32,1,,,38.377659,-121.444773,https://www.saccounty.net/COVID-19/Pages/default.aspx,31,666,1540975
,Fresno County,CA,USA,2,0,,,36.7464615,-119.6396585,https://www.co.fresno.ca.us/departments/public-health/covid-19,2,667,994400
,Madera County,CA,USA,1,,,,37.273546499999995,-119.7828125,https://www.maderacounty.com/government/public-health/health-updates/corona-virus,1,668,157672
,Placer County,CA,USA,8,1,,,39.0142165,-120.7434505,https://www.placer.ca.gov/6448/Cases-in-Placer,7,669,393149
,Shasta County,CA,USA,1,,,,40.7359105,-122.192699,https://www.co.shasta.ca.us/index/hhsa/health-safety/current-heath-concerns/coronavirus,1,670,180040
,Los Angeles County,CA,USA,69,1,,,33.8115605,-118.29563049999999,http://www.publichealth.lacounty.gov/media/Coronavirus/,68,671,10105518
,San Bernardino County,CA,USA,1,,,,34.840230000000005,-115.96848299999999,http://wp.sbcounty.gov/dph/coronavirus/,1,672,2171603
,San Joaquin County,CA,USA,8,,,,37.891017500000004,-121.2534915,http://www.sjcphs.org/coronavirus.aspx#res,8,673,752660
,Merced County,CA,USA,0,0,0,,37.1868725,-120.649022,https://www.co.merced.ca.us/3350/Coronavirus-Disease-2019,0,674,274765
,Marin County,CA,USA,5,,,,38.071675,-122.731167,https://coronavirus.marinhhs.org/surveillance,5,675,259666
,Butte County,CA,USA,0,,,,39.723763,-121.57306299999999,https://www.buttecounty.net/publichealth,0,676,231256
,Kings County,CA,USA,0,,,,36.139044999999996,-119.8948375,https://www.countyofkings.com/departments/health-welfare/public-health/coronavirus-disease-2019-covid-19/-fsiteid-1,0,677,151366
,Mendocino County,CA,USA,0,,,,39.380249,-123.422765,https://www.mendocinocounty.org/community/novel-coronavirus,0,678,87606
,Orange County,CA,USA,17,0,,,33.66652,-117.76484500000001,http://www.ochealthinfo.com/phs/about/epidasmt/epi/dip/prevention/novel_coronavirus,17,679,3185968
,Riverside County,CA,USA,1,,,,33.752829500000004,-116.05561750000001,https://www.rivcoph.org/coronavirus,1,680,2450758
,San Diego County,CA,USA,0,,,0,33.01959050000001,-116.83848499999999,https://www.sandiegocounty.gov/content/sdc/hhsa/programs/phs/community_epidemiology/dc/2019-nCoV/status.html,0,681,3343364
,Ventura County,CA,USA,5,,,149,34.058353,-119.1057185,https://www.ventura.org/covid19/,5,682,850967
,Dane County,WI,USA,6,,,,43.069541,-89.4235435,https://www.dhs.wisconsin.gov/outbreaks/index.htm,6,683,542364
,Fond du Lac County,WI,USA,11,,,,43.7405715,-88.5234625,https://www.dhs.wisconsin.gov/outbreaks/index.htm,11,684,103066
,Milwaukee County,WI,USA,7,,,,43.017386,-87.94847250000001,https://www.dhs.wisconsin.gov/outbreaks/index.htm,7,685,948201
,Pierce County,WI,USA,1,,,,44.7007885,-92.47159500000001,https://www.dhs.wisconsin.gov/outbreaks/index.htm,1,686,42555
,Racine County,WI,USA,1,,,,42.72707,-88.0365295,https://www.dhs.wisconsin.gov/outbreaks/index.htm,1,687,196584
,Sheboygan County,WI,USA,3,,,,43.7172725,-87.9311795,https://www.dhs.wisconsin.gov/outbreaks/index.htm,3,688,115456
,Waukesha County,WI,USA,3,,,,43.018702,-88.30268950000001,https://www.dhs.wisconsin.gov/outbreaks/index.htm,3,689,403072
,Winnebago County,WI,USA,1,,,,44.0685395,-88.644934,https://www.dhs.wisconsin.gov/outbreaks/index.htm,1,690,171020
,Beadle County,SD,USA,1,,,,44.414696,-98.279395,https://doh.sd.gov/news/Coronavirus.aspx#SD,1,691,18883
,Bon Homme County,SD,USA,1,,,,42.965534500000004,-97.899183,https://doh.sd.gov/news/Coronavirus.aspx#SD,1,692,6980
,Charles Mix County,SD,USA,1,,,,43.1683905,-98.6895585,https://doh.sd.gov/news/Coronavirus.aspx#SD,1,693,9338
,Davison County,SD,USA,1,,,,43.6746775,-98.145127,https://doh.sd.gov/news/Coronavirus.aspx#SD,1,694,19790
,McCook County,SD,USA,1,,,,43.674370999999994,-97.368803,https://doh.sd.gov/news/Coronavirus.aspx#SD,1,695,5546
,Minnehaha County,SD,USA,3,,,,43.674592,-96.7912635,https://doh.sd.gov/news/Coronavirus.aspx#SD,3,696,192876
,Pennington County,SD,USA,1,,,,44.098381,-103.02822599999999,https://doh.sd.gov/news/Coronavirus.aspx#SD,1,697,111729
,Bear River County,UT,USA,0,,,,,,https://coronavirus.utah.gov/latest/,0,,
,Central Utah County,UT,USA,0,,,,,,https://coronavirus.utah.gov/latest/,0,,
,Davis County,UT,USA,0,,,,40.963095499999994,-112.115984,https://coronavirus.utah.gov/latest/,0,698,351713
,Salt Lake County,UT,USA,0,,,,40.66808399999999,-111.9083075,https://coronavirus.utah.gov/latest/,0,699,1152633
,San Juan County,UT,USA,0,,,,37.748977499999995,-110.226921,https://coronavirus.utah.gov/latest/,0,700,15449
,Southeast Utah County,UT,USA,0,,,,,,https://coronavirus.utah.gov/latest/,0,,
,Southwest Utah County,UT,USA,0,,,,,,https://coronavirus.utah.gov/latest/,0,,
,Summit County,UT,USA,6,,,,40.9000835,-110.82489050000001,https://coronavirus.utah.gov/latest/,6,701,41933
,Tooele County,UT,USA,0,,,,40.490421,-113.09571600000001,https://coronavirus.utah.gov/latest/,0,702,69907
,Tri County,UT,USA,0,,,,,,https://coronavirus.utah.gov/latest/,0,,
,Utah County,UT,USA,1,,,,40.176925999999995,-111.5347685,https://coronavirus.utah.gov/latest/,1,703,622213
,Wasatch County,UT,USA,0,,,,40.294765,-111.25642,https://coronavirus.utah.gov/latest/,0,704,33240
,Weber-Morgan County,UT,USA,0,,,,,,https://coronavirus.utah.gov/latest/,0,,
,Allegheny County,PA,USA,3,,,,40.434321,-80.02482499999999,https://www.health.pa.gov/topics/disease/Pages/Coronavirus.aspx,3,705,1218452
,Bucks County,PA,USA,4,,,,40.3287395,-75.1027805,https://www.health.pa.gov/topics/disease/Pages/Coronavirus.aspx,4,706,628195
,Chester County,PA,USA,2,,,,39.9833405,-75.748325,https://www.health.pa.gov/topics/disease/Pages/Coronavirus.aspx,2,707,522046
,Cumberland County,PA,USA,5,,,,40.1362805,-77.2432875,https://www.health.pa.gov/topics/disease/Pages/Coronavirus.aspx,5,708,251423
,Delaware County,PA,USA,7,,,,39.9336645,-75.404395,https://www.health.pa.gov/topics/disease/Pages/Coronavirus.aspx,7,709,564751
,Lehigh County,PA,USA,1,,,,40.602919,-75.6124935,https://www.health.pa.gov/topics/disease/Pages/Coronavirus.aspx,1,710,368100
,Luzerne County,PA,USA,1,,,,41.164615999999995,-75.95966200000001,https://www.health.pa.gov/topics/disease/Pages/Coronavirus.aspx,1,711,317646
,Monroe County,PA,USA,6,,,,41.0334235,-75.308198,https://www.health.pa.gov/topics/disease/Pages/Coronavirus.aspx,6,712,169507
,Montgomery County,PA,USA,24,,,,40.211977000000005,-75.355924,https://www.health.pa.gov/topics/disease/Pages/Coronavirus.aspx,24,713,828604
,Northampton County,PA,USA,1,,,,40.752713,-75.32991200000001,https://www.health.pa.gov/topics/disease/Pages/Coronavirus.aspx,1,714,304807
,Philadelphia County,PA,USA,6,,,,40.0018505,-75.116323,https://www.health.pa.gov/topics/disease/Pages/Coronavirus.aspx,6,715,1584138
,Pike County,PA,USA,1,,,,41.340779,-75.02435,https://www.health.pa.gov/topics/disease/Pages/Coronavirus.aspx,1,716,55933
,Washington County,PA,USA,1,,,,40.2152165,-80.1791085,https://www.health.pa.gov/topics/disease/Pages/Coronavirus.aspx,1,717,207346
,Wayne County,PA,USA,1,,,,41.615992000000006,-75.2745845,https://www.health.pa.gov/topics/disease/Pages/Coronavirus.aspx,1,718,51276
,Campbell County,TN,USA,1,,,,36.3848795,-84.138375,https://www.tn.gov/health/cedep/ncov.html,1,719,39583
,Davidson County,TN,USA,17,,,,36.186859999999996,-86.7851325,https://www.tn.gov/health/cedep/ncov.html,17,720,692587
,Hamilton County,TN,USA,1,,,,35.2208105,-85.20821749999999,https://www.tn.gov/health/cedep/ncov.html,1,721,364286
,Jefferson County,TN,USA,1,,,,36.039116,-83.47225449999999,https://www.tn.gov/health/cedep/ncov.html,1,722,54012
,Knox County,TN,USA,1,,,,35.9910705,-83.96127200000001,https://www.tn.gov/health/cedep/ncov.html,1,723,465289
,Rutherford County,TN,USA,1,,,,35.8595905,-86.4205235,https://www.tn.gov/health/cedep/ncov.html,1,724,324890
,Shelby County,TN,USA,2,,,,35.2013885,-89.97153700000001,https://www.tn.gov/health/cedep/ncov.html,2,725,935764
,Sullivan County,TN,USA,1,,,,36.5043,-82.2645105,https://www.tn.gov/health/cedep/ncov.html,1,726,157668
,Williamson County,TN,USA,14,,,,35.875785500000006,-86.90776349999999,https://www.tn.gov/health/cedep/ncov.html,14,727,231729
,Belmont County,OH,USA,2,,,,40.011337999999995,-80.970149,https://odh.ohio.gov/wps/portal/gov/odh/know-our-programs/Novel-Coronavirus/welcome/,2,728,67505
