name,level,city,county,state,country,cases,deaths,recovered,tested,active,population,populationDensity,lat,long,url,aggregate,rating,tz,featureId,countryId,stateId,countyId,hospitalized,publishedDate
American Samoa,country,,,,American Samoa,0,0,,,,55689,0.31735676363567195,-12.8,-169.6165,https://github.com/CSSEGISandData/COVID-19,county,0.47058823529411764,Etc/GMT+11,iso1:AS,iso1:AS,,,,
Guam,country,,,,Guam,113,4,,,,167772,0.3129536655195383,13.445,144.7905,https://github.com/CSSEGISandData/COVID-19,county,0.47058823529411764,Pacific/Guam,iso1:GU,iso1:GU,,,,
Northern Mariana Islands,country,,,,Northern Mariana Islands,6,1,,,,55144,0.12934926555592155,17.326,145.469,https://github.com/CSSEGISandData/COVID-19,county,0.47058823529411764,Etc/GMT-10,iso1:MP,iso1:MP,,,,
United States Virgin Islands,country,,,,United States Virgin Islands,43,1,,,,104901,0.3205555600938774,18.047,-64.834,https://github.com/CSSEGISandData/COVID-19,county,0.47058823529411764,America/St_Thomas,iso1:VI,iso1:VI,,,,
"Aleutians East Borough, Alaska, United States",county,,Aleutians East Borough,Alaska,United States,0,0,,,,3337,0.00017414238690254848,55.403239,-162.5453310518975,https://github.com/CSSEGISandData/COVID-19,county,0.5882352941176471,America/Nome,fips:02013,iso1:US,iso2:US-AK,fips:02013,,
"Aleutians West Census Area, Alaska, United States",county,,Aleutians West Census Area,Alaska,United States,0,0,,,,5634,0.0004538000812138815,54.224759,0.31556500000000653,https://github.com/CSSEGISandData/COVID-19,county,0.5882352941176471,Etc/GMT,fips:02016,iso1:US,iso2:US-AK,fips:02016,,
"Bethel Census Area, Alaska, United States",county,,Bethel Census Area,Alaska,United States,0,0,,,,18386,0.0001677096877976478,60.422242999999995,-163.057704,https://github.com/CSSEGISandData/COVID-19,county,0.5882352941176471,America/Nome,fips:02050,iso1:US,iso2:US-AK,fips:02050,,
"Bristol Bay Borough, Alaska, United States",county,,Bristol Bay Borough,Alaska,United States,0,0,,,,836,0.0006315548003042,58.75125008756325,-156.78566558379651,https://github.com/CSSEGISandData/COVID-19,county,0.5882352941176471,America/Anchorage,fips:02060,iso1:US,iso2:US-AK,fips:02060,,
"Denali Borough, Alaska, United States",county,,Denali Borough,Alaska,United States,0,0,,,,2097,0.00006420637874541803,63.542024,-149.99877800000002,https://github.com/CSSEGISandData/COVID-19,county,0.5882352941176471,America/Anchorage,fips:02068,iso1:US,iso2:US-AK,fips:02068,,
"Dillingham Census Area, Alaska, United States",county,,Dillingham Census Area,Alaska,United States,0,0,,,,4916,0.00010020339952128238,59.691452,-158.6825675,https://github.com/CSSEGISandData/COVID-19,county,0.5882352941176471,America/Anchorage,fips:02070,iso1:US,iso2:US-AK,fips:02070,,
"Haines Borough, Alaska, United States",county,,Haines Borough,Alaska,United States,0,0,,,,2530,0.0004064850324701586,58.9599517315778,-135.408613520411,https://github.com/CSSEGISandData/COVID-19,county,0.5882352941176471,America/Juneau,fips:02100,iso1:US,iso2:US-AK,fips:02100,,
"Hoonah-Angoon Census Area, Alaska, United States",county,,Hoonah-Angoon Census Area,Alaska,United States,0,0,,,,2148,0.00011850295430343513,58.217178499999996,-135.297381,https://github.com/CSSEGISandData/COVID-19,county,0.5882352941176471,America/Juneau,fips:02105,iso1:US,iso2:US-AK,fips:02105,,
"Kodiak Island Borough, Alaska, United States",county,,Kodiak Island Borough,Alaska,United States,0,0,,,,12998,0.0007021791039345069,57.3618905,-154.29755699999998,https://github.com/CSSEGISandData/COVID-19,county,0.5882352941176471,America/Anchorage,fips:02150,iso1:US,iso2:US-AK,fips:02150,,
"Kusilvak Census Area, Alaska, United States",county,,Kusilvak Census Area,Alaska,United States,0,0,,,,8314,0.00017773769057478878,62.09682517393679,-163.18514249999998,https://github.com/CSSEGISandData/COVID-19,county,0.5882352941176471,America/Nome,fips:02158,iso1:US,iso2:US-AK,fips:02158,,
"Lake and Peninsula Borough, Alaska, United States",county,,Lake and Peninsula Borough,Alaska,United States,0,0,,,,1592,0.000023180978398216,58.2723395,-156.6487125,https://github.com/CSSEGISandData/COVID-19,county,0.5882352941176471,America/Anchorage,fips:02164,iso1:US,iso2:US-AK,fips:02164,,
"Nome Census Area, Alaska, United States",county,,Nome Census Area,Alaska,United States,0,0,,,,10004,0.0001631526677625897,64.75931849999999,-165.6136745,https://github.com/CSSEGISandData/COVID-19,county,0.5882352941176471,America/Nome,fips:02180,iso1:US,iso2:US-AK,fips:02180,,
"North Slope Borough, Alaska, United States",county,,North Slope Borough,Alaska,United States,0,0,,,,9832,0.00004223607211742887,69.6762745,-153.9208205,https://github.com/CSSEGISandData/COVID-19,county,0.5882352941176471,America/Anchorage,fips:02185,iso1:US,iso2:US-AK,fips:02185,,
"Northwest Arctic Borough, Alaska, United States",county,,Northwest Arctic Borough,Alaska,United States,0,0,,,,7621,0.00008034723240490428,66.865861,-159.76639555015652,https://github.com/CSSEGISandData/COVID-19,county,0.5882352941176471,America/Anchorage,fips:02188,iso1:US,iso2:US-AK,fips:02188,,
"Prince of Wales-Hyder Census Area, Alaska, United States",county,,Prince of Wales-Hyder Census Area,Alaska,United States,0,0,,,,6203,0.00038806608566973667,55.883404,-132.3350765,https://github.com/CSSEGISandData/COVID-19,county,0.5882352941176471,America/Sitka,fips:02198,iso1:US,iso2:US-AK,fips:02198,,
"Sitka City and Borough, Alaska, United States",county,,Sitka City and Borough,Alaska,United States,0,0,,,,8493,0.000989948287542474,57.084134,-135.493847299929,https://github.com/CSSEGISandData/COVID-19,county,0.5882352941176471,America/Sitka,fips:02220,iso1:US,iso2:US-AK,fips:02220,,
"Skagway Municipality, Alaska, United States",county,,Skagway Municipality,Alaska,United States,0,0,,,,1183,0.001025413952739242,59.572194499999995,-135.3535154014475,https://github.com/CSSEGISandData/COVID-19,county,0.5882352941176471,America/Juneau,fips:02230,iso1:US,iso2:US-AK,fips:02230,,
"Valdez-Cordova Census Area, Alaska, United States",county,,Valdez-Cordova Census Area,Alaska,United States,0,0,,,,9202,0.00010023149468345809,61.490837,-144.8716865,https://github.com/CSSEGISandData/COVID-19,county,0.5882352941176471,America/Anchorage,fips:02261,iso1:US,iso2:US-AK,fips:02261,,
"Wrangell City and Borough, Alaska, United States",county,,Wrangell City and Borough,Alaska,United States,0,0,,,,2502,0.00034788940993872586,56.26856934043104,-132.0350185,https://github.com/CSSEGISandData/COVID-19,county,0.5882352941176471,America/Sitka,fips:02275,iso1:US,iso2:US-AK,fips:02275,,
"Yakutat City and Borough, Alaska, United States",county,,Yakutat City and Borough,Alaska,United States,0,0,,,,579,0.00002819302219732171,59.66555898581555,-140.696663,https://github.com/CSSEGISandData/COVID-19,county,0.5882352941176471,America/Yakutat,fips:02282,iso1:US,iso2:US-AK,fips:02282,,
"Churchill County, Nevada, United States",county,,Churchill County,Nevada,United States,0,0,,,,24909,0.0019147936200278998,39.537344,-118.34398949999999,https://github.com/CSSEGISandData/COVID-19,county,0.5882352941176471,America/Los_Angeles,fips:32001,iso1:US,iso2:US-NV,fips:32001,,
"Esmeralda County, Nevada, United States",county,,Esmeralda County,Nevada,United States,0,0,,,,873,0.00009377985909458411,37.72251048219175,-117.796282681924,https://github.com/CSSEGISandData/COVID-19,county,0.5882352941176471,America/Los_Angeles,fips:32009,iso1:US,iso2:US-NV,fips:32009,,
"Eureka County, Nevada, United States",county,,Eureka County,Nevada,United States,0,0,,,,2029,0.00018692114998393146,40.080813,-116.19790549999999,https://github.com/CSSEGISandData/COVID-19,county,0.5882352941176471,America/Los_Angeles,fips:32011,iso1:US,iso2:US-NV,fips:32011,,
"Lander County, Nevada, United States",county,,Lander County,Nevada,United States,0,0,,,,5532,0.00038670883415892215,40.04691149999999,-117.194163,https://github.com/CSSEGISandData/COVID-19,county,0.5882352941176471,America/Los_Angeles,fips:32015,iso1:US,iso2:US-NV,fips:32015,,
"Lincoln County, Nevada, United States",county,,Lincoln County,Nevada,United States,0,0,,,,5183,0.00018787577315313974,37.759757,-114.972699,https://github.com/CSSEGISandData/COVID-19,county,0.5882352941176471,America/Los_Angeles,fips:32017,iso1:US,iso2:US-NV,fips:32017,,
"Mineral County, Nevada, United States",county,,Mineral County,Nevada,United States,0,0,,,,4505,0.0004552077300882395,38.4841675,-118.42400187688301,https://github.com/CSSEGISandData/COVID-19,county,0.5882352941176471,America/Los_Angeles,fips:32021,iso1:US,iso2:US-NV,fips:32021,,
"Pershing County, Nevada, United States",county,,Pershing County,Nevada,United States,0,0,,,,6725,0.0004274813842746939,40.4797295,-118.3196335,https://github.com/CSSEGISandData/COVID-19,county,0.5882352941176471,America/Los_Angeles,fips:32027,iso1:US,iso2:US-NV,fips:32027,,
"White Pine County, Nevada, United States",county,,White Pine County,Nevada,United States,1,0,,,,9580,0.000414998835066302,39.402609999999996,-114.977001,https://github.com/CSSEGISandData/COVID-19,county,0.5882352941176471,America/Los_Angeles,fips:32033,iso1:US,iso2:US-NV,fips:32033,,
"Beaver County, Utah, United States",county,,Beaver County,Utah,United States,0,0,,,,6710,0.0010008434270021137,38.360196729150445,-113.192933,https://github.com/CSSEGISandData/COVID-19,county,0.5882352941176471,America/Denver,fips:49001,iso1:US,iso2:US-UT,fips:49001,,
"Daggett County, Utah, United States",county,,Daggett County,Utah,United States,0,0,,,,950,0.0005082785751715217,40.832222,-109.5245419871205,https://github.com/CSSEGISandData/COVID-19,county,0.5882352941176471,America/Denver,fips:49009,iso1:US,iso2:US-UT,fips:49009,,
"Piute County, Utah, United States",county,,Piute County,Utah,United States,0,0,,,,1479,0.0007428007908869568,38.328869499999996,-112.1429575,https://github.com/CSSEGISandData/COVID-19,county,0.5882352941176471,America/Denver,fips:49031,iso1:US,iso2:US-UT,fips:49031,,
"Rich County, Utah, United States",county,,Rich County,Utah,United States,0,0,,,,2483,0.0008812182773711023,41.572224,-111.2787905,https://github.com/CSSEGISandData/COVID-19,county,0.5882352941176471,America/Denver,fips:49033,iso1:US,iso2:US-UT,fips:49033,,
"Sanpete County, Utah, United States",county,,Sanpete County,Utah,United States,0,0,,,,30939,0.007450144599539261,39.422646,-111.631697,https://github.com/CSSEGISandData/COVID-19,county,0.5882352941176471,America/Denver,fips:49039,iso1:US,iso2:US-UT,fips:49039,,
"Sevier County, Utah, United States",county,,Sevier County,Utah,United States,0,0,,,,21620,0.004342001363448807,38.773833499999995,-111.910367,https://github.com/CSSEGISandData/COVID-19,county,0.5882352941176471,America/Denver,fips:49041,iso1:US,iso2:US-UT,fips:49041,,
"Wayne County, Utah, United States",county,,Wayne County,Utah,United States,0,0,,,,2711,0.00042378176334442323,38.330128,-110.86695549999999,https://github.com/CSSEGISandData/COVID-19,county,0.5882352941176471,America/Denver,fips:49055,iso1:US,iso2:US-UT,fips:49055,,
"Essex County, Vermont, United States",county,,Essex County,Vermont,United States,0,0,,,,6163,0.003530731859542543,44.6806911178554,-71.71967849999999,https://github.com/CSSEGISandData/COVID-19,county,0.5882352941176471,America/New_York,fips:50009,iso1:US,iso2:US-VT,fips:50009,,
"Grand Isle County, Vermont, United States",county,,Grand Isle County,Vermont,United States,0,0,,,,7235,0.014303588078497987,44.7885695424674,-73.29107955019444,https://github.com/CSSEGISandData/COVID-19,county,0.5882352941176471,America/New_York,fips:50013,iso1:US,iso2:US-VT,fips:50013,,
Afghanistan,country,,,,Afghanistan,367,11,18,,338,34940837,0.05430701721679973,33.934,67.70400000000001,https://github.com/CSSEGISandData/COVID-19,country,0.5490196078431373,Asia/Kabul,iso1:AF,iso1:AF,,,,
Albania,country,,,,Albania,377,21,116,,240,2873457,0.10088565727088371,41.1555,20.1605,https://github.com/CSSEGISandData/COVID-19,country,0.5490196078431373,Europe/Tirane,iso1:AL,iso1:AL,,,,
Algeria,country,,,,Algeria,1423,173,90,,1160,41318142,0.01781994729288031,28.03,1.6639999999999997,https://github.com/CSSEGISandData/COVID-19,country,0.5490196078431373,Africa/Algiers,iso1:DZ,iso1:DZ,,,,
Andorra,country,,,,Andorra,525,21,31,,473,76177,0.1679404193145347,42.545,1.601,https://github.com/CSSEGISandData/COVID-19,country,0.5490196078431373,Europe/Andorra,iso1:AD,iso1:AD,,,,
Angola,country,,,,Angola,16,2,2,,12,29784193,0.02373310439046137,-11.2135,17.8785,https://github.com/CSSEGISandData/COVID-19,country,0.5490196078431373,Africa/Luanda,iso1:AO,iso1:AO,,,,
Antigua and Barbuda,country,,,,Antigua and Barbuda,15,0,0,,15,102012,0.25915478421001936,17.333,-62.0095,https://github.com/CSSEGISandData/COVID-19,country,0.5490196078431373,Etc/GMT+4,iso1:AG,iso1:AG,,,,
Argentina,country,,,,Argentina,1554,48,325,,1181,44938712,0.016129350177191103,-38.4275,-63.599500000000006,https://github.com/CSSEGISandData/COVID-19,country,0.5490196078431373,America/Argentina/Salta,iso1:AR,iso1:AR,,,,
Armenia,country,,,,Armenia,833,8,62,,763,2930450,0.09850772315644862,40.070499999999996,45.040000000000006,https://github.com/CSSEGISandData/COVID-19,country,0.5490196078431373,Asia/Yerevan,iso1:AM,iso1:AM,,,,
Austria,country,,,,Austria,12297,220,3463,,8614,8809212,0.10506376002852438,47.696,13.346,https://github.com/CSSEGISandData/COVID-19,country,0.5490196078431373,Europe/Vienna,iso1:AT,iso1:AT,,,,
Azerbaijan,country,,,,Azerbaijan,641,7,44,,590,10000000,0.11628490435125896,40.1505,47.810500000000005,https://github.com/CSSEGISandData/COVID-19,country,0.5490196078431373,Asia/Baku,iso1:AZ,iso1:AZ,,,,
The Bahamas,country,,,,The Bahamas,29,5,4,,20,395361,0.035264746228610776,24.0925,-76.5975,https://github.com/CSSEGISandData/COVID-19,country,0.5490196078431373,America/Nassau,iso1:BS,iso1:BS,,,,
Bahrain,country,,,,Bahrain,756,4,458,,294,1492584,2.0201605995761507,26.029,50.6055,https://github.com/CSSEGISandData/COVID-19,country,0.5490196078431373,Asia/Bahrain,iso1:BH,iso1:BH,,,,
Bangladesh,country,,,,Bangladesh,123,12,33,,78,164669751,1.1647898601501112,23.6125,90.344,https://github.com/CSSEGISandData/COVID-19,country,0.5490196078431373,Asia/Dhaka,iso1:BD,iso1:BD,,,,
Barbados,country,,,,Barbados,60,2,6,,52,285719,0.6630664877939862,13.1935,-59.5355,https://github.com/CSSEGISandData/COVID-19,country,0.5490196078431373,America/Barbados,iso1:BB,iso1:BB,,,,
Belarus,country,,,,Belarus,700,13,53,,634,9504700,0.04588305667504291,53.716499999999996,27.9675,https://github.com/CSSEGISandData/COVID-19,country,0.5490196078431373,Europe/Minsk,iso1:BY,iso1:BY,,,,
Belgium,country,,,,Belgium,20814,1632,3986,,15196,11431406,0.37359983756233295,50.501000000000005,4.475,https://github.com/CSSEGISandData/COVID-19,country,0.5490196078431373,Europe/Brussels,iso1:BE,iso1:BE,,,,
Benin,country,,,,Benin,26,1,5,,20,11175692,0.09634666444093794,9.321,2.311,https://github.com/CSSEGISandData/COVID-19,country,0.5490196078431373,Africa/Porto-Novo,iso1:BJ,iso1:BJ,,,,
Bhutan,country,,,,Bhutan,5,0,2,,3,807610,0.021079060306233667,27.4745,90.4335,https://github.com/CSSEGISandData/COVID-19,country,0.5490196078431373,Asia/Thimphu,iso1:BT,iso1:BT,,,,
Bolivia,country,,,,Bolivia,183,11,2,,170,11051600,0.010169992777500974,-16.2835,-63.5475,https://github.com/CSSEGISandData/COVID-19,country,0.5490196078431373,America/La_Paz,iso1:BO,iso1:BO,,,,
Bosnia and Herzegovina,country,,,,Bosnia and Herzegovina,674,29,47,,598,3507017,0.06850084679701428,43.916,17.673499999999997,https://github.com/CSSEGISandData/COVID-19,country,0.5490196078431373,Europe/Sarajevo,iso1:BA,iso1:BA,,,,
Brunei,country,,,,Brunei,135,1,82,,52,428697,0.07267090533338622,4.5245,114.7195,https://github.com/CSSEGISandData/COVID-19,country,0.5490196078431373,Asia/Brunei,iso1:BN,iso1:BN,,,,
Bulgaria,country,,,,Bulgaria,549,22,39,,488,7000039,0.06301979598928074,42.726,25.4825,https://github.com/CSSEGISandData/COVID-19,country,0.5490196078431373,Europe/Sofia,iso1:BG,iso1:BG,,,,
Burkina Faso,country,,,,Burkina Faso,364,18,108,,238,19193382,0.06999292516080118,12.248000000000001,-1.552,https://github.com/CSSEGISandData/COVID-19,country,0.5490196078431373,Africa/Ouagadougou,iso1:BF,iso1:BF,,,,
Cape Verde,country,,,,Cape Verde,7,1,1,,5,546388,0.13274894683534766,15.999,-24.0135,https://github.com/CSSEGISandData/COVID-19,country,0.5490196078431373,Atlantic/Cape_Verde,iso1:CV,iso1:CV,,,,
Cambodia,country,,,,Cambodia,114,0,53,,61,16005373,0.08758197641980048,12.307500000000001,104.981,https://github.com/CSSEGISandData/COVID-19,country,0.5490196078431373,Asia/Phnom_Penh,iso1:KH,iso1:KH,,,,
Cameroon,country,,,,Cameroon,658,9,17,,632,24053727,0.05125140552780306,7.366,12.3445,https://github.com/CSSEGISandData/COVID-19,country,0.5490196078431373,Africa/Douala,iso1:CM,iso1:CM,,,,
Central African Republic,country,,,,Central African Republic,8,0,0,,8,4659080,0.0074929428490355535,6.603,20.941000000000003,https://github.com/CSSEGISandData/COVID-19,country,0.5490196078431373,Africa/Bangui,iso1:CF,iso1:CF,,,,
Chad,country,,,,Chad,9,0,0,,9,15477751,0.012081135319983905,15.4695,18.7365,https://github.com/CSSEGISandData/COVID-19,country,0.5490196078431373,Africa/Ndjamena,iso1:TD,iso1:TD,,,,
Chile,country,,,,Chile,4815,37,728,,4050,18054726,0.023942950082562076,-37.018,-87.938,https://github.com/CSSEGISandData/COVID-19,country,0.5490196078431373,Etc/GMT+6,iso1:CL,iso1:CL,,,,
"Anhui, China",state,,,Anhui,China,990,6,984,,0,60300000,0.4289133444655761,32.0255,117.25649999999999,https://github.com/CSSEGISandData/COVID-19,state,0.5882352941176471,Asia/Shanghai,iso2:CN-AH,iso1:CN,iso2:CN-AH,,,
"Beijing, China",state,,,Beijing,China,587,8,443,,136,21710000,1.3220897839665988,40.247,116.464,https://github.com/CSSEGISandData/COVID-19,state,0.5882352941176471,Asia/Shanghai,iso2:CN-BJ,iso1:CN,iso2:CN-BJ,,,
"Chongqing, China",state,,,Chongqing,China,579,6,570,,3,7990000,0.09670765870389965,30.183,107.7425,https://github.com/CSSEGISandData/COVID-19,state,0.5882352941176471,Asia/Shanghai,iso2:CN-CQ,iso1:CN,iso2:CN-CQ,,,
"Fujian, China",state,,,Fujian,China,350,1,305,,44,36894216,0.3004818395569461,25.924500000000002,118.2875,https://github.com/CSSEGISandData/COVID-19,state,0.5882352941176471,Asia/Shanghai,iso2:CN-FJ,iso1:CN,iso2:CN-FJ,,,
"Gansu, China",state,,,Gansu,China,139,2,132,,5,25575254,0.06000918501028431,37.6965,100.525,https://github.com/CSSEGISandData/COVID-19,state,0.5882352941176471,Asia/Shanghai,iso2:CN-GS,iso1:CN,iso2:CN-GS,,,
"Guangdong, China",state,,,Guangdong,China,1532,8,1395,,129,113460000,0.6343957230213136,22.8685,113.4885,https://github.com/CSSEGISandData/COVID-19,state,0.5882352941176471,Asia/Shanghai,iso2:CN-GD,iso1:CN,iso2:CN-GD,,,
"Guangxi, China",state,,,Guangxi,China,254,2,252,,0,46026629,0.1936896719654089,23.643500000000003,108.27250000000001,https://github.com/CSSEGISandData/COVID-19,state,0.5882352941176471,Asia/Shanghai,iso2:CN-GX,iso1:CN,iso2:CN-GX,,,
"Guizhou, China",state,,,Guizhou,China,146,2,144,,0,35800000,0.20245265391138373,26.921999999999997,106.5875,https://github.com/CSSEGISandData/COVID-19,state,0.5882352941176471,Asia/Shanghai,iso2:CN-GZ,iso1:CN,iso2:CN-GZ,,,
"Hainan, China",state,,,Hainan,China,168,6,162,,0,9171300,0.267587347608256,14.5155,112.068,https://github.com/CSSEGISandData/COVID-19,state,0.5882352941176471,Etc/GMT-7,iso2:CN-HI,iso1:CN,iso2:CN-HI,,,
"Hebei, China",state,,,Hebei,China,327,6,310,,11,71854202,0.38135405732772376,39.3345,116.6525,https://github.com/CSSEGISandData/COVID-19,state,0.5882352941176471,Asia/Shanghai,iso2:CN-HE,iso1:CN,iso2:CN-HE,,,
"Heilongjiang, China",state,,,Heilongjiang,China,524,13,469,,42,38312224,0.0849044955474113,48.4915,127.9795,https://github.com/CSSEGISandData/COVID-19,state,0.5882352941176471,Asia/Shanghai,iso2:CN-HL,iso1:CN,iso2:CN-HL,,,
"Henan, China",state,,,Henan,China,1276,22,1252,,2,96050000,0.5787062047425341,33.873999999999995,113.499,https://github.com/CSSEGISandData/COVID-19,state,0.5882352941176471,Asia/Shanghai,iso2:CN-HA,iso1:CN,iso2:CN-HA,,,
Hong Kong,country,,,,Hong Kong,914,4,216,,694,7500700,6.955486766198668,22.3575,114.1325,https://github.com/CSSEGISandData/COVID-19,country,0.5490196078431373,Asia/Hong_Kong,iso1:HK,iso1:HK,,,,
"Hubei, China",state,,,Hubei,China,67803,3212,64014,,577,58160000,0.3117107556110959,31.155,112.249,https://github.com/CSSEGISandData/COVID-19,state,0.5882352941176471,Asia/Shanghai,iso2:CN-HB,iso1:CN,iso2:CN-HB,,,
"Hunan, China",state,,,Hunan,China,1019,4,1014,,1,65683722,0.30879061915226647,27.386499999999998,111.518,https://github.com/CSSEGISandData/COVID-19,state,0.5882352941176471,Asia/Shanghai,iso2:CN-HN,iso1:CN,iso2:CN-HN,,,
"Inner Mongolia, China",state,,,Inner Mongolia,China,118,1,74,,43,24706321,0.021561274718648417,45.37,111.61949999999999,https://github.com/CSSEGISandData/COVID-19,state,0.5882352941176471,Asia/Ulaanbaatar,iso2:CN-NM,iso1:CN,iso2:CN-NM,,,
"Jiangsu, China",state,,,Jiangsu,China,651,0,633,,18,78659903,0.7652840421607984,32.9515,119.1565,https://github.com/CSSEGISandData/COVID-19,state,0.5882352941176471,Asia/Shanghai,iso2:CN-JS,iso1:CN,iso2:CN-JS,,,
"Jiangxi, China",state,,,Jiangxi,China,937,1,935,,1,44567475,0.2659259437458476,27.2845,116.02600000000001,https://github.com/CSSEGISandData/COVID-19,state,0.5882352941176471,Asia/Shanghai,iso2:CN-JX,iso1:CN,iso2:CN-JX,,,
"Jilin, China",state,,,Jilin,China,98,1,92,,5,27462297,0.14366108958865514,43.5835,126.4735,https://github.com/CSSEGISandData/COVID-19,state,0.5882352941176471,Asia/Shanghai,iso2:CN-JL,iso1:CN,iso2:CN-JL,,,
"Liaoning, China",state,,,Liaoning,China,142,2,128,,12,43746323,0.2973068690844265,41.1065,122.3125,https://github.com/CSSEGISandData/COVID-19,state,0.5882352941176471,Asia/Shanghai,iso2:CN-LN,iso1:CN,iso2:CN-LN,,,
Macau,country,,,,Macau,44,0,10,,34,642900,23.943778419693665,22.1645,113.56049999999999,https://github.com/CSSEGISandData/COVID-19,country,0.5490196078431373,Asia/Macau,iso1:MO,iso1:MO,,,,
"Ningxia, China",state,,,Ningxia,China,75,0,75,,0,6301350,0.12113911900416362,37.31,105.9685,https://github.com/CSSEGISandData/COVID-19,state,0.5882352941176471,Asia/Shanghai,iso2:CN-NX,iso1:CN,iso2:CN-NX,,,
"Qinghai, China",state,,,Qinghai,China,18,0,18,,0,5930000,0.008494515447889235,35.408,96.2355,https://github.com/CSSEGISandData/COVID-19,state,0.5882352941176471,Asia/Shanghai,iso2:CN-QH,iso1:CN,iso2:CN-QH,,,
"Shaanxi, China",state,,,Shaanxi,China,256,3,246,,7,37327378,0.18118176352194001,35.638000000000005,108.36850000000001,https://github.com/CSSEGISandData/COVID-19,state,0.5882352941176471,Asia/Shanghai,iso2:CN-SN,iso1:CN,iso2:CN-SN,,,
"Shandong, China",state,,,Shandong,China,780,7,755,,18,95793065,0.6111626579024781,36.3805,118.7625,https://github.com/CSSEGISandData/COVID-19,state,0.5882352941176471,Asia/Shanghai,iso2:CN-SD,iso1:CN,iso2:CN-SD,,,
"Shanghai, China",state,,,Shanghai,China,536,6,389,,141,23390000,3.1877294999187673,31.281,121.5455,https://github.com/CSSEGISandData/COVID-19,state,0.5882352941176471,Asia/Shanghai,iso2:CN-SH,iso1:CN,iso2:CN-SH,,,
"Shanxi, China",state,,,Shanxi,China,138,0,133,,5,36500000,0.23251395479690506,37.664500000000004,112.393,https://github.com/CSSEGISandData/COVID-19,state,0.5882352941176471,Asia/Shanghai,iso2:CN-SX,iso1:CN,iso2:CN-SX,,,
"Sichuan, China",state,,,Sichuan,China,559,3,540,,16,81100000,0.1663151051763116,30.18,102.9485,https://github.com/CSSEGISandData/COVID-19,state,0.5882352941176471,Asia/Shanghai,iso2:CN-SC,iso1:CN,iso2:CN-SC,,,
"Tianjin, China",state,,,Tianjin,China,180,3,144,,33,13245000,1.123977014603916,39.403499999999994,117.3785,https://github.com/CSSEGISandData/COVID-19,state,0.5882352941176471,Asia/Shanghai,iso2:CN-TJ,iso1:CN,iso2:CN-TJ,,,
"Tibet, China",state,,,Tibet,China,1,0,1,,0,3180000,0.0028061327108167525,31.8945,88.75450000000001,https://github.com/CSSEGISandData/COVID-19,state,0.5882352941176471,Asia/Shanghai,iso2:CN-XZ,iso1:CN,iso2:CN-XZ,,,
"Xinjiang, China",state,,,Xinjiang,China,76,3,73,,0,21813334,0.01335893928779503,41.7555,84.9435,https://github.com/CSSEGISandData/COVID-19,state,0.5882352941176471,"Asia/Urumqi,Asia/Shanghai",iso2:CN-XJ,iso1:CN,iso2:CN-XJ,,,
"Yunnan, China",state,,,Yunnan,China,184,2,172,,10,47420000,0.12321130985262058,25.184,101.85849999999999,https://github.com/CSSEGISandData/COVID-19,state,0.5882352941176471,Asia/Shanghai,iso2:CN-YN,iso1:CN,iso2:CN-YN,,,
"Zhejiang, China",state,,,Zhejiang,China,1264,1,1230,,33,56570000,0.5434833994341953,29.113500000000002,120.589,https://github.com/CSSEGISandData/COVID-19,state,0.5882352941176471,Asia/Shanghai,iso2:CN-ZJ,iso1:CN,iso2:CN-ZJ,,,
Colombia,country,,,,Colombia,1579,46,88,,1445,49065615,0.042867458257474726,5.827999999999999,-74.3535,https://github.com/CSSEGISandData/COVID-19,country,0.5490196078431373,America/Bogota,iso1:CO,iso1:CO,,,,
Congo-Brazzaville,country,,,,Congo-Brazzaville,45,5,2,,38,5260750,0.015220300873989965,-0.6660000000000001,14.884999999999998,https://github.com/CSSEGISandData/COVID-19,country,0.5490196078431373,Africa/Brazzaville,iso1:CG,iso1:CG,,,,
Democratic Republic of the Congo,country,,,,Democratic Republic of the Congo,161,18,5,,138,91931000,0.039573036184562184,-4.0405,21.7395,https://github.com/CSSEGISandData/COVID-19,country,0.5490196078431373,Africa/Lubumbashi,iso1:CD,iso1:CD,,,,
Costa Rica,country,,,,Costa Rica,467,2,18,,447,4905769,0.09536770010257462,8.3595,-84.82650000000001,https://github.com/CSSEGISandData/COVID-19,country,0.5490196078431373,Etc/GMT+6,iso1:CR,iso1:CR,,,,
Côte d'Ivoire,country,,,,Côte d'Ivoire,323,3,41,,279,24294750,0.07503645705995486,7.551,-5.547000000000001,https://github.com/CSSEGISandData/COVID-19,country,0.5490196078431373,Africa/Abidjan,iso1:CI,iso1:CI,,,,
Croatia,country,,,,Croatia,1222,16,130,,1076,4105493,0.07297437526563955,44.462,16.4685,https://github.com/CSSEGISandData/COVID-19,country,0.5490196078431373,Europe/Sarajevo,iso1:HR,iso1:HR,,,,
Cuba,country,,,,Cuba,350,9,18,,323,11484636,0.10402311223423943,21.5485,-79.5415,https://github.com/CSSEGISandData/COVID-19,country,0.5490196078431373,America/Havana,iso1:CU,iso1:CU,,,,
Cyprus,country,,,,Cyprus,465,9,45,,411,1141166,0.12643100637080507,35.1695,33.441,https://github.com/CSSEGISandData/COVID-19,country,0.5490196078431373,Asia/Famagusta,iso1:CY,iso1:CY,,,,
Czechia,country,,,,Czechia,4822,78,121,,4623,10649800,0.1351863246935743,49.805,15.474499999999999,https://github.com/CSSEGISandData/COVID-19,country,0.5490196078431373,Europe/Prague,iso1:CZ,iso1:CZ,,,,
Greenland,country,,,,Greenland,11,0,4,,7,56081,0.00002608112327279719,71.7045,-42.3805,https://github.com/CSSEGISandData/COVID-19,country,0.5490196078431373,America/Godthab,iso1:GL,iso1:GL,,,,
Denmark,country,,,,Denmark,4681,187,1378,,3116,5827463,0.13628662116192938,56.153,11.6375,https://github.com/CSSEGISandData/COVID-19,country,0.5490196078431373,Europe/Copenhagen,iso1:DK,iso1:DK,,,,
Djibouti,country,,,,Djibouti,90,0,9,,81,956985,0.04405861176609788,11.815000000000001,42.611000000000004,https://github.com/CSSEGISandData/COVID-19,country,0.5490196078431373,Africa/Djibouti,iso1:DJ,iso1:DJ,,,,
Dominican Republic,country,,,,Dominican Republic,1828,86,33,,1709,10403761,0.21467624587281786,18.7025,-70.168,https://github.com/CSSEGISandData/COVID-19,country,0.5490196078431373,America/Santo_Domingo,iso1:DO,iso1:DO,,,,
Ecuador,country,,,,Ecuador,3747,191,100,,3456,16624858,0.06455590713255677,-1.6700000000000002,-83.5975,https://github.com/CSSEGISandData/COVID-19,country,0.5490196078431373,Etc/GMT+6,iso1:EC,iso1:EC,,,,
Egypt,country,,,,Egypt,1322,85,259,,978,94798827,0.0948635041631531,26.8355,30.7715,https://github.com/CSSEGISandData/COVID-19,country,0.5490196078431373,Africa/Cairo,iso1:EG,iso1:EG,,,,
El Salvador,country,,,,El Salvador,69,4,5,,60,6427479,0.30820902823453433,13.8045,-88.91,https://github.com/CSSEGISandData/COVID-19,country,0.5490196078431373,America/El_Salvador,iso1:SV,iso1:SV,,,,
Equatorial Guinea,country,,,,Equatorial Guinea,16,0,3,,13,1267689,0.04642041339946956,1.1504999999999999,8.4885,https://github.com/CSSEGISandData/COVID-19,country,0.5490196078431373,Etc/GMT-1,iso1:GQ,iso1:GQ,,,,
Eritrea,country,,,,Eritrea,31,0,0,,31,3497000,0.02894997501606783,15.192,39.785,https://github.com/CSSEGISandData/COVID-19,country,0.5490196078431373,Africa/Asmara,iso1:ER,iso1:ER,,,,
Estonia,country,,,,Estonia,1108,19,62,,1027,1328360,0.02943862715411736,58.668000000000006,24.989,https://github.com/CSSEGISandData/COVID-19,country,0.5490196078431373,Europe/Tallinn,iso1:EE,iso1:EE,,,,
Eswatini,country,,,,Eswatini,10,0,4,,6,1367254,0.07842685091329583,-26.518500000000003,31.463,https://github.com/CSSEGISandData/COVID-19,country,0.5490196078431373,Africa/Mbabane,iso1:SZ,iso1:SZ,,,,
Ethiopia,country,,,,Ethiopia,44,2,4,,38,104957438,0.09256303435250296,9.1455,40.489999999999995,https://github.com/CSSEGISandData/COVID-19,country,0.5490196078431373,Africa/Addis_Ababa,iso1:ET,iso1:ET,,,,
Fiji,country,,,,Fiji,14,0,0,,14,905502,0.049282669321586835,-16.7555,0,https://github.com/CSSEGISandData/COVID-19,country,0.5490196078431373,Etc/GMT,iso1:FJ,iso1:FJ,,,,
Finland,country,,,,Finland,2176,27,300,,1849,5516224,0.01647903189248575,64.798,25.3595,https://github.com/CSSEGISandData/COVID-19,country,0.5490196078431373,Europe/Helsinki,iso1:FI,iso1:FI,,,,
Gabon,country,,,,Gabon,24,1,1,,22,2025137,0.007666972258427645,-0.812,11.55,https://github.com/CSSEGISandData/COVID-19,country,0.5490196078431373,Africa/Libreville,iso1:GA,iso1:GA,,,,
The Gambia,country,,,,The Gambia,4,1,2,,1,2100568,0.18679427930495376,13.443999999999999,-15.311,https://github.com/CSSEGISandData/COVID-19,country,0.5490196078431373,Africa/Banjul,iso1:GM,iso1:GM,,,,
Georgia,country,,,,Georgia,188,2,39,,147,3717100,0.053320138670546774,42.322,43.3685,https://github.com/CSSEGISandData/COVID-19,country,0.5490196078431373,Asia/Tbilisi,iso1:GE,iso1:GE,,,,
Germany,country,,,,Germany,103374,1810,28700,,72864,83149300,0.23307749210730802,51.1555,10.452,https://github.com/CSSEGISandData/COVID-19,country,0.5490196078431373,Europe/Berlin,iso1:DE,iso1:DE,,,,
Ghana,country,,,,Ghana,214,5,31,,178,26908262,0.11198493029157561,7.960000000000001,-1.0295,https://github.com/CSSEGISandData/COVID-19,country,0.5490196078431373,Africa/Accra,iso1:GH,iso1:GH,,,,
Greece,country,,,,Greece,1755,79,269,,1407,10760421,0.08115019528271318,38.2755,24.503,https://github.com/CSSEGISandData/COVID-19,country,0.5490196078431373,Europe/Athens,iso1:GR,iso1:GR,,,,
Guatemala,country,,,,Guatemala,70,3,15,,52,17263239,0.15759768154356482,15.781500000000001,-90.22800000000001,https://github.com/CSSEGISandData/COVID-19,country,0.5490196078431373,America/Guatemala,iso1:GT,iso1:GT,,,,
Guinea,country,,,,Guinea,128,0,5,,123,12717176,0.05160723277474612,9.938,-11.5015,https://github.com/CSSEGISandData/COVID-19,country,0.5490196078431373,Africa/Freetown,iso1:GN,iso1:GN,,,,
Guyana,country,,,,Guyana,31,4,8,,19,777859,0.0036687486568795745,4.851,-58.939,https://github.com/CSSEGISandData/COVID-19,country,0.5490196078431373,America/Guyana,iso1:GY,iso1:GY,,,,
Haiti,country,,,,Haiti,24,1,0,,23,10981229,0.4063846221233796,19.0565,-73.32849999999999,https://github.com/CSSEGISandData/COVID-19,country,0.5490196078431373,America/Port-au-Prince,iso1:HT,iso1:HT,,,,
Vatican City,country,,,,Vatican City,7,0,0,,7,1000,,41.902,12.446,https://github.com/CSSEGISandData/COVID-19,country,0.5490196078431373,Europe/Vatican,iso1:VA,iso1:VA,,,,
Honduras,country,,,,Honduras,298,22,6,,270,9265067,0.08226120688633301,15.199,-85.883,https://github.com/CSSEGISandData/COVID-19,country,0.5490196078431373,America/Tegucigalpa,iso1:HN,iso1:HN,,,,
Hungary,country,,,,Hungary,744,38,67,,639,9772756,0.10512821470747714,47.161,19.506,https://github.com/CSSEGISandData/COVID-19,country,0.5490196078431373,Europe/Budapest,iso1:HU,iso1:HU,,,,
Iceland,country,,,,Iceland,1562,6,460,,1096,357050,0.003487875962361048,65.223,-18.905,https://github.com/CSSEGISandData/COVID-19,country,0.5490196078431373,Atlantic/Reykjavik,iso1:IS,iso1:IS,,,,
India,country,,,,India,4778,136,375,,4267,1349217956,0.4261283053569773,21.2135,82.786,https://github.com/CSSEGISandData/COVID-19,country,0.5490196078431373,Asia/Kolkata,iso1:IN,iso1:IN,,,,
Indonesia,country,,,,Indonesia,2491,209,192,,2090,263991379,0.13906838839706612,-2.4669999999999996,118.0155,https://github.com/CSSEGISandData/COVID-19,country,0.5490196078431373,Asia/Makassar,iso1:ID,iso1:ID,,,,
Iran,country,,,,Iran,60500,3739,24236,,32525,79966230,0.04914047487895722,32.421,53.685,https://github.com/CSSEGISandData/COVID-19,country,0.5490196078431373,Asia/Tehran,iso1:IR,iso1:IR,,,,
Iraq,country,,,,Iraq,1031,64,344,,623,38274618,0.08734192767449489,33.22,43.704499999999996,https://github.com/CSSEGISandData/COVID-19,country,0.5490196078431373,Asia/Baghdad,iso1:IQ,iso1:IQ,,,,
Ireland,country,,,,Ireland,5364,174,25,,5165,4813608,0.06895461743899016,53.4095,-8.343,https://github.com/CSSEGISandData/COVID-19,country,0.5490196078431373,Europe/Dublin,iso1:IE,iso1:IE,,,,
Israel,country,,,,Israel,8904,57,585,,8262,9093000,0.412955802211807,31.4135,35.081,https://github.com/CSSEGISandData/COVID-19,country,0.5490196078431373,"Asia/Jerusalem,Asia/Hebron",iso1:IL,iso1:IL,,,,
Jamaica,country,,,,Jamaica,58,3,8,,47,2890299,0.26170345020173286,17.7735,-77.1705,https://github.com/CSSEGISandData/COVID-19,country,0.5490196078431373,America/Jamaica,iso1:JM,iso1:JM,,,,
Japan,country,,,,Japan,3654,85,575,,2994,124776364,0.334754658786184,32.9745,138.4625,https://github.com/CSSEGISandData/COVID-19,country,0.5490196078431373,Etc/GMT-9,iso1:JP,iso1:JP,,,,
Jordan,country,,,,Jordan,349,6,126,,217,10428241,0.11686727848474852,31.279,37.131,https://github.com/CSSEGISandData/COVID-19,country,0.5490196078431373,Asia/Amman,iso1:JO,iso1:JO,,,,
Kazakhstan,country,,,,Kazakhstan,662,6,46,,610,18276500,0.006726898234903302,48.0055,66.9045,https://github.com/CSSEGISandData/COVID-19,country,0.5490196078431373,Asia/Almaty,iso1:KZ,iso1:KZ,,,,
Kenya,country,,,,Kenya,158,6,4,,148,48468138,0.08435837685023397,-0.058000000000000274,37.9085,https://github.com/CSSEGISandData/COVID-19,country,0.5490196078431373,Africa/Nairobi,iso1:KE,iso1:KE,,,,
South Korea,country,,,,South Korea,10284,186,6598,,3500,51466201,0.5127509351952203,35.8695,128.242,https://github.com/CSSEGISandData/COVID-19,country,0.5490196078431373,Asia/Seoul,iso1:KR,iso1:KR,,,,
Kuwait,country,,,,Kuwait,665,1,103,,561,4136528,0.2400741000808723,29.314,47.665499999999994,https://github.com/CSSEGISandData/COVID-19,country,0.5490196078431373,Asia/Kuwait,iso1:KW,iso1:KW,,,,
Kyrgyzstan,country,,,,Kyrgyzstan,216,4,33,,179,6201500,0.031190307071146124,41.225,74.7485,https://github.com/CSSEGISandData/COVID-19,country,0.5490196078431373,Asia/Bishkek,iso1:KG,iso1:KG,,,,
Latvia,country,,,,Latvia,542,1,16,,525,1909000,0.02961409612915186,56.8795,24.606,https://github.com/CSSEGISandData/COVID-19,country,0.5490196078431373,Europe/Riga,iso1:LV,iso1:LV,,,,
Lebanon,country,,,,Lebanon,541,19,60,,462,6100075,0.5985317925897312,33.870000000000005,35.8645,https://github.com/CSSEGISandData/COVID-19,country,0.5490196078431373,Asia/Beirut,iso1:LB,iso1:LB,,,,
Liberia,country,,,,Liberia,14,3,3,,8,4731906,0.04890325248503842,6.452500000000001,-9.439499999999999,https://github.com/CSSEGISandData/COVID-19,country,0.5490196078431373,Africa/Monrovia,iso1:LR,iso1:LR,,,,
Liechtenstein,country,,,,Liechtenstein,77,1,55,,21,37922,0.2280648066890705,47.16,9.553999999999998,https://github.com/CSSEGISandData/COVID-19,country,0.5490196078431373,Europe/Vaduz,iso1:LI,iso1:LI,,,,
Lithuania,country,,,,Lithuania,843,15,8,,820,2794329,0.043162769598134684,55.172,23.893,https://github.com/CSSEGISandData/COVID-19,country,0.5490196078431373,Europe/Vilnius,iso1:LT,iso1:LT,,,,
Luxembourg,country,,,,Luxembourg,2843,41,500,,2302,626108,0.24058261106015816,49.8155,6.1335,https://github.com/CSSEGISandData/COVID-19,country,0.5490196078431373,Europe/Luxembourg,iso1:LU,iso1:LU,,,,
Madagascar,country,,,,Madagascar,82,0,2,,80,25570895,0.04303178463731503,-18.7785,46.84,https://github.com/CSSEGISandData/COVID-19,country,0.5490196078431373,Indian/Antananarivo,iso1:MG,iso1:MG,,,,
Malaysia,country,,,,Malaysia,3793,62,1241,,2490,31624264,0.095307842218683,4.1185,109.10249999999999,https://github.com/CSSEGISandData/COVID-19,country,0.5490196078431373,Etc/GMT-7,iso1:MY,iso1:MY,,,,
Maldives,country,,,,Maldives,19,0,13,,6,436330,26.106576894558334,3.2060000000000004,73.2025,https://github.com/CSSEGISandData/COVID-19,country,0.5490196078431373,Indian/Maldives,iso1:MV,iso1:MV,,,,
Malta,country,,,,Malta,241,0,5,,236,465292,1.4930139624174152,35.931,14.378,https://github.com/CSSEGISandData/COVID-19,country,0.5490196078431373,Europe/Malta,iso1:MT,iso1:MT,,,,
Mauritania,country,,,,Mauritania,6,1,2,,3,4420184,0.004235866171369535,21.018,-10.950500000000002,https://github.com/CSSEGISandData/COVID-19,country,0.5490196078431373,Africa/Nouakchott,iso1:MR,iso1:MR,,,,
Mauritius,country,,,,Mauritius,244,7,7,,230,1264613,0.6311748597647877,-15.434999999999999,60.043,https://github.com/CSSEGISandData/COVID-19,country,0.5490196078431373,Etc/GMT-4,iso1:MU,iso1:MU,,,,
Mexico,country,,,,Mexico,2143,94,633,,1416,130526945,0.06662816271630623,23.6245,-102.54400000000001,https://github.com/CSSEGISandData/COVID-19,country,0.5490196078431373,America/Mexico_City,iso1:MX,iso1:MX,,,,
Moldova,country,,,,Moldova,965,19,37,,909,2550900,0.07538831848879061,46.979,28.39,https://github.com/CSSEGISandData/COVID-19,country,0.5490196078431373,Europe/Chisinau,iso1:MD,iso1:MD,,,,
Monaco,country,,,,Monaco,77,1,4,,72,38695,,43.737,7.429,https://github.com/CSSEGISandData/COVID-19,country,0.5490196078431373,Europe/Monaco,iso1:MC,iso1:MC,,,,
Mongolia,country,,,,Mongolia,15,0,2,,13,3075647,0.001965821767573302,46.8655,103.832,https://github.com/CSSEGISandData/COVID-19,country,0.5490196078431373,Asia/Ulaanbaatar,iso1:MN,iso1:MN,,,,
Montenegro,country,,,,Montenegro,233,2,1,,230,622359,0.045589213352088896,42.7035,19.395000000000003,https://github.com/CSSEGISandData/COVID-19,country,0.5490196078431373,Europe/Podgorica,iso1:ME,iso1:ME,,,,
Morocco,country,,,,Morocco,1120,80,81,,959,36029138,0.05955372202029422,28.625500000000002,-9.015,https://github.com/CSSEGISandData/COVID-19,country,0.5490196078431373,Africa/Casablanca,iso1:MA,iso1:MA,,,,
Namibia,country,,,,Namibia,16,0,3,,13,2533794,0.003060766451362878,-22.9665,18.4995,https://github.com/CSSEGISandData/COVID-19,country,0.5490196078431373,Africa/Windhoek,iso1:NA,iso1:NA,,,,
Nepal,country,,,,Nepal,9,0,1,,8,29400000,0.1985919351528664,28.397,84.13,https://github.com/CSSEGISandData/COVID-19,country,0.5490196078431373,Asia/Kathmandu,iso1:NP,iso1:NP,,,,
Netherlands,country,,,,Netherlands,18803,1867,250,,16686,17100715,0.4426347993086192,32.7635,-31.418499999999995,https://github.com/CSSEGISandData/COVID-19,country,0.5490196078431373,Etc/GMT+2,iso1:NL,iso1:NL,,,,
Nicaragua,country,,,,Nicaragua,6,1,0,,5,6217581,0.048076382031585915,12.869,-85.2125,https://github.com/CSSEGISandData/COVID-19,country,0.5490196078431373,America/Managua,iso1:NI,iso1:NI,,,,
Niger,country,,,,Niger,253,10,26,,217,21477348,0.018076516595351713,17.6055,8.083,https://github.com/CSSEGISandData/COVID-19,country,0.5490196078431373,Africa/Niamey,iso1:NE,iso1:NE,,,,
Nigeria,country,,,,Nigeria,238,5,35,,198,190886311,0.20857782227714494,9.0785,8.6775,https://github.com/CSSEGISandData/COVID-19,country,0.5490196078431373,Africa/Lagos,iso1:NG,iso1:NG,,,,
North Macedonia,country,,,,North Macedonia,570,23,30,,517,2075301,0.08297690036663632,41.614000000000004,21.7445,https://github.com/CSSEGISandData/COVID-19,country,0.5490196078431373,Europe/Skopje,iso1:MK,iso1:MK,,,,
Norway,country,,,,Norway,5865,76,32,,5757,5367580,0.014081707036277591,13.181000000000001,12.214000000000002,https://github.com/CSSEGISandData/COVID-19,country,0.5490196078431373,Africa/Niamey,iso1:NO,iso1:NO,,,,
Oman,country,,,,Oman,331,2,61,,268,4829480,0.01558428749224607,21.5785,55.9195,https://github.com/CSSEGISandData/COVID-19,country,0.5490196078431373,Asia/Muscat,iso1:OM,iso1:OM,,,,
Pakistan,country,,,,Pakistan,3766,53,259,,3454,197015955,0.226500816203038,30.393,68.992,https://github.com/CSSEGISandData/COVID-19,country,0.5490196078431373,Asia/Karachi,iso1:PK,iso1:PK,,,,
Panama,country,,,,Panama,1988,54,13,,1921,4098587,0.05429674317595431,8.4245,-80.105,https://github.com/CSSEGISandData/COVID-19,country,0.5490196078431373,America/Panama,iso1:PA,iso1:PA,,,,
Papua New Guinea,country,,,,Papua New Guinea,2,0,0,,2,8251162,0.017770071863036727,-6.202,150.166,https://github.com/CSSEGISandData/COVID-19,country,0.5490196078431373,Pacific/Port_Moresby,iso1:PG,iso1:PG,,,,
Paraguay,country,,,,Paraguay,113,5,12,,96,6811297,0.016965892730407463,-23.447000000000003,-58.4525,https://github.com/CSSEGISandData/COVID-19,country,0.5490196078431373,America/Asuncion,iso1:PY,iso1:PY,,,,
Peru,country,,,,Peru,2561,92,997,,1472,32162184,0.02483053499733088,-9.197500000000002,-74.99000000000001,https://github.com/CSSEGISandData/COVID-19,country,0.5490196078431373,America/Lima,iso1:PE,iso1:PE,,,,
Philippines,country,,,,Philippines,3660,163,73,,3424,104918090,0.3556276705601242,12.850999999999999,120.4445,https://github.com/CSSEGISandData/COVID-19,country,0.5490196078431373,Asia/Manila,iso1:PH,iso1:PH,,,,
Poland,country,,,,Poland,4413,107,162,,4144,38433600,0.12339184497625974,51.9185,19.1345,https://github.com/CSSEGISandData/COVID-19,country,0.5490196078431373,Europe/Warsaw,iso1:PL,iso1:PL,,,,
Portugal,country,,,,Portugal,11730,311,140,,11279,10600000,0.11526997485508474,36.091,-18.732,https://github.com/CSSEGISandData/COVID-19,country,0.5490196078431373,Etc/GMT+1,iso1:PT,iso1:PT,,,,
Qatar,country,,,,Qatar,1832,4,131,,1697,2639211,0.2271397736004912,25.3235,51.574,https://github.com/CSSEGISandData/COVID-19,country,0.5490196078431373,Asia/Qatar,iso1:QA,iso1:QA,,,,
Romania,country,,,,Romania,4057,176,406,,3475,19586539,0.08217700874354908,45.942,25.0165,https://github.com/CSSEGISandData/COVID-19,country,0.5490196078431373,Europe/Bucharest,iso1:RO,iso1:RO,,,,
Russia,country,,,,Russia,6343,47,406,,5890,147500000,0.00873829707636125,61.522,0,https://github.com/CSSEGISandData/COVID-19,country,0.5490196078431373,Etc/GMT,iso1:RU,iso1:RU,,,,
Rwanda,country,,,,Rwanda,105,0,4,,101,12208407,0.5007951968130646,-1.947,29.880499999999998,https://github.com/CSSEGISandData/COVID-19,country,0.5490196078431373,Africa/Kigali,iso1:RW,iso1:RW,,,,
Saint Lucia,country,,,,Saint Lucia,14,0,1,,13,178844,0.3009737000694336,13.9095,-60.9765,https://github.com/CSSEGISandData/COVID-19,country,0.5490196078431373,America/St_Lucia,iso1:LC,iso1:LC,,,,
Saint Vincent and the Grenadines,country,,,,Saint Vincent and the Grenadines,7,0,1,,6,109897,0.30664506307448686,12.957,-61.284,https://github.com/CSSEGISandData/COVID-19,country,0.5490196078431373,America/St_Vincent,iso1:VC,iso1:VC,,,,
San Marino,country,,,,San Marino,266,32,35,,199,33400,0.5464605734267759,43.944,12.4595,https://github.com/CSSEGISandData/COVID-19,country,0.5490196078431373,Europe/San_Marino,iso1:SM,iso1:SM,,,,
Saudi Arabia,country,,,,Saudi Arabia,2605,38,551,,2016,33000000,0.017073766581440695,24.267000000000003,45.084500000000006,https://github.com/CSSEGISandData/COVID-19,country,0.5490196078431373,Asia/Riyadh,iso1:SA,iso1:SA,,,,
Senegal,country,,,,Senegal,226,2,92,,132,15850567,0.08013993539014867,14.502500000000001,-14.4435,https://github.com/CSSEGISandData/COVID-19,country,0.5490196078431373,Africa/Dakar,iso1:SN,iso1:SN,,,,
Serbia,country,,,,Serbia,2200,58,0,,2142,7022268,0.09047032130952799,44.209999999999994,20.91,https://github.com/CSSEGISandData/COVID-19,country,0.5490196078431373,Europe/Belgrade,iso1:RS,iso1:RS,,,,
Seychelles,country,,,,Seychelles,11,0,0,,11,95843,0.2736409141685155,-6.9704999999999995,51.2465,https://github.com/CSSEGISandData/COVID-19,country,0.5490196078431373,Etc/GMT-3,iso1:SC,iso1:SC,,,,
Singapore,country,,,,Singapore,1375,6,344,,1025,5888926,8.260101793548944,1.3135,104.009,https://github.com/CSSEGISandData/COVID-19,country,0.5490196078431373,Asia/Singapore,iso1:SG,iso1:SG,,,,
Slovakia,country,,,,Slovakia,534,2,8,,524,5439892,0.11103119623420321,48.6725,19.7045,https://github.com/CSSEGISandData/COVID-19,country,0.5490196078431373,Europe/Bratislava,iso1:SK,iso1:SK,,,,
Slovenia,country,,,,Slovenia,1021,30,102,,889,2066880,0.10206635384418074,46.149,14.986,https://github.com/CSSEGISandData/COVID-19,country,0.5490196078431373,Europe/Ljubljana,iso1:SI,iso1:SI,,,,
Somalia,country,,,,Somalia,7,0,1,,6,11031386,0.017245113634640066,5.160500000000001,46.201499999999996,https://github.com/CSSEGISandData/COVID-19,country,0.5490196078431373,Africa/Mogadishu,iso1:SO,iso1:SO,,,,
South Africa,country,,,,South Africa,1686,12,95,,1579,57725600,0.04714259452618927,-34.553,27.2265,https://github.com/CSSEGISandData/COVID-19,country,0.5490196078431373,Etc/GMT-2,iso1:ZA,iso1:ZA,,,,
Sri Lanka,country,,,,Sri Lanka,178,5,38,,135,21444000,0.32249932944703635,7.8775,80.701,https://github.com/CSSEGISandData/COVID-19,country,0.5490196078431373,Asia/Colombo,iso1:LK,iso1:LK,,,,
Sudan,country,,,,Sudan,12,2,2,,8,40533330,0.02176259662568171,15.413,30.33,https://github.com/CSSEGISandData/COVID-19,country,0.5490196078431373,Africa/Khartoum,iso1:SD,iso1:SD,,,,
Suriname,country,,,,Suriname,10,1,0,,9,563402,0.003843920751005786,3.9210000000000003,-56.022999999999996,https://github.com/CSSEGISandData/COVID-19,country,0.5490196078431373,America/Paramaribo,iso1:SR,iso1:SR,,,,
Sweden,country,,,,Sweden,7206,477,205,,6524,10327589,0.023123190378622874,62.1995,17.562,https://github.com/CSSEGISandData/COVID-19,country,0.5490196078431373,Europe/Stockholm,iso1:SE,iso1:SE,,,,
Switzerland,country,,,,Switzerland,21657,765,8056,,12836,8466017,0.20768400188612024,46.811499999999995,8.228000000000002,https://github.com/CSSEGISandData/COVID-19,country,0.5490196078431373,Europe/Zurich,iso1:CH,iso1:CH,,,,
Taiwan,country,,,,Taiwan,373,5,57,,311,23593794,0.6460214179332431,18.3855,118.26050000000001,https://github.com/CSSEGISandData/COVID-19,country,0.5490196078431373,Etc/GMT-8,iso1:TW,iso1:TW,,,,
Tanzania,country,,,,Tanzania,24,1,3,,20,57310019,0.06385048459883588,-6.3735,35.0205,https://github.com/CSSEGISandData/COVID-19,country,0.5490196078431373,Africa/Dar_es_Salaam,iso1:TZ,iso1:TZ,,,,
Thailand,country,,,,Thailand,2220,26,793,,1401,66188503,0.12779412463950074,13.039,101.4905,https://github.com/CSSEGISandData/COVID-19,country,0.5490196078431373,Asia/Bangkok,iso1:TH,iso1:TH,,,,
Togo,country,,,,Togo,58,3,23,,32,7797694,0.13613084426392066,8.626000000000001,0.828,https://github.com/CSSEGISandData/COVID-19,country,0.5490196078431373,Africa/Lome,iso1:TG,iso1:TG,,,,
Trinidad and Tobago,country,,,,Trinidad and Tobago,105,8,1,,96,1369125,0.2635783011327031,10.703,-61.213,https://github.com/CSSEGISandData/COVID-19,country,0.5490196078431373,America/Port_of_Spain,iso1:TT,iso1:TT,,,,
Tunisia,country,,,,Tunisia,596,22,5,,569,11565204,0.07428939434119218,33.8925,9.561,https://github.com/CSSEGISandData/COVID-19,country,0.5490196078431373,Africa/Tunis,iso1:TN,iso1:TN,,,,
Turkey,country,,,,Turkey,30217,649,1326,,28242,82003882,0.10496430044551806,38.9565,35.2415,https://github.com/CSSEGISandData/COVID-19,country,0.5490196078431373,Europe/Istanbul,iso1:TR,iso1:TR,,,,
Uganda,country,,,,Uganda,52,0,0,,52,42862958,0.2038417778675941,1.376,32.286500000000004,https://github.com/CSSEGISandData/COVID-19,country,0.5490196078431373,Africa/Kampala,iso1:UG,iso1:UG,,,,
Ukraine,country,,,,Ukraine,1319,38,28,,1253,42558328,0.07436823884017983,48.7805,31.183,https://github.com/CSSEGISandData/COVID-19,country,0.5490196078431373,Europe/Kiev,iso1:UA,iso1:UA,,,,
United Arab Emirates,country,,,,United Arab Emirates,2076,11,167,,1898,9400145,0.13223531864995722,24.351,53.939,https://github.com/CSSEGISandData/COVID-19,country,0.5490196078431373,Asia/Dubai,iso1:AE,iso1:AE,,,,
United Kingdom,country,,,,United Kingdom,51608,5373,135,,46100,66022273,0.2705768370475989,55.354,-3.4414999999999996,https://github.com/CSSEGISandData/COVID-19,country,0.5490196078431373,Europe/London,iso1:GB,iso1:GB,,,,
Uruguay,country,,,,Uruguay,406,6,104,,296,3456750,0.019484723200079077,-32.558,-55.838,https://github.com/CSSEGISandData/COVID-19,country,0.5490196078431373,America/Montevideo,iso1:UY,iso1:UY,,,,
Uzbekistan,country,,,,Uzbekistan,457,2,30,,425,32387200,0.07288974876070191,41.3865,64.5695,https://github.com/CSSEGISandData/COVID-19,country,0.5490196078431373,Asia/Samarkand,iso1:UZ,iso1:UZ,,,,
Venezuela,country,,,,Venezuela,165,7,65,,93,28515829,0.031062304587199597,8.161,-66.574,https://github.com/CSSEGISandData/COVID-19,country,0.5490196078431373,America/Caracas,iso1:VE,iso1:VE,,,,
Vietnam,country,,,,Vietnam,245,0,95,,150,94660000,0.2866062953805856,15.6425,108.2365,https://github.com/CSSEGISandData/COVID-19,country,0.5490196078431373,Asia/Ho_Chi_Minh,iso1:VN,iso1:VN,,,,
Zambia,country,,,,Zambia,39,1,5,,33,17094130,0.022860701205002974,-13.185500000000001,27.8365,https://github.com/CSSEGISandData/COVID-19,country,0.5490196078431373,Africa/Lusaka,iso1:ZM,iso1:ZM,,,,
Zimbabwe,country,,,,Zimbabwe,10,1,0,,9,16529904,0.04241625613090926,-19.017,29.1505,https://github.com/CSSEGISandData/COVID-19,country,0.5490196078431373,Africa/Harare,iso1:ZW,iso1:ZW,,,,
Dominica,country,,,,Dominica,15,0,1,,14,73925,0.09827057286245625,15.4245,-61.3605,https://github.com/CSSEGISandData/COVID-19,country,0.5490196078431373,America/Dominica,iso1:DM,iso1:DM,,,,
Grenada,country,,,,Grenada,12,0,0,,12,107825,0.3090938888601821,12.258,-61.591499999999996,https://github.com/CSSEGISandData/COVID-19,country,0.5490196078431373,America/Grenada,iso1:GD,iso1:GD,,,,
Mozambique,country,,,,Mozambique,10,0,1,,9,29668834,0.0377918487748975,-18.671,35.5255,https://github.com/CSSEGISandData/COVID-19,country,0.5490196078431373,Africa/Maputo,iso1:MZ,iso1:MZ,,,,
Syria,country,,,,Syria,19,2,2,,15,18499181,0.09892713382809433,34.798500000000004,39.0535,https://github.com/CSSEGISandData/COVID-19,country,0.5490196078431373,Asia/Damascus,iso1:SY,iso1:SY,,,,
East Timor,country,,,,East Timor,1,0,0,,1,1296311,0.08659596902125584,-8.818000000000001,125.68700000000001,https://github.com/CSSEGISandData/COVID-19,country,0.5490196078431373,Asia/Dili,iso1:TL,iso1:TL,,,,
Belize,country,,,,Belize,7,1,0,,6,374681,0.01704961500443103,17.192,-88.3575,https://github.com/CSSEGISandData/COVID-19,country,0.5490196078431373,America/Belize,iso1:BZ,iso1:BZ,,,,
Laos,country,,,,Laos,12,0,0,,12,6858160,0.029705215340684564,18.2095,103.86,https://github.com/CSSEGISandData/COVID-19,country,0.5490196078431373,Asia/Bangkok,iso1:LA,iso1:LA,,,,
Libya,country,,,,Libya,19,1,1,,17,6678567,0.004125660646705483,26.334000000000003,17.2685,https://github.com/CSSEGISandData/COVID-19,country,0.5490196078431373,Africa/Tripoli,iso1:LY,iso1:LY,,,,
Palestinian Territories,country,,,,Palestinian Territories,254,1,24,,229,4684777,0.7795212010469186,31.886,34.894999999999996,https://github.com/CSSEGISandData/COVID-19,country,0.5490196078431373,Asia/Jerusalem,iso1:PS,iso1:PS,,,,
Guinea-Bissau,country,,,,Guinea-Bissau,18,0,0,,18,1861283,0.05380281532643012,11.775500000000001,-15.176499999999999,https://github.com/CSSEGISandData/COVID-19,country,0.5490196078431373,Africa/Bissau,iso1:GW,iso1:GW,,,,
Mali,country,,,,Mali,47,5,9,,33,18541980,0.014722801995911364,17.5745,-3.9865,https://github.com/CSSEGISandData/COVID-19,country,0.5490196078431373,Africa/Bamako,iso1:ML,iso1:ML,,,,
Saint Kitts and Nevis,country,,,,Saint Kitts and Nevis,10,0,0,,10,55345,0.2259360385720303,17.2565,-62.704499999999996,https://github.com/CSSEGISandData/COVID-19,country,0.5490196078431373,America/St_Kitts,iso1:KN,iso1:KN,,,,
Kosovo,country,,,,Kosovo,145,1,23,,121,1883018,0.17237339863986728,42.5625,20.902,https://github.com/CSSEGISandData/COVID-19,country,0.5490196078431373,Europe/Belgrade,iso1:XK,iso1:XK,,,,
Myanmar,country,,,,Myanmar,22,1,0,,21,53370609,0.07959589413794005,19.072499999999998,96.669,https://github.com/CSSEGISandData/COVID-19,country,0.5490196078431373,Asia/Yangon,iso1:MM,iso1:MM,,,,
Botswana,country,,,,Botswana,6,1,0,,5,2291661,0.003944671549425831,-22.342,24.686999999999998,https://github.com/CSSEGISandData/COVID-19,country,0.5490196078431373,Africa/Gaborone,iso1:BW,iso1:BW,,,,
Burundi,country,,,,Burundi,3,0,0,,3,10864245,0.4323283243670263,-3.386,29.9255,https://github.com/CSSEGISandData/COVID-19,country,0.5490196078431373,Africa/Bujumbura,iso1:BI,iso1:BI,,,,
Sierra Leone,country,,,,Sierra Leone,6,0,0,,6,7557212,0.1034100942885294,8.461,-11.786999999999999,https://github.com/CSSEGISandData/COVID-19,country,0.5490196078431373,Africa/Freetown,iso1:SL,iso1:SL,,,,
Malawi,country,,,,Malawi,5,0,0,,5,18622104,0.1935453574378309,-13.248999999999999,34.2945,https://github.com/CSSEGISandData/COVID-19,country,0.5490196078431373,Africa/Blantyre,iso1:MW,iso1:MW,,,,
South Sudan,country,,,,South Sudan,1,0,0,,1,12575714,0.019129482753012433,7.865,29.698999999999998,https://github.com/CSSEGISandData/COVID-19,country,0.5490196078431373,Africa/Juba,iso1:SS,iso1:SS,,,,
Sahrawi Arab Democratic Republic,country,,,,Sahrawi Arab Democratic Republic,4,0,0,,4,502585,0.006239039053788593,24.2185,-12.885000000000002,https://github.com/CSSEGISandData/COVID-19,country,0.5490196078431373,Africa/El_Aaiun,iso1:EH,iso1:EH,,,,
São Tomé and Príncipe,country,,,,São Tomé and Príncipe,4,0,0,,4,204327,0.2020470783020024,0.8625,6.9645,https://github.com/CSSEGISandData/COVID-19,country,0.5490196078431373,Africa/Sao_Tome,iso1:ST,iso1:ST,,,,
China,country,,,,China,81707,3331,77084,,1292,1409517397,0.15040578159855753,31.107499999999998,104.1375,https://github.com/CSSEGISandData/COVID-19,state,0.5490196078431373,Asia/Shanghai,iso1:CN,iso1:CN,,,,
"Tasmania, Australia",state,,,Tasmania,Australia,85,,,,,509965,0.007461337290347817,-47.156,151.40699999999998,https://www.health.gov.au/news/health-alerts/novel-coronavirus-2019-ncov-health-alert/coronavirus-covid-19-current-situation-and-case-numbers,state,0.3137254901960784,Etc/GMT-10,iso2:AU-TAS,iso1:AU,iso2:AU-TAS,,,
Australia,country,,,,Australia,5844,,,,,24511800,0.0031756461377135487,-32.128,120.28800000000001,https://www.health.gov.au/news/health-alerts/novel-coronavirus-2019-ncov-health-alert/coronavirus-covid-19-current-situation-and-case-numbers,state,0.27450980392156865,Australia/Perth,iso1:AU,iso1:AU,,,,
"AC, Brazil",state,,,AC,Brazil,50,0,,,,881935,,-9.121958699499913,-70.31670546006357,https://covid.saude.gov.br/,state,0.5098039215686274,America/Rio_Branco,251,iso1:BR,,,,
"AL, Brazil",state,,,AL,Brazil,31,2,,,,3337357,,-9.66813364038606,-36.69176762624364,https://covid.saude.gov.br/,state,0.5098039215686274,America/Maceio,252,iso1:BR,,,,
"AP, Brazil",state,,,AP,Brazil,34,2,,,,845731,,1.6322509422846565,-52.330210155520206,https://covid.saude.gov.br/,state,0.5098039215686274,America/Belem,253,iso1:BR,,,,
"AM, Brazil",state,,,AM,Brazil,532,19,,,,4144597,,-3.801031659031324,-65.09820771798518,https://covid.saude.gov.br/,state,0.5098039215686274,America/Manaus,254,iso1:BR,,,,
"BA, Brazil",state,,,BA,Brazil,431,10,,,,14873064,,-13.428636359280546,-42.00270718030532,https://covid.saude.gov.br/,state,0.5098039215686274,America/Bahia,255,iso1:BR,,,,
"CE, Brazil",state,,,CE,Brazil,1013,29,,,,9132078,,-5.320150038402943,-39.34288443632698,https://covid.saude.gov.br/,state,0.5098039215686274,America/Fortaleza,256,iso1:BR,,,,
"DF, Brazil",state,,,DF,Brazil,473,10,,,,3015268,,-15.764954725480209,-47.79019110808315,https://covid.saude.gov.br/,state,0.5098039215686274,America/Sao_Paulo,257,iso1:BR,,,,
"ES, Brazil",state,,,ES,Brazil,194,6,,,,4018650,,-19.583987593752454,-40.768499482415194,https://covid.saude.gov.br/,state,0.5098039215686274,America/Sao_Paulo,258,iso1:BR,,,,
"GO, Brazil",state,,,GO,Brazil,119,5,,,,7018354,,-15.936701348488441,-49.57789852549655,https://covid.saude.gov.br/,state,0.5098039215686274,America/Sao_Paulo,259,iso1:BR,,,,
"MA, Brazil",state,,,MA,Brazil,133,2,,,,7075181,,-5.739146620286533,-45.273975185456436,https://covid.saude.gov.br/,state,0.5098039215686274,America/Fortaleza,260,iso1:BR,,,,
"MT, Brazil",state,,,MT,Brazil,76,1,,,,3484466,,-12.685375257861864,-55.92350865614955,https://covid.saude.gov.br/,state,0.5098039215686274,America/Cuiaba,261,iso1:BR,,,,
"MS, Brazil",state,,,MS,Brazil,66,1,,,,2778986,,-20.618883874041558,-54.559985008967104,https://covid.saude.gov.br/,state,0.5098039215686274,America/Campo_Grande,262,iso1:BR,,,,
"MG, Brazil",state,,,MG,Brazil,525,9,,,,21168791,,-18.569305515387242,-45.44658738839726,https://covid.saude.gov.br/,state,0.5098039215686274,America/Sao_Paulo,263,iso1:BR,,,,
"PR, Brazil",state,,,PR,Brazil,458,11,,,,11433957,,-24.601107883122296,-51.32115169669102,https://covid.saude.gov.br/,state,0.5098039215686274,America/Sao_Paulo,264,iso1:BR,,,,
"PB, Brazil",state,,,PB,Brazil,35,4,,,,4018127,,-7.154162489157557,-36.764700791862396,https://covid.saude.gov.br/,state,0.5098039215686274,America/Fortaleza,265,iso1:BR,,,,
"PA, Brazil",state,,,PA,Brazil,102,3,,,,11433957,,-3.626695330355169,-52.52830438760455,https://covid.saude.gov.br/,state,0.5098039215686274,America/Santarem,266,iso1:BR,,,,
"PE, Brazil",state,,,PE,Brazil,223,30,,,,9557071,,-8.378092949979674,-38.08805322348826,https://covid.saude.gov.br/,state,0.5098039215686274,America/Recife,267,iso1:BR,,,,
"PI, Brazil",state,,,PI,Brazil,23,4,,,,3273227,,-6.830773613917813,-43.19888220914663,https://covid.saude.gov.br/,state,0.5098039215686274,America/Fortaleza,268,iso1:BR,,,,
"RN, Brazil",state,,,RN,Brazil,246,7,,,,3506853,,-5.902948951918576,-36.77516515873181,https://covid.saude.gov.br/,state,0.5098039215686274,America/Fortaleza,269,iso1:BR,,,,
"RS, Brazil",state,,,RS,Brazil,481,7,,,,11377239,,-30.406333313679497,-53.65568620171301,https://covid.saude.gov.br/,state,0.5098039215686274,America/Sao_Paulo,270,iso1:BR,,,,
"RJ, Brazil",state,,,RJ,Brazil,1461,71,,,,17264943,,-22.06503752988857,-42.912834105494625,https://covid.saude.gov.br/,state,0.5098039215686274,America/Sao_Paulo,271,iso1:BR,,,,
"RO, Brazil",state,,,RO,Brazil,14,1,,,,1777225,,-10.831668929677392,-63.32729183604937,https://covid.saude.gov.br/,state,0.5098039215686274,America/Porto_Velho,272,iso1:BR,,,,
"RR, Brazil",state,,,RR,Brazil,42,1,,,,60576,,1.9338620027494215,-61.83588456621507,https://covid.saude.gov.br/,state,0.5098039215686274,America/Boa_Vista,273,iso1:BR,,,,
"SC, Brazil",state,,,SC,Brazil,379,10,,,,7164788,,-27.65149708429871,-51.10965735219543,https://covid.saude.gov.br/,state,0.5098039215686274,America/Sao_Paulo,274,iso1:BR,,,,
"SE, Brazil",state,,,SE,Brazil,32,4,,,,2298696,,-10.542973727655408,-37.32497127995194,https://covid.saude.gov.br/,state,0.5098039215686274,America/Maceio,275,iso1:BR,,,,
"SP, Brazil",state,,,SP,Brazil,4866,304,,,,45919049,,-22.549618393174313,-48.6671272450763,https://covid.saude.gov.br/,state,0.5098039215686274,America/Sao_Paulo,276,iso1:BR,,,,
"TO, Brazil",state,,,TO,Brazil,17,0,,,,1572866,,-9.258995252778703,-48.25017595025989,https://covid.saude.gov.br/,state,0.5098039215686274,America/Araguaina,277,iso1:BR,,,,
Brazil,country,,,,Brazil,12056,553,,,,208494900,0.024366254980308862,-14.2375,-51.4155,https://covid.saude.gov.br/,state,0.47058823529411764,America/Cuiaba,iso1:BR,iso1:BR,,,,
"Zurich, Switzerland",county,,Zurich,,Switzerland,2590,48,0,,2542,1520968,0.8745594612083257,47.427499999999995,8.6715,https://raw.githubusercontent.com/openZH/covid_19/master/fallzahlen_kanton_total_csv/COVID19_Fallzahlen_Kanton_ZH_total.csv,,0.5490196078431373,Europe/Zurich,iso2:CH-ZH,iso1:CH,,iso2:CH-ZH,,
"British Columbia, Canada",state,,,British Columbia,Canada,1266,39,,,,4841078,0.005121144735131249,54.150000000000006,-126.56,https://health-infobase.canada.ca/src/data/covidLive/covid19.csv,state,0.4117647058823529,America/Vancouver,iso2:CA-BC,iso1:CA,iso2:CA-BC,,,
"Alberta, Canada",state,,,Alberta,Canada,1348,24,,,,4306039,0.006508808220798177,54.4985,-115.003,https://health-infobase.canada.ca/src/data/covidLive/covid19.csv,state,0.4117647058823529,America/Edmonton,iso2:CA-AB,iso1:CA,iso2:CA-AB,,,
"Saskatchewan, Canada",state,,,Saskatchewan,Canada,253,3,,,,1168057,0.0017942466354660292,54.4995,-105.684,https://health-infobase.canada.ca/src/data/covidLive/covid19.csv,state,0.4117647058823529,America/Regina,iso2:CA-SK,iso1:CA,iso2:CA-SK,,,
"Manitoba, Canada",state,,,Manitoba,Canada,190,2,,,,1343371,0.002069321212153181,54.499,-95.4995,https://health-infobase.canada.ca/src/data/covidLive/covid19.csv,state,0.4117647058823529,America/Winnipeg,iso2:CA-MB,iso1:CA,iso2:CA-MB,,,
"Ontario, Canada",state,,,Ontario,Canada,4347,132,,,,14279196,0.01446094145134689,49.2705,-84.737,https://health-infobase.canada.ca/src/data/covidLive/covid19.csv,state,0.4117647058823529,America/Toronto,iso2:CA-ON,iso1:CA,iso2:CA-ON,,,
"Quebec, Canada",state,,,Quebec,Canada,8580,121,,,,8484965,0.0056368312173706555,53.7855,-68.423,https://health-infobase.canada.ca/src/data/covidLive/covid19.csv,state,0.4117647058823529,America/Toronto,iso2:CA-QC,iso1:CA,iso2:CA-QC,,,
"Newfoundland and Labrador, Canada",state,,,Newfoundland and Labrador,Canada,226,2,,,,528430,0.0013072251356161515,53.4945,-60.219,https://health-infobase.canada.ca/src/data/covidLive/covid19.csv,state,0.4117647058823529,America/Goose_Bay,iso2:CA-NL,iso1:CA,iso2:CA-NL,,,
"New Brunswick, Canada",state,,,New Brunswick,Canada,103,0,,,,760868,0.010430296262399165,46.3245,-66.411,https://health-infobase.canada.ca/src/data/covidLive/covid19.csv,state,0.4117647058823529,America/Moncton,iso2:CA-NB,iso1:CA,iso2:CA-NB,,,
"Nova Scotia, Canada",state,,,Nova Scotia,Canada,293,0,,,,957600,0.017313791252891533,45.307,-63.025999999999996,https://health-infobase.canada.ca/src/data/covidLive/covid19.csv,state,0.4117647058823529,America/Halifax,iso2:CA-NS,iso1:CA,iso2:CA-NS,,,
"Prince Edward Island, Canada",state,,,Prince Edward Island,Canada,22,0,,,,152784,0.026535828339757865,46.507999999999996,-63.191500000000005,https://health-infobase.canada.ca/src/data/covidLive/covid19.csv,state,0.4117647058823529,America/Halifax,iso2:CA-PE,iso1:CA,iso2:CA-PE,,,
"Yukon, Canada",state,,,Yukon,Canada,7,0,,,,38669,0.00008028912396734324,64.8205,-132.4065,https://health-infobase.canada.ca/src/data/covidLive/covid19.csv,state,0.4117647058823529,America/Yellowknife,iso2:CA-YT,iso1:CA,iso2:CA-YT,,,
"Northwest Territories, Canada",state,,,Northwest Territories,Canada,5,0,,,,44718,0.000033309922182710825,69.4,-119.224,https://health-infobase.canada.ca/src/data/covidLive/covid19.csv,state,0.4117647058823529,America/Cambridge_Bay,iso2:CA-NT,iso1:CA,iso2:CA-NT,,,
"Nunavut, Canada",state,,,Nunavut,Canada,0,0,,,,38243,0.000018390732537514763,67.15299999999999,-90.887,https://health-infobase.canada.ca/src/data/covidLive/covid19.csv,state,0.4117647058823529,America/Cambridge_Bay,iso2:CA-NU,iso1:CA,iso2:CA-NU,,,
Canada,country,,,,Canada,16653,323,,,,36708083,0.0037299350784045096,62.414,-96.81200000000001,https://health-infobase.canada.ca/src/data/covidLive/covid19.csv,state,0.37254901960784315,America/Rankin_Inlet,iso1:CA,iso1:CA,,,,
"Andalusia, Spain",state,,,Andalusia,Spain,8581,491,798,,7292,8409738,0.09585272557573486,37.334,-4.5725,https://github.com/datadista/datasets/tree/master/COVID%2019,state,0.6274509803921569,Europe/Madrid,iso2:ES-AN,iso1:ES,iso2:ES-AN,,,
"Aragon, Spain",state,,,Aragon,Spain,3347,284,565,,2498,1324397,0.027720739661774213,41.3845,-0.701,https://github.com/datadista/datasets/tree/master/COVID%2019,state,0.6274509803921569,Europe/Madrid,iso2:ES-AR,iso1:ES,iso2:ES-AR,,,
"Asturias, Spain",state,,,Asturias,Spain,1646,86,222,,1338,1028244,0.09689655527964271,43.272999999999996,-5.8445,https://github.com/datadista/datasets/tree/master/COVID%2019,state,0.6274509803921569,Europe/Madrid,iso2:ES-AS,iso1:ES,iso2:ES-AS,,,
"Balearic Islands, Spain",state,,,Balearic Islands,Spain,1320,81,531,,708,1150839,0.23046324494921916,39.3675,2.734,https://github.com/datadista/datasets/tree/master/COVID%2019,state,0.6274509803921569,Europe/Madrid,iso2:ES-IB,iso1:ES,iso2:ES-IB,,,
"Canary Islands, Spain",state,,,Canary Islands,Spain,1649,85,157,,1407,2127685,0.2851938217315716,28.5255,-15.75,https://github.com/datadista/datasets/tree/master/COVID%2019,state,0.6274509803921569,Etc/GMT+1,iso2:ES-CN,iso1:ES,iso2:ES-CN,,,
"Cantabria, Spain",state,,,Cantabria,Spain,1483,77,118,,1288,580229,0.10883115249828475,43.1355,-4.002,https://github.com/datadista/datasets/tree/master/COVID%2019,state,0.6274509803921569,Europe/Madrid,iso2:ES-CB,iso1:ES,iso2:ES-CB,,,
"Castile-La Mancha, Spain",state,,,Castile-La Mancha,Spain,10602,1132,1259,,8211,2106331,0.026481202980357034,39.6755,-3.161,https://github.com/datadista/datasets/tree/master/COVID%2019,state,0.6274509803921569,Europe/Madrid,iso2:ES-CM,iso1:ES,iso2:ES-CM,,,
"Castile and León, Spain",state,,,Castile and León,Spain,9116,919,2533,,5664,2418694,0.025659203426061913,41.66,-4.426,https://github.com/datadista/datasets/tree/master/COVID%2019,state,0.6274509803921569,Europe/Madrid,iso2:ES-CL,iso1:ES,iso2:ES-CL,,,
"Catalonia, Spain",state,,,Catalonia,Spain,26824,2760,10088,,13976,7619494,0.23704148617078186,41.6925,1.746,https://github.com/datadista/datasets/tree/master/COVID%2019,state,0.6274509803921569,Europe/Madrid,iso2:ES-CT,iso1:ES,iso2:ES-CT,,,
"Ceuta, Spain",state,,,Ceuta,Spain,83,3,2,,78,84777,9.021596722065347,35.891999999999996,-5.3495,https://github.com/datadista/datasets/tree/master/COVID%2019,state,0.6274509803921569,Africa/Ceuta,iso2:ES-CE,iso1:ES,iso2:ES-CE,,,
"Valencian Community, Spain",state,,,Valencian Community,Spain,7334,637,930,,5767,5003769,0.21446461227177507,39.316500000000005,-0.4195,https://github.com/datadista/datasets/tree/master/COVID%2019,state,0.6274509803921569,Europe/Madrid,iso2:ES-VC,iso1:ES,iso2:ES-VC,,,
"Extremadura, Spain",state,,,Extremadura,Spain,2068,228,223,,1617,1070586,0.02567072128094052,39.213499999999996,-6.096,https://github.com/datadista/datasets/tree/master/COVID%2019,state,0.6274509803921569,Europe/Madrid,iso2:ES-EX,iso1:ES,iso2:ES-EX,,,
"Galicia, Spain",state,,,Galicia,Spain,6151,190,610,,5351,2703290,0.0913767321968267,42.792,-8.0175,https://github.com/datadista/datasets/tree/master/COVID%2019,state,0.6274509803921569,Europe/Madrid,iso2:ES-GA,iso1:ES,iso2:ES-GA,,,
"Community of Madrid, Spain",state,,,Community of Madrid,Spain,38723,5136,17322,,16265,6661949,0.8308463058477915,40.5255,-3.816,https://github.com/datadista/datasets/tree/master/COVID%2019,state,0.6274509803921569,Europe/Madrid,iso2:ES-MD,iso1:ES,iso2:ES-MD,,,
"Melilla, Spain",state,,,Melilla,Spain,86,2,11,,73,86487,10.845323228033424,35.296,-2.9495,https://github.com/datadista/datasets/tree/master/COVID%2019,state,0.6274509803921569,Africa/Ceuta,iso2:ES-ML,iso1:ES,iso2:ES-ML,,,
"Region of Murcia, Spain",state,,,Region of Murcia,Spain,1259,68,156,,1035,1478509,0.13067832778737692,38.065,-1.4955,https://github.com/datadista/datasets/tree/master/COVID%2019,state,0.6274509803921569,Europe/Madrid,iso2:ES-MC,iso1:ES,iso2:ES-MC,,,
"Navarre, Spain",state,,,Navarre,Spain,3231,187,380,,2664,647554,0.062326457961463695,42.6125,-1.6065,https://github.com/datadista/datasets/tree/master/COVID%2019,state,0.6274509803921569,Europe/Madrid,iso2:ES-NC,iso1:ES,iso2:ES-NC,,,
"Basque Country, Spain",state,,,Basque Country,Spain,8810,548,3568,,4694,2167707,0.29702276588216814,42.968,-2.59,https://github.com/datadista/datasets/tree/master/COVID%2019,state,0.6274509803921569,Europe/Madrid,iso2:ES-PV,iso1:ES,iso2:ES-PV,,,
"Rioja, Spain",state,,,Rioja,Spain,2719,141,964,,1614,315675,0.06251306213876895,42.281499999999994,-2.4065,https://github.com/datadista/datasets/tree/master/COVID%2019,state,0.6274509803921569,Europe/Madrid,iso2:ES-RI,iso1:ES,iso2:ES-RI,,,
Spain,country,,,,Spain,135032,13055,40437,,81540,46733038,0.09225117224677774,35.712,-6.925500000000001,https://github.com/datadista/datasets/tree/master/COVID%2019,state,0.5882352941176471,Etc/GMT,iso1:ES,iso1:ES,,,,
"Île-de-France, France",state,,,Île-de-France,France,,2355,5597,,,12246234,,48.677200741510504,2.5014494346077,https://raw.githubusercontent.com/opencovid19-fr/data/master/dist/chiffres-cles.csv,,0.47058823529411764,Europe/Paris,314,iso1:FR,,,,
"Centre-Val de Loire, France",state,,,Centre-Val de Loire,France,,132,329,,,2582522,,47.6441333322795,1.590863237499439,https://raw.githubusercontent.com/opencovid19-fr/data/master/dist/chiffres-cles.csv,,0.47058823529411764,Europe/Paris,315,iso1:FR,,,,
"Bourgogne-Franche-Comté, France",state,,,Bourgogne-Franche-Comté,France,,367,986,,,2813289,,47.2783252914275,4.99249435788615,https://raw.githubusercontent.com/opencovid19-fr/data/master/dist/chiffres-cles.csv,,0.47058823529411764,Europe/Paris,316,iso1:FR,,,,
"Normandie, France",state,,,Normandie,France,,127,338,,,3342467,,49.126225630674995,-0.07229962564034997,https://raw.githubusercontent.com/opencovid19-fr/data/master/dist/chiffres-cles.csv,,0.47058823529411764,Europe/Paris,317,iso1:FR,,,,
"Hauts-de-France, France",state,,,Hauts-de-France,France,,577,1219,,,6023336,,49.963169589436,2.81688101494355,https://raw.githubusercontent.com/opencovid19-fr/data/master/dist/chiffres-cles.csv,,0.47058823529411764,Europe/Paris,318,iso1:FR,,,,
"Grand Est, France",state,,,Grand Est,France,,1574,3115,,,5548090,,48.795257936556,5.80937857149355,https://raw.githubusercontent.com/opencovid19-fr/data/master/dist/chiffres-cles.csv,,0.47058823529411764,Europe/Paris,319,iso1:FR,,,,
"Pays de la Loire, France",state,,,Pays de la Loire,France,,134,456,,,3787411,,47.417280519696504,-0.822573383953075,https://raw.githubusercontent.com/opencovid19-fr/data/master/dist/chiffres-cles.csv,,0.47058823529411764,Europe/Paris,320,iso1:FR,,,,
"Bretagne, France",state,,,Bretagne,France,,88,296,,,3336643,,48.075240635677,-3.07744531834385,https://raw.githubusercontent.com/opencovid19-fr/data/master/dist/chiffres-cles.csv,,0.47058823529411764,Europe/Paris,321,iso1:FR,,,,
"Nouvelle-Aquitaine, France",state,,,Nouvelle-Aquitaine,France,,138,610,,,5994336,,44.976635108258,0.40994910693179987,https://raw.githubusercontent.com/opencovid19-fr/data/master/dist/chiffres-cles.csv,,0.47058823529411764,Europe/Paris,322,iso1:FR,,,,
"Occitanie, France",state,,,Occitanie,France,,172,803,,,5903190,,43.689961371314496,2.25923388136695,https://raw.githubusercontent.com/opencovid19-fr/data/master/dist/chiffres-cles.csv,,0.47058823529411764,Europe/Paris,323,iso1:FR,,,,
"Auvergne-Rhône-Alpes, France",state,,,Auvergne-Rhône-Alpes,France,,555,1866,,,8037059,,45.459794376849004,4.6235895980203,https://raw.githubusercontent.com/opencovid19-fr/data/master/dist/chiffres-cles.csv,,0.47058823529411764,Europe/Paris,324,iso1:FR,,,,
"Provence-Alpes-Côte d'Azur, France",state,,,Provence-Alpes-Côte d'Azur,France,,231,1383,,,5065723,,44.0544436063075,5.9736093715955,https://raw.githubusercontent.com/opencovid19-fr/data/master/dist/chiffres-cles.csv,,0.47058823529411764,Europe/Paris,325,iso1:FR,,,,
"Corse, France",state,,,Corse,France,,30,115,,,337796,,42.186944409099496,9.04966440635685,https://raw.githubusercontent.com/opencovid19-fr/data/master/dist/chiffres-cles.csv,,0.47058823529411764,Europe/Paris,326,iso1:FR,,,,
France,country,,,,France,74390,6494,17249,,50647,67118648,0.10159132523614102,2.304500000000001,6.709000000000003,https://raw.githubusercontent.com/opencovid19-fr/data/master/dist/chiffres-cles.csv,,0.47058823529411764,Etc/GMT,iso1:FR,iso1:FR,,,,
"Guadeloupe, France",state,,,Guadeloupe,France,,8,37,,,390253,,16.176466312683498,-61.404015738016,https://raw.githubusercontent.com/opencovid19-fr/data/master/dist/chiffres-cles.csv,,0.47058823529411764,America/Guadeloupe,328,iso1:FR,,,,
"Martinique, France",state,,,Martinique,France,,4,37,,,376480,,14.636421259678,-61.019989787163496,https://raw.githubusercontent.com/opencovid19-fr/data/master/dist/chiffres-cles.csv,,0.47058823529411764,America/Martinique,329,iso1:FR,,,,
"Guyane, France",state,,,Guyane,France,,0,6,,,290691,,3.93266119173895,-53.1138912280205,https://raw.githubusercontent.com/opencovid19-fr/data/master/dist/chiffres-cles.csv,,0.47058823529411764,America/Cayenne,330,iso1:FR,,,,
"La Réunion, France",state,,,La Réunion,France,,0,43,,,853659,,-21.130672550993502,55.526881838278,https://raw.githubusercontent.com/opencovid19-fr/data/master/dist/chiffres-cles.csv,,0.47058823529411764,Indian/Reunion,331,iso1:FR,,,,
"Mayotte, France",state,,,Mayotte,France,,2,13,,,270372,,-12.818387777882,45.158732839739,https://raw.githubusercontent.com/opencovid19-fr/data/master/dist/chiffres-cles.csv,,0.47058823529411764,Indian/Mayotte,332,iso1:FR,,,,
"Andhra Pradesh, India",state,,,Andhra Pradesh,India,266,0,3,,263,49577103,,16.249396063877242,80.74862206352185,https://www.mohfw.gov.in/,state,0.47058823529411764,Asia/Kolkata,333,iso1:IN,,,,
"Andaman and Nicobar Islands, India",state,,,Andaman and Nicobar Islands,India,10,0,0,,10,380520,,10.186102606000048,93.15277067000005,https://www.mohfw.gov.in/,state,0.47058823529411764,Etc/GMT-6,334,iso1:IN,,,,
"Arunachal Pradesh, India",state,,,Arunachal Pradesh,India,1,0,0,,1,,,28.008685410239444,94.46749434450007,https://www.mohfw.gov.in/,state,0.47058823529411764,Asia/Kolkata,335,iso1:IN,,,,
"Assam, India",state,,,Assam,India,26,0,0,,26,,,26.062905585424403,92.83251153003118,https://www.mohfw.gov.in/,state,0.47058823529411764,Asia/Kolkata,336,iso1:IN,,,,
"Bihar, India",state,,,Bihar,India,32,0,1,,31,104099452,,25.90844513275855,85.81024580290145,https://www.mohfw.gov.in/,state,0.47058823529411764,Asia/Kolkata,337,iso1:IN,,,,
"Chandigarh, India",state,,,Chandigarh,India,18,0,0,,18,1147494,,30.73326650694372,76.76552656449931,https://www.mohfw.gov.in/,state,0.47058823529411764,Asia/Kolkata,338,iso1:IN,,,,
"Chhattisgarh, India",state,,,Chhattisgarh,India,10,0,0,,10,25545198,,20.958152574281854,82.31128624906111,https://www.mohfw.gov.in/,state,0.47058823529411764,Asia/Kolkata,339,iso1:IN,,,,
"Delhi, India",state,,,Delhi,India,523,0,7,,516,16787941,,28.657346706984924,77.0872123548163,https://www.mohfw.gov.in/,state,0.47058823529411764,Asia/Kolkata,340,iso1:IN,,,,
"Goa, India",state,,,Goa,India,7,0,0,,7,1500000,,15.329739996534386,74.00107852529374,https://www.mohfw.gov.in/,state,0.47058823529411764,Asia/Kolkata,341,iso1:IN,,,,
"Gujarat, India",state,,,Gujarat,India,144,0,12,,132,60439692,,22.390503706309964,71.31093488914493,https://www.mohfw.gov.in/,state,0.47058823529411764,Asia/Kolkata,342,iso1:IN,,,,
"Haryana, India",state,,,Haryana,India,90,0,1,,89,25351462,,29.29344483126394,76.02577843622583,https://www.mohfw.gov.in/,state,0.47058823529411764,Asia/Kolkata,343,iso1:IN,,,,
"Himachal Pradesh, India",state,,,Himachal Pradesh,India,13,0,1,,12,6864602,,31.807193203503516,77.29748375836871,https://www.mohfw.gov.in/,state,0.47058823529411764,Asia/Kolkata,344,iso1:IN,,,,
"Jammu and Kashmir, India",state,,,Jammu and Kashmir,India,109,0,2,,107,12267032,,33.897996219547814,76.63741988100006,https://www.mohfw.gov.in/,state,0.47058823529411764,Asia/Kolkata,345,iso1:IN,,,,
"Jharkhand, India",state,,,Jharkhand,India,4,0,0,,4,,,23.667832139341755,85.61625247597095,https://www.mohfw.gov.in/,state,0.47058823529411764,Asia/Kolkata,346,iso1:IN,,,,
"Karnataka, India",state,,,Karnataka,India,151,0,4,,147,61095297,,15.04293223673335,76.32975935210584,https://www.mohfw.gov.in/,state,0.47058823529411764,Asia/Kolkata,347,iso1:IN,,,,
"Kerala, India",state,,,Kerala,India,327,0,2,,325,33406061,,10.525229553007051,76.12643659801603,https://www.mohfw.gov.in/,state,0.47058823529411764,Asia/Kolkata,348,iso1:IN,,,,
"Ladakh, India",state,,,Ladakh,India,14,0,0,,14,274000,,,,https://www.mohfw.gov.in/,state,0.47058823529411764,,,iso1:IN,,,,
"Madhya Pradesh, India",state,,,Madhya Pradesh,India,165,0,9,,156,72626809,,23.962930405963448,78.41705366399535,https://www.mohfw.gov.in/,state,0.47058823529411764,Asia/Kolkata,349,iso1:IN,,,,
"Maharashtra, India",state,,,Maharashtra,India,748,0,45,,703,112374333,,18.8277528956296,76.77199039033388,https://www.mohfw.gov.in/,state,0.47058823529411764,Asia/Kolkata,350,iso1:IN,,,,
"Manipur, India",state,,,Manipur,India,2,0,0,,2,3351200,,24.769062782021763,93.85202843938632,https://www.mohfw.gov.in/,state,0.47058823529411764,Asia/Kolkata,351,iso1:IN,,,,
"Mizoram, India",state,,,Mizoram,India,1,0,0,,1,1668800,,23.224332482374557,92.84258060700009,https://www.mohfw.gov.in/,state,0.47058823529411764,Asia/Kolkata,352,iso1:IN,,,,
"Odisha, India",state,,,Odisha,India,21,0,0,,21,41974218,,20.176843675645102,84.43570824513938,https://www.mohfw.gov.in/,state,0.47058823529411764,Asia/Kolkata,353,iso1:IN,,,,
"Puducherry, India",state,,,Puducherry,India,5,0,0,,5,1247953,,11.455302435772268,77.53475996200007,https://www.mohfw.gov.in/,state,0.47058823529411764,Asia/Kolkata,354,iso1:IN,,,,
"Punjab, India",state,,,Punjab,India,76,0,6,,70,27743338,,31.03926850074069,75.37832401215817,https://www.mohfw.gov.in/,state,0.47058823529411764,Asia/Kolkata,355,iso1:IN,,,,
"Rajasthan, India",state,,,Rajasthan,India,288,0,3,,285,68548437,,26.620069377799524,73.84407657553248,https://www.mohfw.gov.in/,state,0.47058823529411764,Asia/Kolkata,356,iso1:IN,,,,
"Tamil Nadu, India",state,,,Tamil Nadu,India,621,0,5,,616,72147030,,10.77222336758263,78.29429100910343,https://www.mohfw.gov.in/,state,0.47058823529411764,Asia/Kolkata,357,iso1:IN,,,,
"Telengana, India",state,,,Telengana,India,321,0,7,,314,35003674,,,,https://www.mohfw.gov.in/,state,0.47058823529411764,,,iso1:IN,,,,
"Tripura, India",state,,,Tripura,India,1,0,0,,1,,,23.762018549940088,91.7330880092961,https://www.mohfw.gov.in/,state,0.47058823529411764,Asia/Kolkata,358,iso1:IN,,,,
"Uttarakhand, India",state,,,Uttarakhand,India,31,0,0,,31,10086292,,30.085476993671897,79.29053999553955,https://www.mohfw.gov.in/,state,0.47058823529411764,Asia/Kolkata,359,iso1:IN,,,,
"Uttar Pradesh, India",state,,,Uttar Pradesh,India,305,0,3,,302,199812341,,27.152981167396916,80.83266849165753,https://www.mohfw.gov.in/,state,0.47058823529411764,Asia/Kolkata,360,iso1:IN,,,,
"West Bengal, India",state,,,West Bengal,India,91,0,3,,88,91276115,,24.402508335403155,87.85869957912226,https://www.mohfw.gov.in/,state,0.47058823529411764,Asia/Kolkata,361,iso1:IN,,,,
"Abruzzo, Italy",state,,,Abruzzo,Italy,1721,169,127,14198,1425,1308451,0.12105020934267803,42.2885,13.901,https://raw.githubusercontent.com/pcm-dpc/COVID-19/master/dati-regioni/dpc-covid19-ita-regioni.csv,state,0.7058823529411765,Europe/Rome,iso2:IT-65,iso1:IT,iso2:IT-65,,,
"Basilicata, Italy",state,,,Basilicata,Italy,287,13,12,3061,262,562869,0.056235856457855726,40.5185,16.101,https://raw.githubusercontent.com/pcm-dpc/COVID-19/master/dati-regioni/dpc-covid19-ita-regioni.csv,state,0.7058823529411765,Europe/Rome,iso2:IT-77,iso1:IT,iso2:IT-77,,,
"Calabria, Italy",state,,,Calabria,Italy,817,58,37,13633,722,1947131,0.1287157040191157,39.025499999999994,16.412,https://raw.githubusercontent.com/pcm-dpc/COVID-19/master/dati-regioni/dpc-covid19-ita-regioni.csv,state,0.7058823529411765,Europe/Rome,iso2:IT-78,iso1:IT,iso2:IT-78,,,
"Campania, Italy",state,,,Campania,Italy,3058,204,156,24526,2698,5786373,0.42410696803025344,40.7495,14.7795,https://raw.githubusercontent.com/pcm-dpc/COVID-19/master/dati-regioni/dpc-covid19-ita-regioni.csv,state,0.7058823529411765,Europe/Rome,iso2:IT-72,iso1:IT,iso2:IT-72,,,
"Emilia-Romagna, Italy",state,,,Emilia-Romagna,Italy,17556,2108,2397,72163,13051,4459477,0.1983431277368878,44.433,10.9755,https://raw.githubusercontent.com/pcm-dpc/COVID-19/master/dati-regioni/dpc-covid19-ita-regioni.csv,state,0.7058823529411765,Europe/Rome,iso2:IT-45,iso1:IT,iso2:IT-45,,,
"Friuli Venezia Giulia, Italy",state,,,Friuli Venezia Giulia,Italy,2103,158,549,22272,1396,1215220,0.15315877207300183,46.1165,13.11,https://raw.githubusercontent.com/pcm-dpc/COVID-19/master/dati-regioni/dpc-covid19-ita-regioni.csv,state,0.7058823529411765,Europe/Rome,iso2:IT-36,iso1:IT,iso2:IT-36,,,
"Lazio, Italy",state,,,Lazio,Italy,4031,229,502,47470,3300,5879082,0.3409956875322621,41.813,12.738,https://raw.githubusercontent.com/pcm-dpc/COVID-19/master/dati-regioni/dpc-covid19-ita-regioni.csv,state,0.7058823529411765,Europe/Rome,iso2:IT-62,iso1:IT,iso2:IT-62,,,
"Liguria, Italy",state,,,Liguria,Italy,4549,595,837,15533,3117,1550640,0.2855203867476758,44.226,8.783,https://raw.githubusercontent.com/pcm-dpc/COVID-19/master/dati-regioni/dpc-covid19-ita-regioni.csv,state,0.7058823529411765,Europe/Rome,iso2:IT-42,iso1:IT,iso2:IT-42,,,
"Lombardy, Italy",state,,,Lombardy,Italy,51534,9202,13863,154989,28469,10067494,0.42145550837568974,45.658,9.962,https://raw.githubusercontent.com/pcm-dpc/COVID-19/master/dati-regioni/dpc-covid19-ita-regioni.csv,state,0.7058823529411765,Europe/Rome,iso2:IT-25,iso1:IT,iso2:IT-25,,,
"Marche, Italy",state,,,Marche,Italy,4614,612,296,15919,3706,1522608,0.16202996656545732,43.32899999999999,13.051,https://raw.githubusercontent.com/pcm-dpc/COVID-19/master/dati-regioni/dpc-covid19-ita-regioni.csv,state,0.7058823529411765,Europe/Rome,iso2:IT-57,iso1:IT,iso2:IT-57,,,
"Molise, Italy",state,,,Molise,Italy,224,13,24,1546,187,304285,0.06823674310671105,41.717,14.5515,https://raw.githubusercontent.com/pcm-dpc/COVID-19/master/dati-regioni/dpc-covid19-ita-regioni.csv,state,0.7058823529411765,Europe/Rome,iso2:IT-67,iso1:IT,iso2:IT-67,,,
"Piemont, Italy",state,,,Piemont,Italy,12924,1251,1128,41123,10545,4356406,0.1716365713130244,45.2625,7.922000000000001,https://raw.githubusercontent.com/pcm-dpc/COVID-19/master/dati-regioni/dpc-covid19-ita-regioni.csv,state,0.7058823529411765,Europe/Rome,iso2:IT-21,iso1:IT,iso2:IT-21,,,
"Apulia, Italy",state,,,Apulia,Italy,2444,195,134,22059,2115,4029053,0.20792630196159387,41.01,16.7275,https://raw.githubusercontent.com/pcm-dpc/COVID-19/master/dati-regioni/dpc-covid19-ita-regioni.csv,state,0.7058823529411765,Europe/Rome,iso2:IT-75,iso1:IT,iso2:IT-75,,,
"Sardinia, Italy",state,,,Sardinia,Italy,922,47,56,7521,819,1639591,0.06796472760366998,40.084999999999994,8.9835,https://raw.githubusercontent.com/pcm-dpc/COVID-19/master/dati-regioni/dpc-covid19-ita-regioni.csv,state,0.7058823529411765,Europe/Rome,iso2:IT-88,iso1:IT,iso2:IT-88,,,
"Sicily, Italy",state,,,Sicily,Italy,2046,123,108,23464,1815,4983478,0.19337143936545292,37.156,13.789,https://raw.githubusercontent.com/pcm-dpc/COVID-19/master/dati-regioni/dpc-covid19-ita-regioni.csv,state,0.7058823529411765,Europe/Rome,iso2:IT-82,iso1:IT,iso2:IT-82,,,
"Tuscany, Italy",state,,,Tuscany,Italy,6001,350,350,52849,5301,3729641,0.1620195225392905,43.3625,11.029,https://raw.githubusercontent.com/pcm-dpc/COVID-19/master/dati-regioni/dpc-covid19-ita-regioni.csv,state,0.7058823529411765,Europe/Rome,iso2:IT-52,iso1:IT,iso2:IT-52,,,
"Trentino-Alto Adige/Südtirol, Italy",state,,,Trentino-Alto Adige/Südtirol,Italy,2348,230,280,11130,1838,1072276,0.07884066945346666,46.3825,11.431000000000001,https://raw.githubusercontent.com/pcm-dpc/COVID-19/master/dati-regioni/dpc-covid19-ita-regioni.csv,state,0.7058823529411765,Europe/Rome,iso2:IT-32,iso1:IT,iso2:IT-32,,,
"Umbria, Italy",state,,,Umbria,Italy,1253,44,337,12573,872,882015,0.10424062845963801,42.991,12.5795,https://raw.githubusercontent.com/pcm-dpc/COVID-19/master/dati-regioni/dpc-covid19-ita-regioni.csv,state,0.7058823529411765,Europe/Rome,iso2:IT-55,iso1:IT,iso2:IT-55,,,
"Aosta Valley, Italy",state,,,Aosta Valley,Italy,805,96,142,2590,567,125666,0.038486779490625365,45.7265,7.3705,https://raw.githubusercontent.com/pcm-dpc/COVID-19/master/dati-regioni/dpc-covid19-ita-regioni.csv,state,0.7058823529411765,Europe/Rome,iso2:IT-23,iso1:IT,iso2:IT-23,,,
"Veneto, Italy",state,,,Veneto,Italy,11588,662,1204,146288,9722,4905854,0.2675921431425096,45.736000000000004,11.865,https://raw.githubusercontent.com/pcm-dpc/COVID-19/master/dati-regioni/dpc-covid19-ita-regioni.csv,state,0.7058823529411765,Europe/Rome,iso2:IT-34,iso1:IT,iso2:IT-34,,,
Italy,country,,,,Italy,130825,16359,22539,704907,91927,60317000,0.19988407161481447,41.293499999999995,12.5735,https://raw.githubusercontent.com/pcm-dpc/COVID-19/master/dati-regioni/dpc-covid19-ita-regioni.csv,state,0.6666666666666666,Europe/Rome,iso1:IT,iso1:IT,,,,
"Seoul, South Korea",state,,,Seoul,South Korea,567,0,164,,403,9904312,,37.55513692947568,126.99357181183962,http://ncov.mohw.go.kr/en/bdBoardList.do?brdId=16&brdGubun=162&dataGubun=&ncvContSeq=&contSeq=&board_id=,state,0.45098039215686275,Asia/Seoul,383,iso1:KR,,,,
"Busan, South Korea",state,,,Busan,South Korea,123,3,91,,29,3448737,,35.173247707427976,129.08102570521902,http://ncov.mohw.go.kr/en/bdBoardList.do?brdId=16&brdGubun=162&dataGubun=&ncvContSeq=&contSeq=&board_id=,state,0.45098039215686275,Asia/Seoul,384,iso1:KR,,,,
"Daegu, South Korea",state,,,Daegu,South Korea,6794,134,4918,,1742,2466052,,35.8987264069481,128.61362796415915,http://ncov.mohw.go.kr/en/bdBoardList.do?brdId=16&brdGubun=162&dataGubun=&ncvContSeq=&contSeq=&board_id=,state,0.45098039215686275,Asia/Seoul,385,iso1:KR,,,,
"Incheon, South Korea",state,,,Incheon,South Korea,80,0,27,,53,2890451,,37.46453840297093,126.57565862368335,http://ncov.mohw.go.kr/en/bdBoardList.do?brdId=16&brdGubun=162&dataGubun=&ncvContSeq=&contSeq=&board_id=,state,0.45098039215686275,Asia/Seoul,386,iso1:KR,,,,
"Gwangju, South Korea",state,,,Gwangju,South Korea,27,0,15,,12,1502881,,35.194428311317495,126.90422326049503,http://ncov.mohw.go.kr/en/bdBoardList.do?brdId=16&brdGubun=162&dataGubun=&ncvContSeq=&contSeq=&board_id=,state,0.45098039215686275,Asia/Seoul,387,iso1:KR,,,,
"Daejeon, South Korea",state,,,Daejeon,South Korea,39,0,20,,19,1538394,,36.35613779232523,127.35063280940653,http://ncov.mohw.go.kr/en/bdBoardList.do?brdId=16&brdGubun=162&dataGubun=&ncvContSeq=&contSeq=&board_id=,state,0.45098039215686275,Asia/Seoul,388,iso1:KR,,,,
"Ulsan, South Korea",state,,,Ulsan,South Korea,40,1,28,,11,1166615,,35.490817611035965,129.2337717697954,http://ncov.mohw.go.kr/en/bdBoardList.do?brdId=16&brdGubun=162&dataGubun=&ncvContSeq=&contSeq=&board_id=,state,0.45098039215686275,Asia/Seoul,389,iso1:KR,,,,
"Sejong, South Korea",state,,,Sejong,South Korea,46,0,17,,29,204088,,36.5739072336319,127.22270511305044,http://ncov.mohw.go.kr/en/bdBoardList.do?brdId=16&brdGubun=162&dataGubun=&ncvContSeq=&contSeq=&board_id=,state,0.45098039215686275,Asia/Seoul,390,iso1:KR,,,,
"Gyeonggi, South Korea",state,,,Gyeonggi,South Korea,590,7,226,,357,12239862,,37.54598795453046,127.10036563469203,http://ncov.mohw.go.kr/en/bdBoardList.do?brdId=16&brdGubun=162&dataGubun=&ncvContSeq=&contSeq=&board_id=,state,0.45098039215686275,Asia/Seoul,391,iso1:KR,,,,
"Gangwon, South Korea",state,,,Gangwon,South Korea,47,1,24,,22,1549780,,37.62048981300006,128.21863332728725,http://ncov.mohw.go.kr/en/bdBoardList.do?brdId=16&brdGubun=162&dataGubun=&ncvContSeq=&contSeq=&board_id=,state,0.45098039215686275,Asia/Seoul,392,iso1:KR,,,,
"North Chungcheong, South Korea",state,,,North Chungcheong,South Korea,45,0,29,,16,1588633,,36.58900726986957,127.93098229369787,http://ncov.mohw.go.kr/en/bdBoardList.do?brdId=16&brdGubun=162&dataGubun=&ncvContSeq=&contSeq=&board_id=,state,0.45098039215686275,Asia/Seoul,393,iso1:KR,,,,
"South Chungcheong, South Korea",state,,,South Chungcheong,South Korea,137,0,104,,33,2064665,,36.490061124850655,126.8749815200755,http://ncov.mohw.go.kr/en/bdBoardList.do?brdId=16&brdGubun=162&dataGubun=&ncvContSeq=&contSeq=&board_id=,state,0.45098039215686275,Asia/Seoul,394,iso1:KR,,,,
"North Jeolla, South Korea",state,,,North Jeolla,South Korea,16,0,7,,9,1895882,,35.70462972633078,127.16605044961278,http://ncov.mohw.go.kr/en/bdBoardList.do?brdId=16&brdGubun=162&dataGubun=&ncvContSeq=&contSeq=&board_id=,state,0.45098039215686275,Asia/Seoul,395,iso1:KR,,,,
"South Jeolla, South Korea",state,,,South Jeolla,South Korea,15,0,4,,11,1938136,,34.87712209728434,126.96036184538531,http://ncov.mohw.go.kr/en/bdBoardList.do?brdId=16&brdGubun=162&dataGubun=&ncvContSeq=&contSeq=&board_id=,state,0.45098039215686275,Asia/Seoul,396,iso1:KR,,,,
"North Gyeongsang, South Korea",state,,,North Gyeongsang,South Korea,1317,46,934,,337,2739179,,36.31153066655699,128.69361636698187,http://ncov.mohw.go.kr/en/bdBoardList.do?brdId=16&brdGubun=162&dataGubun=&ncvContSeq=&contSeq=&board_id=,state,0.45098039215686275,Asia/Seoul,397,iso1:KR,,,,
"South Gyeongsang, South Korea",state,,,South Gyeongsang,South Korea,112,0,80,,32,3374725,,35.29773061758908,128.44314882752573,http://ncov.mohw.go.kr/en/bdBoardList.do?brdId=16&brdGubun=162&dataGubun=&ncvContSeq=&contSeq=&board_id=,state,0.45098039215686275,Asia/Seoul,398,iso1:KR,,,,
"Jeju, South Korea",state,,,Jeju,South Korea,12,0,4,,8,583284,,33.38209086900005,126.55872643350006,http://ncov.mohw.go.kr/en/bdBoardList.do?brdId=16&brdGubun=162&dataGubun=&ncvContSeq=&contSeq=&board_id=,state,0.45098039215686275,Asia/Seoul,399,iso1:KR,,,,
"(unassigned), South Korea",state,,,(unassigned),South Korea,324,0,2,,322,,,,,http://ncov.mohw.go.kr/en/bdBoardList.do?brdId=16&brdGubun=162&dataGubun=&ncvContSeq=&contSeq=&board_id=,state,0.45098039215686275,,,iso1:KR,,,,
New Zealand,country,,,,New Zealand,943,1,241,,701,4942500,0.018409458505419977,-40.881,0.8239999999999981,https://www.health.govt.nz/our-work/diseases-and-conditions/covid-19-novel-coronavirus/covid-19-current-situation/covid-19-current-cases,,0.3137254901960784,Etc/GMT,iso1:NZ,iso1:NZ,,,12,
Puerto Rico,country,,,,Puerto Rico,513,21,,4951,,3411307,0.38103778563998625,18.1995,-66.589,http://salud.gov.pr/Pages/coronavirus.aspx,,0.29411764705882354,America/Puerto_Rico,iso1:PR,iso1:PR,,,,
"Алтайский край, Russia",state,,,Алтайский край,Russia,12,0,0,,12,2317052,,52.56088896735193,82.4798643972741,https://yandex.ru/maps/api/covid?csrfToken=,state,0.49019607843137253,Asia/Barnaul,402,iso1:RU,,,,
"Амурская область, Russia",state,,,Амурская область,Russia,4,0,0,,4,790676,,52.94829335874619,127.31298384038189,https://yandex.ru/maps/api/covid?csrfToken=,state,0.49019607843137253,Asia/Yakutsk,403,iso1:RU,,,,
"Архангельская область, Russia",state,,,Архангельская область,Russia,14,0,3,,11,1092277,,71.25419668220843,52.40648013605133,https://yandex.ru/maps/api/covid?csrfToken=,state,0.49019607843137253,Europe/Moscow,404,iso1:RU,,,,
"Астраханская область, Russia",state,,,Астраханская область,Russia,5,0,0,,5,1005967,,47.217078355467635,47.10724671439908,https://yandex.ru/maps/api/covid?csrfToken=,state,0.49019607843137253,Europe/Astrakhan,405,iso1:RU,,,,
"Белгородская область, Russia",state,,,Белгородская область,Russia,11,0,0,,11,1547532,,50.611976016414836,37.257911820915325,https://yandex.ru/maps/api/covid?csrfToken=,state,0.49019607843137253,Europe/Moscow,406,iso1:RU,,,,
"Брянская область, Russia",state,,,Брянская область,Russia,24,0,0,,24,1192570,,52.92660191489801,33.2805060190266,https://yandex.ru/maps/api/covid?csrfToken=,state,0.49019607843137253,Europe/Moscow,407,iso1:RU,,,,
"Владимирская область, Russia",state,,,Владимирская область,Russia,5,1,0,,4,1358538,,55.9653568590318,40.61775882331102,https://yandex.ru/maps/api/covid?csrfToken=,state,0.49019607843137253,Europe/Moscow,408,iso1:RU,,,,
"Волгоградская область, Russia",state,,,Волгоградская область,Russia,15,0,1,,14,2491751,,49.34476614034509,44.301002410981965,https://yandex.ru/maps/api/covid?csrfToken=,state,0.49019607843137253,Europe/Volgograd,409,iso1:RU,,,,
"Вологодская область, Russia",state,,,Вологодская область,Russia,23,0,0,,23,1160721,,60.04233022695837,40.921719597981024,https://yandex.ru/maps/api/covid?csrfToken=,state,0.49019607843137253,Europe/Moscow,410,iso1:RU,,,,
"Воронежская область, Russia",state,,,Воронежская область,Russia,23,0,4,,19,2323657,,50.82018036194679,40.54008914549763,https://yandex.ru/maps/api/covid?csrfToken=,state,0.49019607843137253,Europe/Moscow,411,iso1:RU,,,,
"Еврейская автономная область, Russia",state,,,Еврейская автономная область,Russia,3,0,0,,3,158381,,48.57703562786032,132.75993778190755,https://yandex.ru/maps/api/covid?csrfToken=,state,0.49019607843137253,Asia/Vladivostok,412,iso1:RU,,,,
"Забайкальский край, Russia",state,,,Забайкальский край,Russia,1,0,1,,0,1059657,,53.76782989901964,114.93598067831564,https://yandex.ru/maps/api/covid?csrfToken=,state,0.49019607843137253,Asia/Chita,413,iso1:RU,,,,
"Ивановская область, Russia",state,,,Ивановская область,Russia,33,0,1,,32,997196,,57.059127305630625,41.5570813335367,https://yandex.ru/maps/api/covid?csrfToken=,state,0.49019607843137253,Europe/Moscow,414,iso1:RU,,,,
"Иркутская область, Russia",state,,,Иркутская область,Russia,11,0,0,,11,2390827,,57.70678803189213,107.40531009328615,https://yandex.ru/maps/api/covid?csrfToken=,state,0.49019607843137253,Asia/Irkutsk,415,iso1:RU,,,,
"Кабардино-Балкарская Республика, Russia",state,,,Кабардино-Балкарская Республика,Russia,8,0,0,,8,868174,,43.44054826788823,43.39782079804138,https://yandex.ru/maps/api/covid?csrfToken=,state,0.49019607843137253,Europe/Moscow,416,iso1:RU,,,,
"Калининградская область, Russia",state,,,Калининградская область,Russia,19,0,5,,14,1012253,,54.81279754841499,21.221198564000076,https://yandex.ru/maps/api/covid?csrfToken=,state,0.49019607843137253,Europe/Kaliningrad,417,iso1:RU,,,,
"Калужская область, Russia",state,,,Калужская область,Russia,7,0,1,,6,1000070,,54.29542003021021,35.38014570536001,https://yandex.ru/maps/api/covid?csrfToken=,state,0.49019607843137253,Europe/Moscow,418,iso1:RU,,,,
"Камчатский край, Russia",state,,,Камчатский край,Russia,2,0,0,,2,312438,,57.908945618725426,165.0098144713644,https://yandex.ru/maps/api/covid?csrfToken=,state,0.49019607843137253,Etc/GMT-11,419,iso1:RU,,,,
"Кемеровская область, Russia",state,,,Кемеровская область,Russia,5,0,2,,3,2657758,,54.50048503315773,86.92687015138634,https://yandex.ru/maps/api/covid?csrfToken=,state,0.49019607843137253,Asia/Novokuznetsk,420,iso1:RU,,,,
"Кировская область, Russia",state,,,Кировская область,Russia,18,0,3,,15,1262549,,58.579512539871786,50.131648390410874,https://yandex.ru/maps/api/covid?csrfToken=,state,0.49019607843137253,Europe/Kirov,421,iso1:RU,,,,
"Костромская область, Russia",state,,,Костромская область,Russia,9,1,0,,8,633392,,58.45444265380539,43.993676792350044,https://yandex.ru/maps/api/covid?csrfToken=,state,0.49019607843137253,Europe/Moscow,422,iso1:RU,,,,
"Краснодарский край, Russia",state,,,Краснодарский край,Russia,50,0,8,,42,5677786,,45.125972212745225,39.16124006450244,https://yandex.ru/maps/api/covid?csrfToken=,state,0.49019607843137253,Europe/Moscow,423,iso1:RU,,,,
"Красноярский край, Russia",state,,,Красноярский край,Russia,32,0,5,,27,2867875,,66.5351217717118,95.03223717550006,https://yandex.ru/maps/api/covid?csrfToken=,state,0.49019607843137253,Asia/Krasnoyarsk,424,iso1:RU,,,,
"Курганская область, Russia",state,,,Курганская область,Russia,2,0,1,,1,826941,,55.50209433754868,65.35707555947121,https://yandex.ru/maps/api/covid?csrfToken=,state,0.49019607843137253,Asia/Yekaterinburg,425,iso1:RU,,,,
"Курская область, Russia",state,,,Курская область,Russia,4,0,0,,4,1103059,,51.659870307068985,36.26887658416072,https://yandex.ru/maps/api/covid?csrfToken=,state,0.49019607843137253,Europe/Moscow,426,iso1:RU,,,,
"Ленинградская область, Russia",state,,,Ленинградская область,Russia,62,0,1,,61,1876392,,59.880169583309595,31.690953920473945,https://yandex.ru/maps/api/covid?csrfToken=,state,0.49019607843137253,Europe/Moscow,427,iso1:RU,,,,
"Липецкая область, Russia",state,,,Липецкая область,Russia,26,0,4,,22,1139492,,52.73360321726463,39.21200483550473,https://yandex.ru/maps/api/covid?csrfToken=,state,0.49019607843137253,Europe/Moscow,428,iso1:RU,,,,
"Магаданская область, Russia",state,,,Магаданская область,Russia,1,0,0,,1,140199,,62.60417145339284,154.0896956729169,https://yandex.ru/maps/api/covid?csrfToken=,state,0.49019607843137253,Asia/Magadan,429,iso1:RU,,,,
"Москва, Russia",state,,,Москва,Russia,4484,29,206,,4249,12692466,,55.44724463183428,37.37360600816072,https://yandex.ru/maps/api/covid?csrfToken=,state,0.49019607843137253,Europe/Moscow,430,iso1:RU,,,,
"Московская область, Russia",state,,,Московская область,Russia,387,3,34,,350,7687647,,55.594087530914805,37.69028893423692,https://yandex.ru/maps/api/covid?csrfToken=,state,0.49019607843137253,Europe/Moscow,431,iso1:RU,,,,
"Мурманская область, Russia",state,,,Мурманская область,Russia,18,0,1,,17,741511,,68.00938548400006,34.90373905100009,https://yandex.ru/maps/api/covid?csrfToken=,state,0.49019607843137253,Europe/Moscow,432,iso1:RU,,,,
"Нижегородская область, Russia",state,,,Нижегородская область,Russia,56,0,4,,52,3203818,,56.278012193807655,44.77275068549571,https://yandex.ru/maps/api/covid?csrfToken=,state,0.49019607843137253,Europe/Moscow,433,iso1:RU,,,,
"Новгородская область, Russia",state,,,Новгородская область,Russia,5,0,0,,5,596173,,58.17642344813359,32.91590335475601,https://yandex.ru/maps/api/covid?csrfToken=,state,0.49019607843137253,Europe/Moscow,434,iso1:RU,,,,
"Новосибирская область, Russia",state,,,Новосибирская область,Russia,11,0,2,,9,2798251,,55.288846533540664,80.08842451353044,https://yandex.ru/maps/api/covid?csrfToken=,state,0.49019607843137253,Asia/Novosibirsk,435,iso1:RU,,,,
"Омская область, Russia",state,,,Омская область,Russia,10,0,0,,10,1926562,,56.014791818937255,73.36966149263375,https://yandex.ru/maps/api/covid?csrfToken=,state,0.49019607843137253,Asia/Omsk,436,iso1:RU,,,,
"Оренбургская область, Russia",state,,,Оренбургская область,Russia,14,1,1,,12,1956256,,52.42594798177135,56.20663392436609,https://yandex.ru/maps/api/covid?csrfToken=,state,0.49019607843137253,Asia/Yekaterinburg,437,iso1:RU,,,,
"Орловская область, Russia",state,,,Орловская область,Russia,7,0,0,,7,733682,,52.79009847666333,36.42168419751766,https://yandex.ru/maps/api/covid?csrfToken=,state,0.49019607843137253,Europe/Moscow,438,iso1:RU,,,,
"Пензенская область, Russia",state,,,Пензенская область,Russia,32,1,1,,30,1304825,,53.16538564742967,44.538553094549655,https://yandex.ru/maps/api/covid?csrfToken=,state,0.49019607843137253,Europe/Moscow,439,iso1:RU,,,,
"Пермский край, Russia",state,,,Пермский край,Russia,21,2,3,,16,2599301,,58.89513926886215,55.62097741027924,https://yandex.ru/maps/api/covid?csrfToken=,state,0.49019607843137253,Asia/Yekaterinburg,440,iso1:RU,,,,
"Приморский край, Russia",state,,,Приморский край,Russia,7,1,2,,4,1895305,,45.36984996141917,134.7167686551439,https://yandex.ru/maps/api/covid?csrfToken=,state,0.49019607843137253,Asia/Vladivostok,441,iso1:RU,,,,
"Псковская область, Russia",state,,,Псковская область,Russia,10,2,3,,5,626046,,57.29607624962487,29.42523746466557,https://yandex.ru/maps/api/covid?csrfToken=,state,0.49019607843137253,Europe/Moscow,442,iso1:RU,,,,
"Республика Адыгея, Russia",state,,,Республика Адыгея,Russia,13,0,0,,13,463453,,44.47209198665581,39.676369256436004,https://yandex.ru/maps/api/covid?csrfToken=,state,0.49019607843137253,Europe/Moscow,443,iso1:RU,,,,
"Республика Башкортостан, Russia",state,,,Республика Башкортостан,Russia,10,0,5,,5,4037811,,54.04502187745766,56.56066165526113,https://yandex.ru/maps/api/covid?csrfToken=,state,0.49019607843137253,Asia/Yekaterinburg,444,iso1:RU,,,,
"Республика Бурятия, Russia",state,,,Республика Бурятия,Russia,43,0,0,,43,986109,,53.60371260690127,107.78094607959787,https://yandex.ru/maps/api/covid?csrfToken=,state,0.49019607843137253,Asia/Irkutsk,445,iso1:RU,,,,
"Республика Дагестан, Russia",state,,,Республика Дагестан,Russia,30,0,4,,26,3111353,,43.09894854938602,46.85152408187915,https://yandex.ru/maps/api/covid?csrfToken=,state,0.49019607843137253,Europe/Moscow,446,iso1:RU,,,,
"Республика Ингушетия, Russia",state,,,Республика Ингушетия,Russia,1,0,0,,1,506688,,43.14869771655038,44.835279168249,https://yandex.ru/maps/api/covid?csrfToken=,state,0.49019607843137253,Europe/Moscow,447,iso1:RU,,,,
"Республика Калмыкия, Russia",state,,,Республика Калмыкия,Russia,7,0,0,,7,271035,,46.50346660390062,44.59612613267237,https://yandex.ru/maps/api/covid?csrfToken=,state,0.49019607843137253,Europe/Moscow,448,iso1:RU,,,,
"Республика Карелия, Russia",state,,,Республика Карелия,Russia,2,0,0,,2,614628,,63.66492564570197,33.60183197741381,https://yandex.ru/maps/api/covid?csrfToken=,state,0.49019607843137253,Europe/Moscow,449,iso1:RU,,,,
"Республика Коми, Russia",state,,,Республика Коми,Russia,90,3,1,,86,820171,,63.8317630077066,55.824065789704406,https://yandex.ru/maps/api/covid?csrfToken=,state,0.49019607843137253,Europe/Moscow,450,iso1:RU,,,,
"Республика Крым, Russia",state,,,Республика Крым,Russia,21,0,6,,15,1912025,,45.289353574844,34.563202345000064,https://yandex.ru/maps/api/covid?csrfToken=,state,0.49019607843137253,Europe/Simferopol,451,iso1:RU,,,,
