city,county,state,country,cases,deaths,recovered,tested,active,population,lat,long,url,rating,featureId,aggregate
,Illinois County,IL,USA,0,,,0,0,,,,http://www.dph.illinois.gov/sites/default/files/COVID19/COVID19CountyResults.json,0.43902439024390244,,
,Chicago County,IL,USA,0,,,0,0,,,,http://www.dph.illinois.gov/sites/default/files/COVID19/COVID19CountyResults.json,0.43902439024390244,,
,Suburban Cook County,IL,USA,0,,,0,0,,,,http://www.dph.illinois.gov/sites/default/files/COVID19/COVID19CountyResults.json,0.43902439024390244,,
,Adams County,IL,USA,0,,,0,0,65691,39.9787775,-91.212524,http://www.dph.illinois.gov/sites/default/files/COVID19/COVID19CountyResults.json,0.43902439024390244,0,
,Alexander County,IL,USA,0,,,0,0,6060,37.1527035,-89.32553899999999,http://www.dph.illinois.gov/sites/default/files/COVID19/COVID19CountyResults.json,0.43902439024390244,1,
,Bond County,IL,USA,0,,,0,0,16630,38.884501,-89.4448145,http://www.dph.illinois.gov/sites/default/files/COVID19/COVID19CountyResults.json,0.43902439024390244,2,
,Boone County,IL,USA,0,,,0,0,53577,42.323683,-88.822878,http://www.dph.illinois.gov/sites/default/files/COVID19/COVID19CountyResults.json,0.43902439024390244,3,
,Brown County,IL,USA,0,,,0,0,6556,39.971889000000004,-90.71462349999999,http://www.dph.illinois.gov/sites/default/files/COVID19/COVID19CountyResults.json,0.43902439024390244,4,
,Bureau County,IL,USA,0,,,0,0,32993,41.3669235,-89.51302799999999,http://www.dph.illinois.gov/sites/default/files/COVID19/COVID19CountyResults.json,0.43902439024390244,5,
,Calhoun County,IL,USA,0,,,0,0,4802,39.134271999999996,-90.693794,http://www.dph.illinois.gov/sites/default/files/COVID19/COVID19CountyResults.json,0.43902439024390244,6,
,Carroll County,IL,USA,0,,,0,0,14312,42.0640145,-90.0009245,http://www.dph.illinois.gov/sites/default/files/COVID19/COVID19CountyResults.json,0.43902439024390244,7,
,Cass County,IL,USA,0,,,0,0,12260,39.9982515,-90.28896950000001,http://www.dph.illinois.gov/sites/default/files/COVID19/COVID19CountyResults.json,0.43902439024390244,8,
,Champaign County,IL,USA,1,,,0,1,209983,40.139787999999996,-88.19621000000001,http://www.dph.illinois.gov/sites/default/files/COVID19/COVID19CountyResults.json,0.43902439024390244,9,
,Christian County,IL,USA,0,,,0,0,32661,39.583156,-89.2802045,http://www.dph.illinois.gov/sites/default/files/COVID19/COVID19CountyResults.json,0.43902439024390244,10,
,Clark County,IL,USA,0,,,0,0,15596,39.322432500000005,-87.77278000000001,http://www.dph.illinois.gov/sites/default/files/COVID19/COVID19CountyResults.json,0.43902439024390244,11,
,Clay County,IL,USA,0,,,0,0,13253,38.7574025,-88.4735945,http://www.dph.illinois.gov/sites/default/files/COVID19/COVID19CountyResults.json,0.43902439024390244,12,
,Clinton County,IL,USA,1,,,0,1,37639,38.579451500000005,-89.4227085,http://www.dph.illinois.gov/sites/default/files/COVID19/COVID19CountyResults.json,0.43902439024390244,13,
,Coles County,IL,USA,0,,,0,0,50885,39.530221499999996,-88.216126,http://www.dph.illinois.gov/sites/default/files/COVID19/COVID19CountyResults.json,0.43902439024390244,14,
,Cook County,IL,USA,77,,,0,77,5180493,41.811950499999995,-87.893711,http://www.dph.illinois.gov/sites/default/files/COVID19/COVID19CountyResults.json,0.43902439024390244,15,
,Crawford County,IL,USA,0,,,0,0,18807,39.014365999999995,-87.731286,http://www.dph.illinois.gov/sites/default/files/COVID19/COVID19CountyResults.json,0.43902439024390244,16,
,Cumberland County,IL,USA,1,,,0,1,10808,39.275043,-88.2394565,http://www.dph.illinois.gov/sites/default/files/COVID19/COVID19CountyResults.json,0.43902439024390244,17,
,DeKalb County,IL,USA,0,,,0,0,104143,41.8909545,-88.765222,http://www.dph.illinois.gov/sites/default/files/COVID19/COVID19CountyResults.json,0.43902439024390244,18,
,De Witt County,IL,USA,0,,,0,0,15769,40.1658715,-88.8618245,http://www.dph.illinois.gov/sites/default/files/COVID19/COVID19CountyResults.json,0.43902439024390244,19,
,Douglas County,IL,USA,0,,,0,0,19479,39.7656955,-88.2051055,http://www.dph.illinois.gov/sites/default/files/COVID19/COVID19CountyResults.json,0.43902439024390244,20,
,DuPage County,IL,USA,5,,,0,5,928589,41.8397805,-88.0886665,http://www.dph.illinois.gov/sites/default/files/COVID19/COVID19CountyResults.json,0.43902439024390244,21,
,Edgar County,IL,USA,0,,,0,0,17360,39.679879,-87.750202,http://www.dph.illinois.gov/sites/default/files/COVID19/COVID19CountyResults.json,0.43902439024390244,22,
,Edwards County,IL,USA,0,,,0,0,6392,38.4129205,-88.0448,http://www.dph.illinois.gov/sites/default/files/COVID19/COVID19CountyResults.json,0.43902439024390244,23,
,Effingham County,IL,USA,0,,,0,0,34208,39.063554999999994,-88.58372399999999,http://www.dph.illinois.gov/sites/default/files/COVID19/COVID19CountyResults.json,0.43902439024390244,24,
,Fayette County,IL,USA,0,,,0,0,21416,38.977119,-88.9754655,http://www.dph.illinois.gov/sites/default/files/COVID19/COVID19CountyResults.json,0.43902439024390244,25,
,Ford County,IL,USA,0,,,0,0,13264,40.698344500000005,-88.1958575,http://www.dph.illinois.gov/sites/default/files/COVID19/COVID19CountyResults.json,0.43902439024390244,26,
,Franklin County,IL,USA,0,,,0,0,38701,37.993596999999994,-88.9411015,http://www.dph.illinois.gov/sites/default/files/COVID19/COVID19CountyResults.json,0.43902439024390244,27,
,Fulton County,IL,USA,0,,,0,0,34844,40.449306,-90.1619825,http://www.dph.illinois.gov/sites/default/files/COVID19/COVID19CountyResults.json,0.43902439024390244,28,
,Gallatin County,IL,USA,0,,,0,0,5058,37.744911,-88.20168100000001,http://www.dph.illinois.gov/sites/default/files/COVID19/COVID19CountyResults.json,0.43902439024390244,29,
,Greene County,IL,USA,0,,,0,0,13044,39.31966,-90.3851795,http://www.dph.illinois.gov/sites/default/files/COVID19/COVID19CountyResults.json,0.43902439024390244,30,
,Grundy County,IL,USA,0,,,0,0,50972,41.285694500000005,-88.4184245,http://www.dph.illinois.gov/sites/default/files/COVID19/COVID19CountyResults.json,0.43902439024390244,31,
,Hamilton County,IL,USA,0,,,0,0,8163,38.081728999999996,-88.5385565,http://www.dph.illinois.gov/sites/default/files/COVID19/COVID19CountyResults.json,0.43902439024390244,32,
,Hancock County,IL,USA,0,,,0,0,17844,40.4161445,-91.2057425,http://www.dph.illinois.gov/sites/default/files/COVID19/COVID19CountyResults.json,0.43902439024390244,33,
,Hardin County,IL,USA,0,,,0,0,3910,37.5007875,-88.2382205,http://www.dph.illinois.gov/sites/default/files/COVID19/COVID19CountyResults.json,0.43902439024390244,34,
,Henderson County,IL,USA,0,,,0,0,6709,40.852598,-90.985311,http://www.dph.illinois.gov/sites/default/files/COVID19/COVID19CountyResults.json,0.43902439024390244,35,
,Henry County,IL,USA,0,,,0,0,49090,41.366804,-90.147138,http://www.dph.illinois.gov/sites/default/files/COVID19/COVID19CountyResults.json,0.43902439024390244,36,
,Iroquois County,IL,USA,0,,,0,0,27604,40.7479615,-87.8288605,http://www.dph.illinois.gov/sites/default/files/COVID19/COVID19CountyResults.json,0.43902439024390244,37,
,Jackson County,IL,USA,0,,,0,0,57419,37.7586175,-89.4158765,http://www.dph.illinois.gov/sites/default/files/COVID19/COVID19CountyResults.json,0.43902439024390244,38,
,Jasper County,IL,USA,0,,,0,0,9611,39.0112015,-88.1538415,http://www.dph.illinois.gov/sites/default/files/COVID19/COVID19CountyResults.json,0.43902439024390244,39,
,Jefferson County,IL,USA,0,,,0,0,37820,38.300858,-88.92435,http://www.dph.illinois.gov/sites/default/files/COVID19/COVID19CountyResults.json,0.43902439024390244,40,
,Jersey County,IL,USA,0,,,0,0,21847,39.0926805,-90.37477999999999,http://www.dph.illinois.gov/sites/default/files/COVID19/COVID19CountyResults.json,0.43902439024390244,41,
,Jo Daviess County,IL,USA,0,,,0,0,21366,42.3509385,-90.288092,http://www.dph.illinois.gov/sites/default/files/COVID19/COVID19CountyResults.json,0.43902439024390244,42,
,Johnson County,IL,USA,0,,,0,0,12456,37.447419999999994,-88.8766665,http://www.dph.illinois.gov/sites/default/files/COVID19/COVID19CountyResults.json,0.43902439024390244,43,
,Kane County,IL,USA,3,,,0,3,534216,41.9369435,-88.419968,http://www.dph.illinois.gov/sites/default/files/COVID19/COVID19CountyResults.json,0.43902439024390244,44,
,Kankakee County,IL,USA,0,,,0,0,110024,41.146305999999996,-87.889151,http://www.dph.illinois.gov/sites/default/files/COVID19/COVID19CountyResults.json,0.43902439024390244,45,
,Kendall County,IL,USA,0,,,0,0,127915,41.590843,-88.42785900000001,http://www.dph.illinois.gov/sites/default/files/COVID19/COVID19CountyResults.json,0.43902439024390244,46,
,Knox County,IL,USA,0,,,0,0,50112,40.9317725,-90.214451,http://www.dph.illinois.gov/sites/default/files/COVID19/COVID19CountyResults.json,0.43902439024390244,47,
,Lake County,IL,USA,5,,,0,5,700832,42.324290500000004,-87.9794555,http://www.dph.illinois.gov/sites/default/files/COVID19/COVID19CountyResults.json,0.43902439024390244,48,
,LaSalle County,IL,USA,0,,,0,0,109430,41.278569000000005,-88.87672,http://www.dph.illinois.gov/sites/default/files/COVID19/COVID19CountyResults.json,0.43902439024390244,49,
,Lawrence County,IL,USA,0,,,0,0,15765,38.7103305,-87.70438999999999,http://www.dph.illinois.gov/sites/default/files/COVID19/COVID19CountyResults.json,0.43902439024390244,50,
,Lee County,IL,USA,0,,,0,0,34223,41.746,-89.285056,http://www.dph.illinois.gov/sites/default/files/COVID19/COVID19CountyResults.json,0.43902439024390244,51,
,Livingston County,IL,USA,0,,,0,0,35761,40.8653895,-88.5831695,http://www.dph.illinois.gov/sites/default/files/COVID19/COVID19CountyResults.json,0.43902439024390244,52,
,Logan County,IL,USA,0,,,0,0,28925,40.121167,-89.37321800000001,http://www.dph.illinois.gov/sites/default/files/COVID19/COVID19CountyResults.json,0.43902439024390244,53,
,McDonough County,IL,USA,0,,,0,0,29955,40.457768,-90.67763099999999,http://www.dph.illinois.gov/sites/default/files/COVID19/COVID19CountyResults.json,0.43902439024390244,54,
,McHenry County,IL,USA,2,,,0,2,308570,42.3247895,-88.45306400000001,http://www.dph.illinois.gov/sites/default/files/COVID19/COVID19CountyResults.json,0.43902439024390244,55,
,McLean County,IL,USA,0,,,0,0,172828,40.519263499999994,-88.86443249999999,http://www.dph.illinois.gov/sites/default/files/COVID19/COVID19CountyResults.json,0.43902439024390244,56,
,Macon County,IL,USA,0,,,0,0,104712,39.854206500000004,-88.981505,http://www.dph.illinois.gov/sites/default/files/COVID19/COVID19CountyResults.json,0.43902439024390244,57,
,Macoupin County,IL,USA,0,,,0,0,45313,39.2609155,-89.9261525,http://www.dph.illinois.gov/sites/default/files/COVID19/COVID19CountyResults.json,0.43902439024390244,58,
,Madison County,IL,USA,0,,,0,0,264461,38.827599,-89.935464,http://www.dph.illinois.gov/sites/default/files/COVID19/COVID19CountyResults.json,0.43902439024390244,59,
,Marion County,IL,USA,0,,,0,0,37620,38.650088499999995,-88.91977650000001,http://www.dph.illinois.gov/sites/default/files/COVID19/COVID19CountyResults.json,0.43902439024390244,60,
,Marshall County,IL,USA,0,,,0,0,11534,41.0348985,-89.3432225,http://www.dph.illinois.gov/sites/default/files/COVID19/COVID19CountyResults.json,0.43902439024390244,61,
,Mason County,IL,USA,0,,,0,0,13565,40.244898500000005,-89.97840099999999,http://www.dph.illinois.gov/sites/default/files/COVID19/COVID19CountyResults.json,0.43902439024390244,62,
,Massac County,IL,USA,0,,,0,0,14080,37.2011605,-88.70970249999999,http://www.dph.illinois.gov/sites/default/files/COVID19/COVID19CountyResults.json,0.43902439024390244,63,
,Menard County,IL,USA,0,,,0,0,12288,40.031325499999994,-89.7865065,http://www.dph.illinois.gov/sites/default/files/COVID19/COVID19CountyResults.json,0.43902439024390244,64,
,Mercer County,IL,USA,0,,,0,0,15601,41.1986765,-90.7739785,http://www.dph.illinois.gov/sites/default/files/COVID19/COVID19CountyResults.json,0.43902439024390244,65,
,Monroe County,IL,USA,0,,,0,0,34335,38.304362,-90.136495,http://www.dph.illinois.gov/sites/default/files/COVID19/COVID19CountyResults.json,0.43902439024390244,66,
,Montgomery County,IL,USA,0,,,0,0,28601,39.2617855,-89.4217495,http://www.dph.illinois.gov/sites/default/files/COVID19/COVID19CountyResults.json,0.43902439024390244,67,
,Morgan County,IL,USA,0,,,0,0,33976,39.698471,-90.26153,http://www.dph.illinois.gov/sites/default/files/COVID19/COVID19CountyResults.json,0.43902439024390244,68,
,Moultrie County,IL,USA,0,,,0,0,14717,39.6195935,-88.641607,http://www.dph.illinois.gov/sites/default/files/COVID19/COVID19CountyResults.json,0.43902439024390244,69,
,Ogle County,IL,USA,0,,,0,0,50923,42.045208,-89.313711,http://www.dph.illinois.gov/sites/default/files/COVID19/COVID19CountyResults.json,0.43902439024390244,70,
,Peoria County,IL,USA,1,,,0,1,180621,40.744068999999996,-89.7183555,http://www.dph.illinois.gov/sites/default/files/COVID19/COVID19CountyResults.json,0.43902439024390244,71,
,Perry County,IL,USA,0,,,0,0,21174,38.084790999999996,-89.356507,http://www.dph.illinois.gov/sites/default/files/COVID19/COVID19CountyResults.json,0.43902439024390244,72,
,Piatt County,IL,USA,0,,,0,0,16396,40.0368775,-88.6031875,http://www.dph.illinois.gov/sites/default/files/COVID19/COVID19CountyResults.json,0.43902439024390244,73,
,Pike County,IL,USA,0,,,0,0,15611,39.620425,-90.9684925,http://www.dph.illinois.gov/sites/default/files/COVID19/COVID19CountyResults.json,0.43902439024390244,74,
,Pope County,IL,USA,0,,,0,0,4212,37.333512999999996,-88.561381,http://www.dph.illinois.gov/sites/default/files/COVID19/COVID19CountyResults.json,0.43902439024390244,75,
,Pulaski County,IL,USA,0,,,0,0,5463,37.2016465,-89.100825,http://www.dph.illinois.gov/sites/default/files/COVID19/COVID19CountyResults.json,0.43902439024390244,76,
,Putnam County,IL,USA,0,,,0,0,5740,41.213094999999996,-89.314386,http://www.dph.illinois.gov/sites/default/files/COVID19/COVID19CountyResults.json,0.43902439024390244,77,
,Randolph County,IL,USA,0,,,0,0,32106,38.013057,-89.89974050000001,http://www.dph.illinois.gov/sites/default/files/COVID19/COVID19CountyResults.json,0.43902439024390244,78,
,Richland County,IL,USA,0,,,0,0,15763,38.709597,-88.102756,http://www.dph.illinois.gov/sites/default/files/COVID19/COVID19CountyResults.json,0.43902439024390244,79,
,Rock Island County,IL,USA,0,,,0,0,143477,41.554974,-90.61659449999999,http://www.dph.illinois.gov/sites/default/files/COVID19/COVID19CountyResults.json,0.43902439024390244,80,
,St. Clair County,IL,USA,2,,,0,2,261059,38.43997,-89.98348949999999,http://www.dph.illinois.gov/sites/default/files/COVID19/COVID19CountyResults.json,0.43902439024390244,81,
,Saline County,IL,USA,0,,,0,0,23906,37.7534775,-88.541215,http://www.dph.illinois.gov/sites/default/files/COVID19/COVID19CountyResults.json,0.43902439024390244,82,
,Sangamon County,IL,USA,3,,,0,3,195348,39.749418500000004,-89.605988,http://www.dph.illinois.gov/sites/default/files/COVID19/COVID19CountyResults.json,0.43902439024390244,83,
,Schuyler County,IL,USA,0,,,0,0,6907,40.1323765,-90.55658600000001,http://www.dph.illinois.gov/sites/default/files/COVID19/COVID19CountyResults.json,0.43902439024390244,84,
,Scott County,IL,USA,0,,,0,0,4926,39.655125999999996,-90.47332800000001,http://www.dph.illinois.gov/sites/default/files/COVID19/COVID19CountyResults.json,0.43902439024390244,85,
,Shelby County,IL,USA,0,,,0,0,21741,39.434606,-88.8052905,http://www.dph.illinois.gov/sites/default/files/COVID19/COVID19CountyResults.json,0.43902439024390244,86,
,Stark County,IL,USA,0,,,0,0,5427,41.104095,-89.811954,http://www.dph.illinois.gov/sites/default/files/COVID19/COVID19CountyResults.json,0.43902439024390244,87,
,Stephenson County,IL,USA,0,,,0,0,44753,42.3510465,-89.661208,http://www.dph.illinois.gov/sites/default/files/COVID19/COVID19CountyResults.json,0.43902439024390244,88,
,Tazewell County,IL,USA,0,,,0,0,132328,40.5337375,-89.59421,http://www.dph.illinois.gov/sites/default/files/COVID19/COVID19CountyResults.json,0.43902439024390244,89,
,Union County,IL,USA,0,,,0,0,16841,37.465157500000004,-89.281663,http://www.dph.illinois.gov/sites/default/files/COVID19/COVID19CountyResults.json,0.43902439024390244,90,
,Vermilion County,IL,USA,0,,,0,0,76806,40.179863,-87.734241,http://www.dph.illinois.gov/sites/default/files/COVID19/COVID19CountyResults.json,0.43902439024390244,91,
,Wabash County,IL,USA,0,,,0,0,11549,38.402574,-87.8207125,http://www.dph.illinois.gov/sites/default/files/COVID19/COVID19CountyResults.json,0.43902439024390244,92,
,Warren County,IL,USA,0,,,0,0,17032,40.848296,-90.61453750000001,http://www.dph.illinois.gov/sites/default/files/COVID19/COVID19CountyResults.json,0.43902439024390244,93,
,Washington County,IL,USA,0,,,0,0,13995,38.363909,-89.4241575,http://www.dph.illinois.gov/sites/default/files/COVID19/COVID19CountyResults.json,0.43902439024390244,94,
,Wayne County,IL,USA,0,,,0,0,16332,38.4308585,-88.42510250000001,http://www.dph.illinois.gov/sites/default/files/COVID19/COVID19CountyResults.json,0.43902439024390244,95,
,White County,IL,USA,0,,,0,0,13665,38.067642,-88.1481,http://www.dph.illinois.gov/sites/default/files/COVID19/COVID19CountyResults.json,0.43902439024390244,96,
,Whiteside County,IL,USA,1,,,0,1,55626,41.7573565,-89.938412,http://www.dph.illinois.gov/sites/default/files/COVID19/COVID19CountyResults.json,0.43902439024390244,97,
,Will County,IL,USA,1,,,0,1,692310,41.465238,-87.89340899999999,http://www.dph.illinois.gov/sites/default/files/COVID19/COVID19CountyResults.json,0.43902439024390244,98,
,Williamson County,IL,USA,0,,,0,0,67056,37.729957,-88.930214,http://www.dph.illinois.gov/sites/default/files/COVID19/COVID19CountyResults.json,0.43902439024390244,99,
,Winnebago County,IL,USA,1,,,0,1,284081,42.325365000000005,-89.170574,http://www.dph.illinois.gov/sites/default/files/COVID19/COVID19CountyResults.json,0.43902439024390244,100,
,Woodford County,IL,USA,1,,,0,1,38463,40.7610345,-89.2466125,http://www.dph.illinois.gov/sites/default/files/COVID19/COVID19CountyResults.json,0.43902439024390244,101,
,,IL,USA,105,,,,105,12671821,33.07065725892534,46.81172136345015,http://www.dph.illinois.gov/sites/default/files/COVID19/COVID19CountyResults.json,0.24390243902439024,102,
,DeKalb County,IN,USA,0,0,,0,0,43226,41.397172,-84.998833,https://opendata.arcgis.com/datasets/d14de7e28b0448ab82eb36d6f25b1ea1_0.csv,0.8048780487804879,103,county
,Boone County,IN,USA,1,0,,0,1,66999,40.051773999999995,-86.4677715,https://opendata.arcgis.com/datasets/d14de7e28b0448ab82eb36d6f25b1ea1_0.csv,0.8048780487804879,104,county
,Tippecanoe County,IN,USA,0,0,,0,0,193048,40.388631000000004,-86.89501100000001,https://opendata.arcgis.com/datasets/d14de7e28b0448ab82eb36d6f25b1ea1_0.csv,0.8048780487804879,105,county
,Johnson County,IN,USA,3,1,,0,2,156225,39.4900085,-86.101242,https://opendata.arcgis.com/datasets/d14de7e28b0448ab82eb36d6f25b1ea1_0.csv,0.8048780487804879,106,county
,Elkhart County,IN,USA,0,0,,0,0,205560,41.598169999999996,-85.858041,https://opendata.arcgis.com/datasets/d14de7e28b0448ab82eb36d6f25b1ea1_0.csv,0.8048780487804879,107,county
,Adams County,IN,USA,1,0,,0,1,35636,40.745404,-84.93797749999999,https://opendata.arcgis.com/datasets/d14de7e28b0448ab82eb36d6f25b1ea1_0.csv,0.8048780487804879,108,county
,Noble County,IN,USA,1,0,,0,1,47532,41.3952975,-85.42342049999999,https://opendata.arcgis.com/datasets/d14de7e28b0448ab82eb36d6f25b1ea1_0.csv,0.8048780487804879,109,county
,Madison County,IN,USA,0,0,,0,0,129641,40.1616875,-85.7193405,https://opendata.arcgis.com/datasets/d14de7e28b0448ab82eb36d6f25b1ea1_0.csv,0.8048780487804879,110,county
,St. Joseph County,IN,USA,1,0,,0,1,270771,41.596739,-86.2930665,https://opendata.arcgis.com/datasets/d14de7e28b0448ab82eb36d6f25b1ea1_0.csv,0.8048780487804879,111,county
,Jackson County,IN,USA,0,0,,0,0,44111,38.898375,-86.056745,https://opendata.arcgis.com/datasets/d14de7e28b0448ab82eb36d6f25b1ea1_0.csv,0.8048780487804879,112,county
,Vanderburgh County,IN,USA,0,0,,0,0,180974,37.997158999999996,-87.575276,https://opendata.arcgis.com/datasets/d14de7e28b0448ab82eb36d6f25b1ea1_0.csv,0.8048780487804879,113,county
,Grant County,IN,USA,0,0,,0,0,65936,40.515986999999996,-85.6545605,https://opendata.arcgis.com/datasets/d14de7e28b0448ab82eb36d6f25b1ea1_0.csv,0.8048780487804879,114,county
,Porter County,IN,USA,0,0,,0,0,169594,41.465349,-87.07600400000001,https://opendata.arcgis.com/datasets/d14de7e28b0448ab82eb36d6f25b1ea1_0.csv,0.8048780487804879,115,county
,Marion County,IN,USA,9,1,,0,8,954670,39.779657,-86.13272599999999,https://opendata.arcgis.com/datasets/d14de7e28b0448ab82eb36d6f25b1ea1_0.csv,0.8048780487804879,116,county
,Hamilton County,IN,USA,1,0,,0,1,330086,40.0724955,-86.052323,https://opendata.arcgis.com/datasets/d14de7e28b0448ab82eb36d6f25b1ea1_0.csv,0.8048780487804879,117,county
,Lake County,IN,USA,2,0,,0,2,484411,41.4360915,-87.372815,https://opendata.arcgis.com/datasets/d14de7e28b0448ab82eb36d6f25b1ea1_0.csv,0.8048780487804879,118,county
,Morgan County,IN,USA,0,0,,0,0,70116,39.486663,-86.46872300000001,https://opendata.arcgis.com/datasets/d14de7e28b0448ab82eb36d6f25b1ea1_0.csv,0.8048780487804879,119,county
,Hendricks County,IN,USA,3,0,,0,3,167009,39.762399,-86.510613,https://opendata.arcgis.com/datasets/d14de7e28b0448ab82eb36d6f25b1ea1_0.csv,0.8048780487804879,120,county
,LaPorte County,IN,USA,1,0,,0,1,110007,41.4985245,-86.70959,https://opendata.arcgis.com/datasets/d14de7e28b0448ab82eb36d6f25b1ea1_0.csv,0.8048780487804879,121,county
,Floyd County,IN,USA,1,0,,0,1,77781,38.299344000000005,-85.8968305,https://opendata.arcgis.com/datasets/d14de7e28b0448ab82eb36d6f25b1ea1_0.csv,0.8048780487804879,122,county
,Shelby County,IN,USA,0,0,,0,0,44593,39.5229175,-85.7912735,https://opendata.arcgis.com/datasets/d14de7e28b0448ab82eb36d6f25b1ea1_0.csv,0.8048780487804879,123,county
,Allen County,IN,USA,0,0,,0,0,375351,41.093929,-85.070744,https://opendata.arcgis.com/datasets/d14de7e28b0448ab82eb36d6f25b1ea1_0.csv,0.8048780487804879,124,county
,Tipton County,IN,USA,0,0,,0,0,15128,40.311361500000004,-86.052076,https://opendata.arcgis.com/datasets/d14de7e28b0448ab82eb36d6f25b1ea1_0.csv,0.8048780487804879,125,county
,Rush County,IN,USA,0,0,,0,0,16663,39.6201645,-85.465533,https://opendata.arcgis.com/datasets/d14de7e28b0448ab82eb36d6f25b1ea1_0.csv,0.8048780487804879,126,county
,Orange County,IN,USA,0,0,,0,0,19489,38.541362,-86.49588800000001,https://opendata.arcgis.com/datasets/d14de7e28b0448ab82eb36d6f25b1ea1_0.csv,0.8048780487804879,127,county
,Crawford County,IN,USA,0,0,,0,0,10558,38.264135499999995,-86.4664205,https://opendata.arcgis.com/datasets/d14de7e28b0448ab82eb36d6f25b1ea1_0.csv,0.8048780487804879,128,county
,Owen County,IN,USA,0,0,,0,0,20845,39.319545500000004,-86.84269800000001,https://opendata.arcgis.com/datasets/d14de7e28b0448ab82eb36d6f25b1ea1_0.csv,0.8048780487804879,129,county
,Fountain County,IN,USA,0,0,,0,0,16351,40.159532,-87.2651005,https://opendata.arcgis.com/datasets/d14de7e28b0448ab82eb36d6f25b1ea1_0.csv,0.8048780487804879,130,county
,Decatur County,IN,USA,0,0,,0,0,26794,39.292067,-85.4919175,https://opendata.arcgis.com/datasets/d14de7e28b0448ab82eb36d6f25b1ea1_0.csv,0.8048780487804879,131,county
,Fulton County,IN,USA,0,0,,0,0,20092,41.0412495,-86.2069545,https://opendata.arcgis.com/datasets/d14de7e28b0448ab82eb36d6f25b1ea1_0.csv,0.8048780487804879,132,county
,LaGrange County,IN,USA,0,0,,0,0,39330,41.641722,-85.426917,https://opendata.arcgis.com/datasets/d14de7e28b0448ab82eb36d6f25b1ea1_0.csv,0.8048780487804879,133,county
,Knox County,IN,USA,0,0,,0,0,36895,38.6611855,-87.4215765,https://opendata.arcgis.com/datasets/d14de7e28b0448ab82eb36d6f25b1ea1_0.csv,0.8048780487804879,134,county
,Monroe County,IN,USA,0,0,,0,0,146917,39.173286000000004,-86.50153900000001,https://opendata.arcgis.com/datasets/d14de7e28b0448ab82eb36d6f25b1ea1_0.csv,0.8048780487804879,135,county
,Cass County,IN,USA,0,0,,0,0,37955,40.736143,-86.3733815,https://opendata.arcgis.com/datasets/d14de7e28b0448ab82eb36d6f25b1ea1_0.csv,0.8048780487804879,136,county
,Randolph County,IN,USA,0,0,,0,0,24851,40.157236999999995,-85.011338,https://opendata.arcgis.com/datasets/d14de7e28b0448ab82eb36d6f25b1ea1_0.csv,0.8048780487804879,137,county
,Martin County,IN,USA,0,0,,0,0,10217,38.700171999999995,-86.8032725,https://opendata.arcgis.com/datasets/d14de7e28b0448ab82eb36d6f25b1ea1_0.csv,0.8048780487804879,138,county
,Washington County,IN,USA,0,0,,0,0,27943,38.5984585,-86.078819,https://opendata.arcgis.com/datasets/d14de7e28b0448ab82eb36d6f25b1ea1_0.csv,0.8048780487804879,139,county
,Parke County,IN,USA,0,0,,0,0,16927,39.779033,-87.2218005,https://opendata.arcgis.com/datasets/d14de7e28b0448ab82eb36d6f25b1ea1_0.csv,0.8048780487804879,140,county
,Kosciusko County,IN,USA,0,0,,0,0,79344,41.239367,-85.8647395,https://opendata.arcgis.com/datasets/d14de7e28b0448ab82eb36d6f25b1ea1_0.csv,0.8048780487804879,141,county
,Wayne County,IN,USA,0,0,,0,0,65936,39.8599215,-85.01602550000001,https://opendata.arcgis.com/datasets/d14de7e28b0448ab82eb36d6f25b1ea1_0.csv,0.8048780487804879,142,county
,Montgomery County,IN,USA,0,0,,0,0,38346,40.039825500000006,-86.893817,https://opendata.arcgis.com/datasets/d14de7e28b0448ab82eb36d6f25b1ea1_0.csv,0.8048780487804879,143,county
,Hancock County,IN,USA,0,0,,0,0,76351,39.821446,-85.76510250000001,https://opendata.arcgis.com/datasets/d14de7e28b0448ab82eb36d6f25b1ea1_0.csv,0.8048780487804879,144,county
,Vigo County,IN,USA,0,0,,0,0,107386,39.4335005,-87.40453099999999,https://opendata.arcgis.com/datasets/d14de7e28b0448ab82eb36d6f25b1ea1_0.csv,0.8048780487804879,145,county
,Jefferson County,IN,USA,0,0,,0,0,32208,38.749990499999996,-85.4428255,https://opendata.arcgis.com/datasets/d14de7e28b0448ab82eb36d6f25b1ea1_0.csv,0.8048780487804879,146,county
,Huntington County,IN,USA,0,0,,0,0,36240,40.8291895,-85.48925399999999,https://opendata.arcgis.com/datasets/d14de7e28b0448ab82eb36d6f25b1ea1_0.csv,0.8048780487804879,147,county
,Harrison County,IN,USA,0,0,,0,0,40350,38.190351500000006,-86.114784,https://opendata.arcgis.com/datasets/d14de7e28b0448ab82eb36d6f25b1ea1_0.csv,0.8048780487804879,148,county
,Wabash County,IN,USA,0,0,,0,0,31280,40.848853500000004,-85.7925115,https://opendata.arcgis.com/datasets/d14de7e28b0448ab82eb36d6f25b1ea1_0.csv,0.8048780487804879,149,county
,Delaware County,IN,USA,0,0,,0,0,114772,40.2282065,-85.3964875,https://opendata.arcgis.com/datasets/d14de7e28b0448ab82eb36d6f25b1ea1_0.csv,0.8048780487804879,150,county
,Posey County,IN,USA,0,0,,0,0,25540,38.001000000000005,-87.87335350000001,https://opendata.arcgis.com/datasets/d14de7e28b0448ab82eb36d6f25b1ea1_0.csv,0.8048780487804879,151,county
,Spencer County,IN,USA,0,0,,0,0,20327,37.993821,-87.0179535,https://opendata.arcgis.com/datasets/d14de7e28b0448ab82eb36d6f25b1ea1_0.csv,0.8048780487804879,152,county
,Ohio County,IN,USA,0,0,,0,0,5844,38.9659135,-84.9850845,https://opendata.arcgis.com/datasets/d14de7e28b0448ab82eb36d6f25b1ea1_0.csv,0.8048780487804879,153,county
,Carroll County,IN,USA,0,0,,0,0,20127,40.5844765,-86.5738755,https://opendata.arcgis.com/datasets/d14de7e28b0448ab82eb36d6f25b1ea1_0.csv,0.8048780487804879,154,county
,Warren County,IN,USA,0,0,,0,0,8263,40.3021425,-87.311793,https://opendata.arcgis.com/datasets/d14de7e28b0448ab82eb36d6f25b1ea1_0.csv,0.8048780487804879,155,county
,Franklin County,IN,USA,2,0,,0,2,22736,39.397251999999995,-85.056989,https://opendata.arcgis.com/datasets/d14de7e28b0448ab82eb36d6f25b1ea1_0.csv,0.8048780487804879,156,county
,Pulaski County,IN,USA,0,0,,0,0,12469,41.0411035,-86.6989025,https://opendata.arcgis.com/datasets/d14de7e28b0448ab82eb36d6f25b1ea1_0.csv,0.8048780487804879,157,county
,Jay County,IN,USA,0,0,,0,0,20764,40.439459,-85.0111465,https://opendata.arcgis.com/datasets/d14de7e28b0448ab82eb36d6f25b1ea1_0.csv,0.8048780487804879,158,county
,Wells County,IN,USA,1,0,,0,1,28206,40.742376,-85.258652,https://opendata.arcgis.com/datasets/d14de7e28b0448ab82eb36d6f25b1ea1_0.csv,0.8048780487804879,159,county
,Marshall County,IN,USA,0,0,,0,0,46248,41.325298000000004,-86.2605775,https://opendata.arcgis.com/datasets/d14de7e28b0448ab82eb36d6f25b1ea1_0.csv,0.8048780487804879,160,county
,Sullivan County,IN,USA,0,0,,0,0,20690,39.080525,-87.4431845,https://opendata.arcgis.com/datasets/d14de7e28b0448ab82eb36d6f25b1ea1_0.csv,0.8048780487804879,161,county
,Brown County,IN,USA,0,0,,0,0,15234,39.196282,-86.23083349999999,https://opendata.arcgis.com/datasets/d14de7e28b0448ab82eb36d6f25b1ea1_0.csv,0.8048780487804879,162,county
,Ripley County,IN,USA,0,0,,0,0,28523,39.1115335,-85.2549985,https://opendata.arcgis.com/datasets/d14de7e28b0448ab82eb36d6f25b1ea1_0.csv,0.8048780487804879,163,county
,Henry County,IN,USA,0,0,,0,0,48271,39.931831,-85.3989305,https://opendata.arcgis.com/datasets/d14de7e28b0448ab82eb36d6f25b1ea1_0.csv,0.8048780487804879,164,county
,Howard County,IN,USA,2,0,,0,2,82366,40.469593,-86.1189395,https://opendata.arcgis.com/datasets/d14de7e28b0448ab82eb36d6f25b1ea1_0.csv,0.8048780487804879,165,county
,Whitley County,IN,USA,0,0,,0,0,34074,41.148574999999994,-85.49717749999999,https://opendata.arcgis.com/datasets/d14de7e28b0448ab82eb36d6f25b1ea1_0.csv,0.8048780487804879,166,county
,Dearborn County,IN,USA,0,0,,0,0,49568,39.1234195,-84.9759795,https://opendata.arcgis.com/datasets/d14de7e28b0448ab82eb36d6f25b1ea1_0.csv,0.8048780487804879,167,county
,Blackford County,IN,USA,0,0,,0,0,11930,40.473138,-85.32408,https://opendata.arcgis.com/datasets/d14de7e28b0448ab82eb36d6f25b1ea1_0.csv,0.8048780487804879,168,county
,Scott County,IN,USA,0,0,,0,0,23878,38.6948615,-85.729157,https://opendata.arcgis.com/datasets/d14de7e28b0448ab82eb36d6f25b1ea1_0.csv,0.8048780487804879,169,county
,Bartholomew County,IN,USA,1,0,,0,1,82753,39.192976,-85.885058,https://opendata.arcgis.com/datasets/d14de7e28b0448ab82eb36d6f25b1ea1_0.csv,0.8048780487804879,170,county
,Jasper County,IN,USA,0,0,,0,0,33370,41.011453,-87.1030475,https://opendata.arcgis.com/datasets/d14de7e28b0448ab82eb36d6f25b1ea1_0.csv,0.8048780487804879,171,county
,Union County,IN,USA,0,0,,0,0,7037,39.6256065,-84.925108,https://opendata.arcgis.com/datasets/d14de7e28b0448ab82eb36d6f25b1ea1_0.csv,0.8048780487804879,172,county
,Vermillion County,IN,USA,0,0,,0,0,15479,39.877864,-87.443545,https://opendata.arcgis.com/datasets/d14de7e28b0448ab82eb36d6f25b1ea1_0.csv,0.8048780487804879,173,county
,Benton County,IN,USA,0,0,,0,0,8653,40.606315,-87.3100935,https://opendata.arcgis.com/datasets/d14de7e28b0448ab82eb36d6f25b1ea1_0.csv,0.8048780487804879,174,county
,Clay County,IN,USA,0,0,,0,0,26170,39.387551,-87.090359,https://opendata.arcgis.com/datasets/d14de7e28b0448ab82eb36d6f25b1ea1_0.csv,0.8048780487804879,175,county
,Lawrence County,IN,USA,0,0,,0,0,45668,38.8394825,-86.47919150000001,https://opendata.arcgis.com/datasets/d14de7e28b0448ab82eb36d6f25b1ea1_0.csv,0.8048780487804879,176,county
,Clark County,IN,USA,0,0,,0,0,117360,38.436953,-85.704951,https://opendata.arcgis.com/datasets/d14de7e28b0448ab82eb36d6f25b1ea1_0.csv,0.8048780487804879,177,county
,Miami County,IN,USA,0,0,,0,0,35567,40.780922000000004,-86.01632649999999,https://opendata.arcgis.com/datasets/d14de7e28b0448ab82eb36d6f25b1ea1_0.csv,0.8048780487804879,178,county
,Fayette County,IN,USA,0,0,,0,0,23047,39.6569625,-85.1680795,https://opendata.arcgis.com/datasets/d14de7e28b0448ab82eb36d6f25b1ea1_0.csv,0.8048780487804879,179,county
,Newton County,IN,USA,0,0,,0,0,14011,40.977588499999996,-87.3970095,https://opendata.arcgis.com/datasets/d14de7e28b0448ab82eb36d6f25b1ea1_0.csv,0.8048780487804879,180,county
,Perry County,IN,USA,0,0,,0,0,19102,38.0538765,-86.6224235,https://opendata.arcgis.com/datasets/d14de7e28b0448ab82eb36d6f25b1ea1_0.csv,0.8048780487804879,181,county
,Putnam County,IN,USA,0,0,,0,0,37779,39.668384,-86.8280865,https://opendata.arcgis.com/datasets/d14de7e28b0448ab82eb36d6f25b1ea1_0.csv,0.8048780487804879,182,county
,Starke County,IN,USA,0,0,,0,0,22935,41.302205,-86.6983865,https://opendata.arcgis.com/datasets/d14de7e28b0448ab82eb36d6f25b1ea1_0.csv,0.8048780487804879,183,county
,Greene County,IN,USA,0,0,,0,0,32006,39.0371445,-86.961652,https://opendata.arcgis.com/datasets/d14de7e28b0448ab82eb36d6f25b1ea1_0.csv,0.8048780487804879,184,county
,Pike County,IN,USA,0,0,,0,0,12410,38.390486499999994,-87.2676305,https://opendata.arcgis.com/datasets/d14de7e28b0448ab82eb36d6f25b1ea1_0.csv,0.8048780487804879,185,county
,Warrick County,IN,USA,0,0,,0,0,62567,38.062363000000005,-87.245218,https://opendata.arcgis.com/datasets/d14de7e28b0448ab82eb36d6f25b1ea1_0.csv,0.8048780487804879,186,county
,Daviess County,IN,USA,0,0,,0,0,33147,38.6973285,-87.0858515,https://opendata.arcgis.com/datasets/d14de7e28b0448ab82eb36d6f25b1ea1_0.csv,0.8048780487804879,187,county
,Dubois County,IN,USA,0,0,,0,0,42565,38.365024000000005,-86.87606650000001,https://opendata.arcgis.com/datasets/d14de7e28b0448ab82eb36d6f25b1ea1_0.csv,0.8048780487804879,188,county
,Clinton County,IN,USA,0,0,,0,0,32250,40.304673,-86.46908450000001,https://opendata.arcgis.com/datasets/d14de7e28b0448ab82eb36d6f25b1ea1_0.csv,0.8048780487804879,189,county
,White County,IN,USA,0,0,,0,0,24133,40.737271,-86.8406485,https://opendata.arcgis.com/datasets/d14de7e28b0448ab82eb36d6f25b1ea1_0.csv,0.8048780487804879,190,county
,Switzerland County,IN,USA,0,0,,0,0,10717,38.8085935,-84.9938725,https://opendata.arcgis.com/datasets/d14de7e28b0448ab82eb36d6f25b1ea1_0.csv,0.8048780487804879,191,county
,Steuben County,IN,USA,0,0,,0,0,34586,41.6433265,-85.0007515,https://opendata.arcgis.com/datasets/d14de7e28b0448ab82eb36d6f25b1ea1_0.csv,0.8048780487804879,192,county
,Gibson County,IN,USA,0,0,,0,0,33452,38.349461,-87.64698250000001,https://opendata.arcgis.com/datasets/d14de7e28b0448ab82eb36d6f25b1ea1_0.csv,0.8048780487804879,193,county
,Jennings County,IN,USA,0,0,,0,0,27611,39.0015625,-85.619944,https://opendata.arcgis.com/datasets/d14de7e28b0448ab82eb36d6f25b1ea1_0.csv,0.8048780487804879,194,county
,,IN,USA,30,2,,,28,6732219,43.14869771655038,44.835279168249,https://opendata.arcgis.com/datasets/d14de7e28b0448ab82eb36d6f25b1ea1_0.csv,0.6097560975609756,195,county
,Rockingham County,NC,USA,0,0,,,0,90690,36.39209,-79.77325049999999,https://opendata.arcgis.com/datasets/969678bce431494a8f64d7faade6e5b8_0.csv,0.7073170731707317,196,county
,Guilford County,NC,USA,0,0,,,0,533670,36.078567,-79.789537,https://opendata.arcgis.com/datasets/969678bce431494a8f64d7faade6e5b8_0.csv,0.7073170731707317,197,county
,Alamance County,NC,USA,0,0,,,0,166436,36.046625,-79.389903,https://opendata.arcgis.com/datasets/969678bce431494a8f64d7faade6e5b8_0.csv,0.7073170731707317,198,county
,Alexander County,NC,USA,0,0,,,0,37353,35.9112,-81.173576,https://opendata.arcgis.com/datasets/969678bce431494a8f64d7faade6e5b8_0.csv,0.7073170731707317,199,county
,Randolph County,NC,USA,0,0,,,0,143351,35.713162,-79.80440999999999,https://opendata.arcgis.com/datasets/969678bce431494a8f64d7faade6e5b8_0.csv,0.7073170731707317,200,county
,Wayne County,NC,USA,1,0,,,1,123248,35.372187,-78.0523115,https://opendata.arcgis.com/datasets/969678bce431494a8f64d7faade6e5b8_0.csv,0.7073170731707317,201,county
,Ashe County,NC,USA,0,0,,,0,27109,36.414194499999994,-81.4925705,https://opendata.arcgis.com/datasets/969678bce431494a8f64d7faade6e5b8_0.csv,0.7073170731707317,202,county
,Alleghany County,NC,USA,0,0,,,0,11161,36.470187499999994,-81.128388,https://opendata.arcgis.com/datasets/969678bce431494a8f64d7faade6e5b8_0.csv,0.7073170731707317,203,county
,Currituck County,NC,USA,0,0,,,0,27072,36.311232000000004,-76.0432625,https://opendata.arcgis.com/datasets/969678bce431494a8f64d7faade6e5b8_0.csv,0.7073170731707317,204,county
,Camden County,NC,USA,0,0,,,0,10710,36.357271,-76.2231965,https://opendata.arcgis.com/datasets/969678bce431494a8f64d7faade6e5b8_0.csv,0.7073170731707317,205,county
,Surry County,NC,USA,0,0,,,0,71948,36.399366,-80.7073595,https://opendata.arcgis.com/datasets/969678bce431494a8f64d7faade6e5b8_0.csv,0.7073170731707317,206,county
,Gates County,NC,USA,0,0,,,0,11573,36.424152,-76.70138,https://opendata.arcgis.com/datasets/969678bce431494a8f64d7faade6e5b8_0.csv,0.7073170731707317,207,county
,Hertford County,NC,USA,0,0,,,0,23659,36.392281999999994,-76.94985,https://opendata.arcgis.com/datasets/969678bce431494a8f64d7faade6e5b8_0.csv,0.7073170731707317,208,county
,Northampton County,NC,USA,0,0,,,0,19676,36.356129499999994,-77.48302000000001,https://opendata.arcgis.com/datasets/969678bce431494a8f64d7faade6e5b8_0.csv,0.7073170731707317,209,county
,Stokes County,NC,USA,0,0,,,0,45467,36.4039905,-80.2396115,https://opendata.arcgis.com/datasets/969678bce431494a8f64d7faade6e5b8_0.csv,0.7073170731707317,210,county
,Warren County,NC,USA,0,0,,,0,19807,36.373663,-78.110931,https://opendata.arcgis.com/datasets/969678bce431494a8f64d7faade6e5b8_0.csv,0.7073170731707317,211,county
,Vance County,NC,USA,0,0,,,0,44582,36.3539845,-78.394374,https://opendata.arcgis.com/datasets/969678bce431494a8f64d7faade6e5b8_0.csv,0.7073170731707317,212,county
,Granville County,NC,USA,0,0,,,0,60115,36.282139,-78.6309765,https://opendata.arcgis.com/datasets/969678bce431494a8f64d7faade6e5b8_0.csv,0.7073170731707317,213,county
,Caswell County,NC,USA,0,0,,,0,22698,36.391928,-79.335016,https://opendata.arcgis.com/datasets/969678bce431494a8f64d7faade6e5b8_0.csv,0.7073170731707317,214,county
,Person County,NC,USA,0,0,,,0,39507,36.389045499999995,-78.974278,https://opendata.arcgis.com/datasets/969678bce431494a8f64d7faade6e5b8_0.csv,0.7073170731707317,215,county
,Pasquotank County,NC,USA,0,0,,,0,39639,36.31698,-76.2753735,https://opendata.arcgis.com/datasets/969678bce431494a8f64d7faade6e5b8_0.csv,0.7073170731707317,216,county
,Halifax County,NC,USA,0,0,,,0,50574,36.255891000000005,-77.618624,https://opendata.arcgis.com/datasets/969678bce431494a8f64d7faade6e5b8_0.csv,0.7073170731707317,217,county
,Wilkes County,NC,USA,0,0,,,0,68557,36.217608,-81.20716300000001,https://opendata.arcgis.com/datasets/969678bce431494a8f64d7faade6e5b8_0.csv,0.7073170731707317,218,county
,Watauga County,NC,USA,1,0,,,1,55945,36.2509755,-81.686846,https://opendata.arcgis.com/datasets/969678bce431494a8f64d7faade6e5b8_0.csv,0.7073170731707317,219,county
,Perquimans County,NC,USA,0,0,,,0,13422,36.226709,-76.390806,https://opendata.arcgis.com/datasets/969678bce431494a8f64d7faade6e5b8_0.csv,0.7073170731707317,220,county
,Chowan County,NC,USA,0,0,,,0,14029,36.178765999999996,-76.5666445,https://opendata.arcgis.com/datasets/969678bce431494a8f64d7faade6e5b8_0.csv,0.7073170731707317,221,county
,Avery County,NC,USA,0,0,,,0,17505,36.099315000000004,-81.9081385,https://opendata.arcgis.com/datasets/969678bce431494a8f64d7faade6e5b8_0.csv,0.7073170731707317,222,county
,Yadkin County,NC,USA,0,0,,,0,37543,36.165891,-80.657182,https://opendata.arcgis.com/datasets/969678bce431494a8f64d7faade6e5b8_0.csv,0.7073170731707317,223,county
,Dare County,NC,USA,0,0,,,0,36501,35.708368,-75.7362335,https://opendata.arcgis.com/datasets/969678bce431494a8f64d7faade6e5b8_0.csv,0.7073170731707317,224,county
,Forsyth County,NC,USA,2,0,,,2,379099,36.1174225,-80.2759705,https://opendata.arcgis.com/datasets/969678bce431494a8f64d7faade6e5b8_0.csv,0.7073170731707317,225,county
,Franklin County,NC,USA,0,0,,,0,67560,36.0419445,-78.27652549999999,https://opendata.arcgis.com/datasets/969678bce431494a8f64d7faade6e5b8_0.csv,0.7073170731707317,226,county
,Bertie County,NC,USA,0,0,,,0,19026,36.0338355,-77.0036715,https://opendata.arcgis.com/datasets/969678bce431494a8f64d7faade6e5b8_0.csv,0.7073170731707317,227,county
,Orange County,NC,USA,0,0,,,0,146027,36.052271,-79.107692,https://opendata.arcgis.com/datasets/969678bce431494a8f64d7faade6e5b8_0.csv,0.7073170731707317,228,county
,Durham County,NC,USA,1,0,,,1,316739,36.051317999999995,-78.8573145,https://opendata.arcgis.com/datasets/969678bce431494a8f64d7faade6e5b8_0.csv,0.7073170731707317,229,county
,Nash County,NC,USA,0,0,,,0,94016,35.966553000000005,-77.976391,https://opendata.arcgis.com/datasets/969678bce431494a8f64d7faade6e5b8_0.csv,0.7073170731707317,230,county
,Mitchell County,NC,USA,0,0,,,0,15000,35.991779,-82.198442,https://opendata.arcgis.com/datasets/969678bce431494a8f64d7faade6e5b8_0.csv,0.7073170731707317,231,county
,Edgecombe County,NC,USA,0,0,,,0,52005,35.915150999999994,-77.585453,https://opendata.arcgis.com/datasets/969678bce431494a8f64d7faade6e5b8_0.csv,0.7073170731707317,232,county
,Caldwell County,NC,USA,0,0,,,0,82029,35.939887,-81.5699525,https://opendata.arcgis.com/datasets/969678bce431494a8f64d7faade6e5b8_0.csv,0.7073170731707317,233,county
,Tyrrell County,NC,USA,0,0,,,0,4131,35.7957445,-76.210059,https://opendata.arcgis.com/datasets/969678bce431494a8f64d7faade6e5b8_0.csv,0.7073170731707317,234,county
,Yancey County,NC,USA,0,0,,,0,17903,35.888507000000004,-82.31928300000001,https://opendata.arcgis.com/datasets/969678bce431494a8f64d7faade6e5b8_0.csv,0.7073170731707317,235,county
,Madison County,NC,USA,0,0,,,0,21763,35.8719975,-82.685785,https://opendata.arcgis.com/datasets/969678bce431494a8f64d7faade6e5b8_0.csv,0.7073170731707317,236,county
,Martin County,NC,USA,0,0,,,0,22671,35.8664985,-77.084982,https://opendata.arcgis.com/datasets/969678bce431494a8f64d7faade6e5b8_0.csv,0.7073170731707317,237,county
,Wake County,NC,USA,15,0,,,15,1092305,35.796786499999996,-78.6249785,https://opendata.arcgis.com/datasets/969678bce431494a8f64d7faade6e5b8_0.csv,0.7073170731707317,238,county
,Davie County,NC,USA,0,0,,,0,42733,35.9026525,-80.5364645,https://opendata.arcgis.com/datasets/969678bce431494a8f64d7faade6e5b8_0.csv,0.7073170731707317,239,county
,Washington County,NC,USA,0,0,,,0,11859,35.840892999999994,-76.6003345,https://opendata.arcgis.com/datasets/969678bce431494a8f64d7faade6e5b8_0.csv,0.7073170731707317,240,county
,Burke County,NC,USA,0,0,,,0,90382,35.7791955,-81.675545,https://opendata.arcgis.com/datasets/969678bce431494a8f64d7faade6e5b8_0.csv,0.7073170731707317,241,county
,Davidson County,NC,USA,0,0,,,0,166614,35.765553499999996,-80.2652875,https://opendata.arcgis.com/datasets/969678bce431494a8f64d7faade6e5b8_0.csv,0.7073170731707317,242,county
,McDowell County,NC,USA,0,0,,,0,45507,35.738724500000004,-82.0594425,https://opendata.arcgis.com/datasets/969678bce431494a8f64d7faade6e5b8_0.csv,0.7073170731707317,243,county
,Chatham County,NC,USA,1,0,,,1,73139,35.6959365,-79.231033,https://opendata.arcgis.com/datasets/969678bce431494a8f64d7faade6e5b8_0.csv,0.7073170731707317,244,county
,Wilson County,NC,USA,1,0,,,1,81455,35.7253325,-77.926691,https://opendata.arcgis.com/datasets/969678bce431494a8f64d7faade6e5b8_0.csv,0.7073170731707317,245,county
,Buncombe County,NC,USA,0,0,,,0,259103,35.620303,-82.5263415,https://opendata.arcgis.com/datasets/969678bce431494a8f64d7faade6e5b8_0.csv,0.7073170731707317,246,county
,Haywood County,NC,USA,0,0,,,0,61971,35.5418605,-83.000247,https://opendata.arcgis.com/datasets/969678bce431494a8f64d7faade6e5b8_0.csv,0.7073170731707317,247,county
,Catawba County,NC,USA,0,0,,,0,158652,35.6878485,-81.22916649999999,https://opendata.arcgis.com/datasets/969678bce431494a8f64d7faade6e5b8_0.csv,0.7073170731707317,248,county
,Pitt County,NC,USA,0,0,,,0,179914,35.580454,-77.392609,https://opendata.arcgis.com/datasets/969678bce431494a8f64d7faade6e5b8_0.csv,0.7073170731707317,249,county
,Johnston County,NC,USA,2,0,,,2,202675,35.537085,-78.386616,https://opendata.arcgis.com/datasets/969678bce431494a8f64d7faade6e5b8_0.csv,0.7073170731707317,250,county
,Swain County,NC,USA,0,0,,,0,14245,35.4877375,-83.554631,https://opendata.arcgis.com/datasets/969678bce431494a8f64d7faade6e5b8_0.csv,0.7073170731707317,251,county
,Beaufort County,NC,USA,0,0,,,0,47079,35.477776000000006,-76.83147650000001,https://opendata.arcgis.com/datasets/969678bce431494a8f64d7faade6e5b8_0.csv,0.7073170731707317,252,county
,Hyde County,NC,USA,0,0,,,0,5230,35.383544,-76.19371849999999,https://opendata.arcgis.com/datasets/969678bce431494a8f64d7faade6e5b8_0.csv,0.7073170731707317,253,county
,Greene County,NC,USA,0,0,,,0,21012,35.500008,-77.6507765,https://opendata.arcgis.com/datasets/969678bce431494a8f64d7faade6e5b8_0.csv,0.7073170731707317,254,county
,Rutherford County,NC,USA,0,0,,,0,66826,35.395423,-81.985972,https://opendata.arcgis.com/datasets/969678bce431494a8f64d7faade6e5b8_0.csv,0.7073170731707317,255,county
,Lee County,NC,USA,0,0,,,0,61452,35.467607,-79.16466,https://opendata.arcgis.com/datasets/969678bce431494a8f64d7faade6e5b8_0.csv,0.7073170731707317,256,county
,Cleveland County,NC,USA,0,0,,,0,97645,35.371596499999995,-81.54468800000001,https://opendata.arcgis.com/datasets/969678bce431494a8f64d7faade6e5b8_0.csv,0.7073170731707317,257,county
,Jackson County,NC,USA,0,0,,,0,43327,35.26292,-83.1417865,https://opendata.arcgis.com/datasets/969678bce431494a8f64d7faade6e5b8_0.csv,0.7073170731707317,258,county
,Harnett County,NC,USA,3,0,,,3,134214,35.3876225,-78.87648899999999,https://opendata.arcgis.com/datasets/969678bce431494a8f64d7faade6e5b8_0.csv,0.7073170731707317,259,county
,Graham County,NC,USA,0,0,,,0,8484,35.342066,-83.810297,https://opendata.arcgis.com/datasets/969678bce431494a8f64d7faade6e5b8_0.csv,0.7073170731707317,260,county
,Henderson County,NC,USA,0,0,,,0,116748,35.322029,-82.5033325,https://opendata.arcgis.com/datasets/969678bce431494a8f64d7faade6e5b8_0.csv,0.7073170731707317,261,county
,Moore County,NC,USA,0,0,,,0,98682,35.2805435,-79.43270749999999,https://opendata.arcgis.com/datasets/969678bce431494a8f64d7faade6e5b8_0.csv,0.7073170731707317,262,county
,Montgomery County,NC,USA,0,0,,,0,27271,35.324289,-79.898494,https://opendata.arcgis.com/datasets/969678bce431494a8f64d7faade6e5b8_0.csv,0.7073170731707317,263,county
,Stanly County,NC,USA,0,0,,,0,62075,35.323707999999996,-80.278733,https://opendata.arcgis.com/datasets/969678bce431494a8f64d7faade6e5b8_0.csv,0.7073170731707317,264,county
,Transylvania County,NC,USA,0,0,,,0,34215,35.2252595,-82.815485,https://opendata.arcgis.com/datasets/969678bce431494a8f64d7faade6e5b8_0.csv,0.7073170731707317,265,county
,Polk County,NC,USA,0,0,,,0,20611,35.296185,-82.1603345,https://opendata.arcgis.com/datasets/969678bce431494a8f64d7faade6e5b8_0.csv,0.7073170731707317,266,county
,Lenoir County,NC,USA,0,0,,,0,55976,35.2174715,-77.6126075,https://opendata.arcgis.com/datasets/969678bce431494a8f64d7faade6e5b8_0.csv,0.7073170731707317,267,county
,Craven County,NC,USA,1,0,,,1,102912,35.110855,-77.063318,https://opendata.arcgis.com/datasets/969678bce431494a8f64d7faade6e5b8_0.csv,0.7073170731707317,268,county
,Macon County,NC,USA,0,0,,,0,35285,35.162244,-83.42341,https://opendata.arcgis.com/datasets/969678bce431494a8f64d7faade6e5b8_0.csv,0.7073170731707317,269,county
,Cherokee County,NC,USA,0,0,,,0,28383,35.139748499999996,-84.0097475,https://opendata.arcgis.com/datasets/969678bce431494a8f64d7faade6e5b8_0.csv,0.7073170731707317,270,county
,Pamlico County,NC,USA,0,0,,,0,12670,35.1507535,-76.72772499999999,https://opendata.arcgis.com/datasets/969678bce431494a8f64d7faade6e5b8_0.csv,0.7073170731707317,271,county
,Sampson County,NC,USA,1,0,,,1,63626,34.9345395,-78.3926405,https://opendata.arcgis.com/datasets/969678bce431494a8f64d7faade6e5b8_0.csv,0.7073170731707317,272,county
,Cumberland County,NC,USA,0,0,,,0,332330,35.0502155,-78.8038205,https://opendata.arcgis.com/datasets/969678bce431494a8f64d7faade6e5b8_0.csv,0.7073170731707317,273,county
,Clay County,NC,USA,0,0,,,0,11139,35.0712515,-83.7441825,https://opendata.arcgis.com/datasets/969678bce431494a8f64d7faade6e5b8_0.csv,0.7073170731707317,274,county
,Jones County,NC,USA,0,0,,,0,9637,35.014189,-77.39021650000001,https://opendata.arcgis.com/datasets/969678bce431494a8f64d7faade6e5b8_0.csv,0.7073170731707317,275,county
,Carteret County,NC,USA,0,0,,,0,69524,34.832848999999996,-76.60086799999999,https://opendata.arcgis.com/datasets/969678bce431494a8f64d7faade6e5b8_0.csv,0.7073170731707317,276,county
,Union County,NC,USA,0,0,,,0,235908,35.0112285,-80.5587175,https://opendata.arcgis.com/datasets/969678bce431494a8f64d7faade6e5b8_0.csv,0.7073170731707317,277,county
,Anson County,NC,USA,0,0,,,0,24877,35.008912,-80.0844735,https://opendata.arcgis.com/datasets/969678bce431494a8f64d7faade6e5b8_0.csv,0.7073170731707317,278,county
,Hoke County,NC,USA,0,0,,,0,54764,35.02319,-79.24694550000001,https://opendata.arcgis.com/datasets/969678bce431494a8f64d7faade6e5b8_0.csv,0.7073170731707317,279,county
,Duplin County,NC,USA,0,0,,,0,58856,34.9501105,-77.9257305,https://opendata.arcgis.com/datasets/969678bce431494a8f64d7faade6e5b8_0.csv,0.7073170731707317,280,county
,Richmond County,NC,USA,0,0,,,0,44887,34.99408,-79.76728299999999,https://opendata.arcgis.com/datasets/969678bce431494a8f64d7faade6e5b8_0.csv,0.7073170731707317,281,county
,Scotland County,NC,USA,0,0,,,0,34810,34.836764,-79.5119535,https://opendata.arcgis.com/datasets/969678bce431494a8f64d7faade6e5b8_0.csv,0.7073170731707317,282,county
,Onslow County,NC,USA,1,0,,,1,197683,34.712451,-77.3899735,https://opendata.arcgis.com/datasets/969678bce431494a8f64d7faade6e5b8_0.csv,0.7073170731707317,283,county
,Robeson County,NC,USA,0,0,,,0,131831,34.626412,-79.133749,https://opendata.arcgis.com/datasets/969678bce431494a8f64d7faade6e5b8_0.csv,0.7073170731707317,284,county
,Bladen County,NC,USA,0,0,,,0,33190,34.611776500000005,-78.5427315,https://opendata.arcgis.com/datasets/969678bce431494a8f64d7faade6e5b8_0.csv,0.7073170731707317,285,county
,Pender County,NC,USA,0,0,,,0,62162,34.512526,-77.894035,https://opendata.arcgis.com/datasets/969678bce431494a8f64d7faade6e5b8_0.csv,0.7073170731707317,286,county
,Columbus County,NC,USA,0,0,,,0,55655,34.2134885,-78.6167595,https://opendata.arcgis.com/datasets/969678bce431494a8f64d7faade6e5b8_0.csv,0.7073170731707317,287,county
,New Hanover County,NC,USA,0,0,,,0,232274,34.15828500000001,-77.872919,https://opendata.arcgis.com/datasets/969678bce431494a8f64d7faade6e5b8_0.csv,0.7073170731707317,288,county
,Brunswick County,NC,USA,1,0,,,1,136744,34.1056615,-78.292874,https://opendata.arcgis.com/datasets/969678bce431494a8f64d7faade6e5b8_0.csv,0.7073170731707317,289,county
,Iredell County,NC,USA,1,0,,,1,178435,35.7732565,-80.901307,https://opendata.arcgis.com/datasets/969678bce431494a8f64d7faade6e5b8_0.csv,0.7073170731707317,290,county
,Rowan County,NC,USA,0,0,,,0,141262,35.6830585,-80.47710000000001,https://opendata.arcgis.com/datasets/969678bce431494a8f64d7faade6e5b8_0.csv,0.7073170731707317,291,county
,Lincoln County,NC,USA,0,0,,,0,83770,35.484821999999994,-81.24025,https://opendata.arcgis.com/datasets/969678bce431494a8f64d7faade6e5b8_0.csv,0.7073170731707317,292,county
,Mecklenburg County,NC,USA,7,0,,,7,1093901,35.2583695,-80.804163,https://opendata.arcgis.com/datasets/969678bce431494a8f64d7faade6e5b8_0.csv,0.7073170731707317,293,county
,Cabarrus County,NC,USA,1,0,,,1,211342,35.3456055,-80.541589,https://opendata.arcgis.com/datasets/969678bce431494a8f64d7faade6e5b8_0.csv,0.7073170731707317,294,county
,Gaston County,NC,USA,0,0,,,0,222846,35.284431999999995,-81.1896935,https://opendata.arcgis.com/datasets/969678bce431494a8f64d7faade6e5b8_0.csv,0.7073170731707317,295,county
,,NC,USA,40,,,,40,10488084,-28.844672746443443,20.996920403668724,https://opendata.arcgis.com/datasets/969678bce431494a8f64d7faade6e5b8_0.csv,0.5121951219512195,296,county
,Atlantic County,NJ,USA,0,,,0,0,265429,39.509258,-74.6437035,https://opendata.arcgis.com/datasets/8840fd8ac1314f5188e6cf98b525321c_0.csv,0.7073170731707317,297,county
,Bergen County,NJ,USA,84,,,91,84,936692,40.952146,-74.08225,https://opendata.arcgis.com/datasets/8840fd8ac1314f5188e6cf98b525321c_0.csv,0.7073170731707317,298,county
,Burlington County,NJ,USA,5,,,8,5,445384,39.8658955,-74.72494950000001,https://opendata.arcgis.com/datasets/8840fd8ac1314f5188e6cf98b525321c_0.csv,0.7073170731707317,299,county
,Camden County,NJ,USA,3,,,6,3,507078,39.800549000000004,-74.9381575,https://opendata.arcgis.com/datasets/8840fd8ac1314f5188e6cf98b525321c_0.csv,0.7073170731707317,300,county
,Cape May County,NJ,USA,0,,,0,0,92560,39.1261435,-74.756719,https://opendata.arcgis.com/datasets/8840fd8ac1314f5188e6cf98b525321c_0.csv,0.7073170731707317,301,county
,Cumberland County,NJ,USA,0,,,1,0,150972,39.373098,-75.135421,https://opendata.arcgis.com/datasets/8840fd8ac1314f5188e6cf98b525321c_0.csv,0.7073170731707317,302,county
,Essex County,NJ,USA,32,,,36,32,799767,40.7914715,-74.24515199999999,https://opendata.arcgis.com/datasets/8840fd8ac1314f5188e6cf98b525321c_0.csv,0.7073170731707317,303,county
,Gloucester County,NJ,USA,2,,,2,2,291408,39.7016335,-75.15904900000001,https://opendata.arcgis.com/datasets/8840fd8ac1314f5188e6cf98b525321c_0.csv,0.7073170731707317,304,county
,Hudson County,NJ,USA,24,,,30,24,676061,40.732721999999995,-74.07540449999999,https://opendata.arcgis.com/datasets/8840fd8ac1314f5188e6cf98b525321c_0.csv,0.7073170731707317,305,county
,Hunterdon County,NJ,USA,4,,,5,4,124714,40.5647375,-74.9494015,https://opendata.arcgis.com/datasets/8840fd8ac1314f5188e6cf98b525321c_0.csv,0.7073170731707317,306,county
,Mercer County,NJ,USA,9,,,9,9,369811,40.280848500000005,-74.7122715,https://opendata.arcgis.com/datasets/8840fd8ac1314f5188e6cf98b525321c_0.csv,0.7073170731707317,307,county
,Monmouth County,NJ,USA,22,,,27,22,621354,40.2778005,-74.2928135,https://opendata.arcgis.com/datasets/8840fd8ac1314f5188e6cf98b525321c_0.csv,0.7073170731707317,308,county
,Ocean County,NJ,USA,4,,,5,4,601651,39.835446000000005,-74.29221150000001,https://opendata.arcgis.com/datasets/8840fd8ac1314f5188e6cf98b525321c_0.csv,0.7073170731707317,309,county
,Passaic County,NJ,USA,10,,,12,10,503310,41.0114805,-74.304839,https://opendata.arcgis.com/datasets/8840fd8ac1314f5188e6cf98b525321c_0.csv,0.7073170731707317,310,county
,Salem County,NJ,USA,0,,,0,0,62607,39.5848515,-75.31079349999999,https://opendata.arcgis.com/datasets/8840fd8ac1314f5188e6cf98b525321c_0.csv,0.7073170731707317,311,county
,Somerset County,NJ,USA,7,,,7,7,331164,40.566201,-74.5998835,https://opendata.arcgis.com/datasets/8840fd8ac1314f5188e6cf98b525321c_0.csv,0.7073170731707317,312,county
,Sussex County,NJ,USA,0,,,1,0,140799,41.128282,-74.678832,https://opendata.arcgis.com/datasets/8840fd8ac1314f5188e6cf98b525321c_0.csv,0.7073170731707317,313,county
,Union County,NJ,USA,15,,,20,15,558067,40.665566,-74.300027,https://opendata.arcgis.com/datasets/8840fd8ac1314f5188e6cf98b525321c_0.csv,0.7073170731707317,314,county
,Warren County,NJ,USA,0,,,1,0,105779,40.8430415,-74.985897,https://opendata.arcgis.com/datasets/8840fd8ac1314f5188e6cf98b525321c_0.csv,0.7073170731707317,315,county
,Morris County,NJ,USA,7,,,7,7,494228,40.867802999999995,-74.5802275,https://opendata.arcgis.com/datasets/8840fd8ac1314f5188e6cf98b525321c_0.csv,0.7073170731707317,316,county
,Middlesex County,NJ,USA,22,,,26,22,829685,40.430130500000004,-74.41841600000001,https://opendata.arcgis.com/datasets/8840fd8ac1314f5188e6cf98b525321c_0.csv,0.7073170731707317,317,county
,,NJ,USA,250,,,294,250,8882190,12.104873978005386,15.06717673331957,https://opendata.arcgis.com/datasets/8840fd8ac1314f5188e6cf98b525321c_0.csv,0.6097560975609756,318,county
,,British Columbia,CAN,186,,,,186,5071000,54.15716767014678,-126.56202337499991,https://www.canada.ca/en/public-health/services/diseases/2019-novel-coronavirus-infection.html,0.43902439024390244,319,state
,,Alberta,CAN,97,,,,97,4067175,54.49628672664678,-115.00016854279502,https://www.canada.ca/en/public-health/services/diseases/2019-novel-coronavirus-infection.html,0.43902439024390244,320,state
,,Saskatchewan,CAN,2,,,,2,1098352,54.496338403094796,-105.6821561755884,https://www.canada.ca/en/public-health/services/diseases/2019-novel-coronavirus-infection.html,0.43902439024390244,321,state
,,Manitoba,CAN,8,,,,8,1278365,54.496368513369816,-95.4742987434922,https://www.canada.ca/en/public-health/services/diseases/2019-novel-coronavirus-infection.html,0.43902439024390244,322,state
,,Ontario,CAN,189,,,,189,13448494,49.26501413726137,-84.7533750036988,https://www.canada.ca/en/public-health/services/diseases/2019-novel-coronavirus-infection.html,0.43902439024390244,323,state
,,Quebec,CAN,74,,,,74,8164361,53.79378896700006,-68.38833574149993,https://www.canada.ca/en/public-health/services/diseases/2019-novel-coronavirus-infection.html,0.43902439024390244,324,state
,,Newfoundland and Labrador,CAN,0,,,,0,519716,53.46112743006114,-60.21844100481229,https://www.canada.ca/en/public-health/services/diseases/2019-novel-coronavirus-infection.html,0.43902439024390244,325,state
,,New Brunswick,CAN,2,,,,2,747101,46.36274594300005,-66.43830941249992,https://www.canada.ca/en/public-health/services/diseases/2019-novel-coronavirus-infection.html,0.43902439024390244,326,state
,,Nova Scotia,CAN,1,,,,1,923598,45.266872463000055,-63.021209276499945,https://www.canada.ca/en/public-health/services/diseases/2019-novel-coronavirus-infection.html,0.43902439024390244,327,state
,,Prince Edward Island,CAN,1,,,,1,142907,46.49290599200006,-63.21041826049995,https://www.canada.ca/en/public-health/services/diseases/2019-novel-coronavirus-infection.html,0.43902439024390244,328,state
,,,THA,177,1,41,,135,68414135,13.04083302850006,101.54455590850003,https://github.com/CSSEGISandData/COVID-19,0.7804878048780488,329,state
,,,JPN,878,29,144,,705,126451398,37.87307291750005,137.65978516150005,https://github.com/CSSEGISandData/COVID-19,0.7804878048780488,330,state
,,,SGP,266,0,114,,152,5888926,1.3585676125000532,103.80420983150006,https://github.com/CSSEGISandData/COVID-19,0.7804878048780488,331,state
,,,NPL,1,0,1,,0,29384297,28.38379831950006,84.1027264815001,https://github.com/CSSEGISandData/COVID-19,0.7804878048780488,332,state
,,,MYS,673,2,49,,622,31381992,3.9309068840000734,109.69719485800007,https://github.com/CSSEGISandData/COVID-19,0.7804878048780488,333,state
,,,KHM,33,0,1,,32,16204486,12.56212270450002,104.96757694500008,https://github.com/CSSEGISandData/COVID-19,0.7804878048780488,334,state
,,,LKA,44,0,1,,43,22409381,7.8766543645000695,80.82227623750006,https://github.com/CSSEGISandData/COVID-19,0.7804878048780488,335,state
,,,DEU,9257,24,67,,9166,80594017,51.09924480150008,10.473758178500105,https://github.com/CSSEGISandData/COVID-19,0.7804878048780488,336,state
,,,FIN,321,0,10,,311,5491218,64.9866635165001,26.09634464500006,https://github.com/CSSEGISandData/COVID-19,0.7804878048780488,337,state
,,,ARE,98,0,23,,75,6072475,24.340997059161296,53.97632897200003,https://github.com/CSSEGISandData/COVID-19,0.7804878048780488,338,state
,,,PHL,187,12,5,,170,104256076,12.108262437000064,121.93718509200005,https://github.com/CSSEGISandData/COVID-19,0.7804878048780488,339,state
,,,IND,142,3,14,,125,1281935911,21.151850284000083,82.74863427400004,https://github.com/CSSEGISandData/COVID-19,0.7804878048780488,340,state
,,,ITA,31506,2503,2941,,26062,62137802,41.826061709500074,12.56007714450007,https://github.com/CSSEGISandData/COVID-19,0.7804878048780488,341,state
,,,SWE,1190,7,1,,1182,9960487,62.191185204500094,17.635630730000088,https://github.com/CSSEGISandData/COVID-19,0.7804878048780488,342,state
,,,BEL,1243,10,1,,1232,11491346,50.49042053300006,4.4297657472728815,https://github.com/CSSEGISandData/COVID-19,0.7804878048780488,343,state
,,,EGY,196,4,32,,160,97041072,26.825424706000064,30.791862752500094,https://github.com/CSSEGISandData/COVID-19,0.7804878048780488,344,state
,,,LBN,120,3,3,,114,6229794,33.86861807120964,35.85466820900007,https://github.com/CSSEGISandData/COVID-19,0.7804878048780488,345,state
,,,IRQ,154,11,32,,111,39192111,33.21901997950006,43.65276391200004,https://github.com/CSSEGISandData/COVID-19,0.7804878048780488,346,state
,,,OMN,24,0,9,,15,3424386,21.444199937000064,55.911594682500095,https://github.com/CSSEGISandData/COVID-19,0.7804878048780488,347,state
,,,AFG,22,0,1,,21,34124811,33.930139364000084,67.6895422770001,https://github.com/CSSEGISandData/COVID-19,0.7804878048780488,348,state
,,,BHR,228,1,81,,146,1410942,26.024400132000068,50.53386477950008,https://github.com/CSSEGISandData/COVID-19,0.7804878048780488,349,state
,,,KWT,130,0,9,,121,2875422,29.315860290500055,47.48260848850009,https://github.com/CSSEGISandData/COVID-19,0.7804878048780488,350,state
,,,DZA,60,4,12,,44,40969443,28.032339379000085,1.6432377520000898,https://github.com/CSSEGISandData/COVID-19,0.7804878048780488,351,state
,,,HRV,65,0,4,,61,4292095,44.48165314050009,16.33771101500008,https://github.com/CSSEGISandData/COVID-19,0.7804878048780488,352,state
,,,CHE,2700,27,4,,2669,8236303,46.840811259500086,8.258983805500094,https://github.com/CSSEGISandData/COVID-19,0.7804878048780488,353,state
,,,AUT,1332,3,1,,1328,8754413,47.71313527500007,13.334746337500093,https://github.com/CSSEGISandData/COVID-19,0.7804878048780488,354,state
,,,ISR,337,0,11,,326,8299706,31.448389692000035,35.06821170350008,https://github.com/CSSEGISandData/COVID-19,0.7804878048780488,355,state
,,,PAK,236,0,2,,234,204924861,30.377750552000087,68.94667484550007,https://github.com/CSSEGISandData/COVID-19,0.7804878048780488,356,state
,,,GEO,34,0,1,,33,4926330,42.31029968300004,43.34038972821833,https://github.com/CSSEGISandData/COVID-19,0.7804878048780488,357,state
,,,GRC,387,5,8,,374,10768477,38.322331546000065,24.119802279500078,https://github.com/CSSEGISandData/COVID-19,0.7804878048780488,358,state
,,,MKD,26,0,1,,25,2103721,41.591247966000054,21.726869751000095,https://github.com/CSSEGISandData/COVID-19,0.7804878048780488,359,state
,,,NOR,1463,3,1,,1459,5320045,69.25525543850006,18.013723178000077,https://github.com/CSSEGISandData/COVID-19,0.7804878048780488,360,state
,,,ROU,184,0,16,,168,21529967,45.95662750300005,24.950926754500074,https://github.com/CSSEGISandData/COVID-19,0.7804878048780488,361,state
,,,EST,225,0,1,,224,1251581,58.572233381000025,24.943451368500064,https://github.com/CSSEGISandData/COVID-19,0.7804878048780488,362,state
,,,SMR,109,7,4,,98,33537,43.92963720000006,12.437976970500117,https://github.com/CSSEGISandData/COVID-19,0.7804878048780488,363,state
,,,BLR,36,0,3,,33,9549747,53.72384073950006,27.942588541500044,https://github.com/CSSEGISandData/COVID-19,0.7804878048780488,364,state
,,,ISL,220,1,0,,219,339747,64.96666087450004,-18.861826138499936,https://github.com/CSSEGISandData/COVID-19,0.7804878048780488,365,state
,,,LTU,25,0,1,,24,2823859,55.16278391600002,23.911012610500066,https://github.com/CSSEGISandData/COVID-19,0.7804878048780488,366,state
,,,MEX,82,0,4,,78,124574795,23.629557940500092,-101.93334401247205,https://github.com/CSSEGISandData/COVID-19,0.7804878048780488,367,state
,,,NZL,12,0,0,,12,4510327,-40.878065687999936,172.51685631600003,https://github.com/CSSEGISandData/COVID-19,0.7804878048780488,368,state
,,,NGA,3,0,0,,3,190632261,9.07578074450008,8.671077514500098,https://github.com/CSSEGISandData/COVID-19,0.7804878048780488,369,state
,,,IRL,223,2,5,,216,5011102,53.46108633000006,-8.136179165499925,https://github.com/CSSEGISandData/COVID-19,0.7804878048780488,370,state
,,,LUX,140,1,0,,139,594130,49.80347279900003,6.1075130615000575,https://github.com/CSSEGISandData/COVID-19,0.7804878048780488,371,state
,,,MCO,7,0,0,,7,30645,43.743117918500026,7.401602119563048,https://github.com/CSSEGISandData/COVID-19,0.7804878048780488,372,state
,,,QAT,439,0,4,,435,2314307,25.363913984500023,51.18376712300005,https://github.com/CSSEGISandData/COVID-19,0.7804878048780488,373,state
,,,ECU,58,2,0,,56,16290913,-1.7634670984999161,-83.4578538649999,https://github.com/CSSEGISandData/COVID-19,0.7804878048780488,374,state
,,,AZE,28,1,6,,21,9961396,40.14320973750006,47.50227481750011,https://github.com/CSSEGISandData/COVID-19,0.7804878048780488,375,state
,,,ARM,78,0,1,,77,3045191,40.077076823500036,45.01914310700013,https://github.com/CSSEGISandData/COVID-19,0.7804878048780488,376,state
,,,DOM,21,1,0,,20,10734247,18.771246649000062,-70.13417985399988,https://github.com/CSSEGISandData/COVID-19,0.7804878048780488,377,state
,,,IDN,172,5,8,,159,260580739,-2.6357561174999375,118.08721907200007,https://github.com/CSSEGISandData/COVID-19,0.7804878048780488,378,state
,,,PRT,448,1,3,,444,10839514,37.400416263500055,-15.94334102749994,https://github.com/CSSEGISandData/COVID-19,0.7804878048780488,379,state
,,,AND,39,0,1,,38,85702,42.51501586950006,1.5681518960000886,https://github.com/CSSEGISandData/COVID-19,0.7804878048780488,380,state
,,,LVA,49,0,1,,48,1944643,56.862861023500045,24.59194014100008,https://github.com/CSSEGISandData/COVID-19,0.7804878048780488,381,state
,,,MAR,38,2,1,,35,33986655,28.67223747529175,-9.030622863196513,https://github.com/CSSEGISandData/COVID-19,0.7804878048780488,382,state
,,,SAU,171,0,6,,165,28571770,24.244550886000077,45.132142167500064,https://github.com/CSSEGISandData/COVID-19,0.7804878048780488,383,state
,,,SEN,26,0,2,,24,14668522,14.474492289500091,-14.37969132899994,https://github.com/CSSEGISandData/COVID-19,0.7804878048780488,384,state
,,,ARG,68,2,3,,63,44293293,-38.42173074799991,-63.626654215499926,https://github.com/CSSEGISandData/COVID-19,0.7804878048780488,385,state
,,,CHL,201,0,0,,201,17789267,-36.567062457499944,-71.3604937374999,https://github.com/CSSEGISandData/COVID-19,0.7804878048780488,386,state
,,,JOR,34,0,1,,33,10248069,31.280817871500048,37.04788003839781,https://github.com/CSSEGISandData/COVID-19,0.7804878048780488,387,state
,,,UKR,14,2,0,,12,44033874,48.79241852100008,31.137251424000127,https://github.com/CSSEGISandData/COVID-19,0.7804878048780488,388,state
,,,HUN,50,1,2,,47,9850845,47.156127930000025,19.485817912000087,https://github.com/CSSEGISandData/COVID-19,0.7804878048780488,389,state
,,,LIE,7,0,0,,7,38244,47.15983571400008,9.533092081500058,https://github.com/CSSEGISandData/COVID-19,0.7804878048780488,390,state
,,,POL,238,5,13,,220,38476269,51.93482900350006,19.125478149000088,https://github.com/CSSEGISandData/COVID-19,0.7804878048780488,391,state
,,,TUN,24,0,0,,24,11403800,33.78217031200008,9.521981649000097,https://github.com/CSSEGISandData/COVID-19,0.7804878048780488,392,state
,,,BIH,26,0,2,,24,3856181,43.91899993950011,17.668099406000096,https://github.com/CSSEGISandData/COVID-19,0.7804878048780488,393,state
,,,SVN,275,1,0,,274,1972126,46.14379954050001,14.940281412500084,https://github.com/CSSEGISandData/COVID-19,0.7804878048780488,394,state
,,,ZAF,62,0,0,,62,54841552,-28.469792578999943,24.690074089500087,https://github.com/CSSEGISandData/COVID-19,0.7804878048780488,395,state
,,,BTN,1,0,0,,1,758288,27.518180482737833,90.40745792650009,https://github.com/CSSEGISandData/COVID-19,0.7804878048780488,396,state
,,,CMR,10,0,0,,10,24994885,7.407972718000032,12.350860429500074,https://github.com/CSSEGISandData/COVID-19,0.7804878048780488,397,state
,,,COL,65,0,1,,64,47698524,4.114416812000066,-72.93652033249992,https://github.com/CSSEGISandData/COVID-19,0.7804878048780488,398,state
,,,CRI,41,0,0,,41,4930258,9.615482479500045,-84.21760006449992,https://github.com/CSSEGISandData/COVID-19,0.7804878048780488,399,state
,,,PER,117,0,1,,116,31036656,-9.190602483184005,-75.01090500599992,https://github.com/CSSEGISandData/COVID-19,0.7804878048780488,400,state
,,,SRB,65,0,1,,64,7111024,44.20522467850007,20.9182886145001,https://github.com/CSSEGISandData/COVID-19,0.7804878048780488,401,state
,,,SVK,72,0,0,,72,5445829,48.67589304650005,19.692058553000123,https://github.com/CSSEGISandData/COVID-19,0.7804878048780488,402,state
,,,TGO,1,0,0,,1,7965055,8.61773549700009,0.8081207685000891,https://github.com/CSSEGISandData/COVID-19,0.7804878048780488,403,state
,,,MLT,38,0,2,,36,416338,35.88346995650005,14.445323113000057,https://github.com/CSSEGISandData/COVID-19,0.7804878048780488,404,state
,,,MTQ,16,1,0,,15,,14.6415,-61.0242,https://github.com/CSSEGISandData/COVID-19,0.7804878048780488,,state
,,,BGR,67,2,0,,65,7101510,42.73391529800004,25.47427473600007,https://github.com/CSSEGISandData/COVID-19,0.7804878048780488,405,state
,,,MDV,13,0,0,,13,392709,4.213175576792927,73.52910604309824,https://github.com/CSSEGISandData/COVID-19,0.7804878048780488,406,state
,,,BGD,10,0,3,,7,157826578,23.73811778050007,90.33232039450004,https://github.com/CSSEGISandData/COVID-19,0.7804878048780488,407,state
,,,PRY,9,0,0,,9,6943739,-23.43368479399996,-58.44782303899994,https://github.com/CSSEGISandData/COVID-19,0.7804878048780488,408,state
,,,ALB,55,1,0,,54,3047987,41.11245290150006,20.154355916000085,https://github.com/CSSEGISandData/COVID-19,0.7804878048780488,409,state
,,,CYP,46,0,0,,46,1221549,34.910753335500104,33.197142898000095,https://github.com/CSSEGISandData/COVID-19,0.7804878048780488,410,state
,,,BRN,56,0,0,,56,443593,4.510995486500057,114.66157535500005,https://github.com/CSSEGISandData/COVID-19,0.7804878048780488,411,state
,,CA,USA,698,12,6,,680,39512223,13.881211864033439,-88.73667151233042,https://github.com/CSSEGISandData/COVID-19,0.7804878048780488,412,state
,,MA,USA,218,0,1,,217,6892503,3.8958436470103948,-57.491786678543065,https://github.com/CSSEGISandData/COVID-19,0.7804878048780488,413,state
,,GA,USA,146,1,0,,145,10617423,5.003778723500062,46.67953211888616,https://github.com/CSSEGISandData/COVID-19,0.7804878048780488,414,state
,,FL,USA,216,6,0,,210,21477737,53.20875990795537,-3.1370130791734043,https://github.com/CSSEGISandData/COVID-19,0.7804878048780488,415,state
,,PA,USA,112,0,0,,112,12801989,-32.0391034891347,-57.22248977138129,https://github.com/CSSEGISandData/COVID-19,0.7804878048780488,416,state
,,SC,USA,47,1,0,,46,5148714,45.898594465640834,19.585981719498946,https://github.com/CSSEGISandData/COVID-19,0.7804878048780488,417,state
,,TN,USA,74,0,0,,74,6829174,11.370549577000084,106.12875657678063,https://github.com/CSSEGISandData/COVID-19,0.7804878048780488,418,state
,,VA,USA,67,2,0,,65,8535519,47.69023320653376,16.562298798952522,https://github.com/CSSEGISandData/COVID-19,0.7804878048780488,419,state
,,AZ,USA,20,0,1,,19,7278717,23.795429430473412,53.78359968700005,https://github.com/CSSEGISandData/COVID-19,0.7804878048780488,420,state
,,KY,USA,26,1,1,,24,4467673,13.788978577500039,-10.19809332590178,https://github.com/CSSEGISandData/COVID-19,0.7804878048780488,421,state
,,NV,USA,56,1,0,,55,3080156,41.01050781662638,21.66318692014022,https://github.com/CSSEGISandData/COVID-19,0.7804878048780488,422,state
,,NH,USA,26,0,0,,26,1359711,44.002575579129676,-71.64192281532604,https://github.com/CSSEGISandData/COVID-19,0.7804878048780488,423,state
,,MN,USA,60,0,0,,60,5639632,54.15832285890196,-6.933507071014063,https://github.com/CSSEGISandData/COVID-19,0.7804878048780488,424,state
,,NE,USA,21,0,0,,21,1934408,-21.0124630734999,27.602830536104022,https://github.com/CSSEGISandData/COVID-19,0.7804878048780488,425,state
,,OH,USA,67,0,0,,67,11689100,40.36645852284252,-82.67188114679749,https://github.com/CSSEGISandData/COVID-19,0.7804878048780488,426,state
,,RI,USA,23,0,0,,23,1059361,0.7348025577156534,101.93572187668923,https://github.com/CSSEGISandData/COVID-19,0.7804878048780488,427,state
,,CT,USA,68,0,0,,68,3565287,-10.031169938956474,34.05329914828664,https://github.com/CSSEGISandData/COVID-19,0.7804878048780488,428,state
,,HI,USA,10,0,0,,10,1415872,4.370262062444226,45.49839878947134,https://github.com/CSSEGISandData/COVID-19,0.7804878048780488,429,state
,,OK,USA,19,0,0,,19,3956971,-18.289010747629185,19.49680472116094,https://github.com/CSSEGISandData/COVID-19,0.7804878048780488,430,state
,,UT,USA,51,0,0,,51,3205958,30.085476993671897,79.29053999553955,https://github.com/CSSEGISandData/COVID-19,0.7804878048780488,431,state
,,,BFA,15,0,0,,15,20107509,12.230804951500069,-1.5662045904998934,https://github.com/CSSEGISandData/COVID-19,0.7804878048780488,432,state
,,,VAT,1,0,0,,1,1000,41.90333333950011,12.453533325000109,https://github.com/CSSEGISandData/COVID-19,0.7804878048780488,433,state
,,,MNG,5,0,0,,5,3068243,46.85141784700008,103.85503503500007,https://github.com/CSSEGISandData/COVID-19,0.7804878048780488,434,state
,,,PAN,69,1,0,,68,3753142,8.420921827000058,-80.07274338849989,https://github.com/CSSEGISandData/COVID-19,0.7804878048780488,435,state
,,KS,USA,18,1,0,,17,2913314,-13.001272450762997,33.45296190966974,https://github.com/CSSEGISandData/COVID-19,0.7804878048780488,436,state
,,MO,USA,11,0,0,,11,6137428,13.766638946280324,-88.10526448763456,https://github.com/CSSEGISandData/COVID-19,0.7804878048780488,437,state
,,VT,USA,12,0,0,,12,623989,43.2286709521527,25.622240024407574,https://github.com/CSSEGISandData/COVID-19,0.7804878048780488,438,state
,,AK,USA,3,0,0,,3,731545,60.053117394710654,11.221986756417863,https://github.com/CSSEGISandData/COVID-19,0.7804878048780488,439,state
,,AR,USA,22,0,0,,22,3017804,28.008685410239444,94.46749434450007,https://github.com/CSSEGISandData/COVID-19,0.7804878048780488,440,state
,,ID,USA,8,0,0,,8,1787065,35.84422068938329,36.68586180312968,https://github.com/CSSEGISandData/COVID-19,0.7804878048780488,441,state
,,ME,USA,32,0,0,,32,1344212,33.07348753200004,10.639019813077255,https://github.com/CSSEGISandData/COVID-19,0.7804878048780488,442,state
,,MI,USA,65,0,0,,65,9986857,-26.9553565436281,-57.118730231514974,https://github.com/CSSEGISandData/COVID-19,0.7804878048780488,443,state
,,MT,USA,9,0,0,,9,1068778,46.7125883042568,16.272058415378368,https://github.com/CSSEGISandData/COVID-19,0.7804878048780488,444,state
,,NM,USA,23,0,0,,23,2096829,45.35383134546877,111.62347220837569,https://github.com/CSSEGISandData/COVID-19,0.7804878048780488,445,state
,,ND,USA,3,0,0,,3,762062,47.46721085597658,-100.3019580214955,https://github.com/CSSEGISandData/COVID-19,0.7804878048780488,446,state
,,SD,USA,11,1,0,,10,884659,26.13054169295833,68.8897290410001,https://github.com/CSSEGISandData/COVID-19,0.7804878048780488,447,state
,,WV,USA,1,0,0,,1,1792147,38.92806805344787,-80.1829407161911,https://github.com/CSSEGISandData/COVID-19,0.7804878048780488,448,state
,,WY,USA,11,0,0,,11,578759,42.999967466625236,-107.55199589229656,https://github.com/CSSEGISandData/COVID-19,0.7804878048780488,449,state
,,Hubei,CHN,67799,3111,56003,,8685,59170000,31.166405443456426,112.26392825753302,https://github.com/CSSEGISandData/COVID-19,0.7804878048780488,450,state
,,,IRN,16169,988,5389,,9792,82021564,32.412651216000036,53.6631116130001,https://github.com/CSSEGISandData/COVID-19,0.7804878048780488,451,state
,,,KOR,8320,81,1407,,6832,51181299,35.91235993050006,127.85698489700007,https://github.com/CSSEGISandData/COVID-19,0.7804878048780488,452,state
,,Guangdong,CHN,1364,8,1307,,49,113460000,22.876783758944043,113.41792352680932,https://github.com/CSSEGISandData/COVID-19,0.7804878048780488,453,state
,,Henan,CHN,1273,22,1250,,1,96050000,33.87707977965809,113.48442223524788,https://github.com/CSSEGISandData/COVID-19,0.7804878048780488,454,state
,,Zhejiang,CHN,1232,1,1216,,15,57370000,29.189050400871963,120.1641359794138,https://github.com/CSSEGISandData/COVID-19,0.7804878048780488,455,state
,,Hunan,CHN,1018,4,1014,,0,68990000,27.369414984613826,111.50909061104284,https://github.com/CSSEGISandData/COVID-19,0.7804878048780488,456,state
,,Anhui,CHN,990,6,984,,0,63240000,32.02378204990168,117.2581712176775,https://github.com/CSSEGISandData/COVID-19,0.7804878048780488,457,state
,,Jiangxi,CHN,935,1,934,,0,46480000,27.275131334293633,116.01917707751011,https://github.com/CSSEGISandData/COVID-19,0.7804878048780488,458,state
,,Shandong,CHN,761,7,746,,8,100470000,36.33507593620547,118.74515424940193,https://github.com/CSSEGISandData/COVID-19,0.7804878048780488,459,state
,,Jiangsu,CHN,631,0,631,,0,80510000,32.934811713190015,119.14963721029278,https://github.com/CSSEGISandData/COVID-19,0.7804878048780488,460,state
,,Chongqing,CHN,576,6,570,,0,31020000,30.198712571927643,107.73296451180275,https://github.com/CSSEGISandData/COVID-19,0.7804878048780488,461,state
,,Sichuan,CHN,540,3,520,,17,83410000,30.165213324835065,102.93966535826965,https://github.com/CSSEGISandData/COVID-19,0.7804878048780488,462,state
,,Heilongjiang,CHN,482,13,456,,13,37730000,48.501949771374576,127.97325321185173,https://github.com/CSSEGISandData/COVID-19,0.7804878048780488,463,state
,,Beijing,CHN,456,8,369,,79,21540000,40.236575323991985,116.42780846573805,https://github.com/CSSEGISandData/COVID-19,0.7804878048780488,464,state
,,Shanghai,CHN,358,3,325,,30,24240000,31.266158547445322,121.43153719907554,https://github.com/CSSEGISandData/COVID-19,0.7804878048780488,465,state
,,Hebei,CHN,318,6,310,,2,75560000,39.323827419599695,116.65206139450123,https://github.com/CSSEGISandData/COVID-19,0.7804878048780488,466,state
,,Fujian,CHN,296,1,295,,0,39410000,25.971159641604146,118.13227705193037,https://github.com/CSSEGISandData/COVID-19,0.7804878048780488,467,state
,,Guangxi,CHN,253,2,248,,3,49260000,23.899949245349177,108.27096784823755,https://github.com/CSSEGISandData/COVID-19,0.7804878048780488,468,state
,,Shaanxi,CHN,246,3,236,,7,38640000,35.63509908705319,108.36171166401203,https://github.com/CSSEGISandData/COVID-19,0.7804878048780488,469,state
,,Yunnan,CHN,176,2,172,,2,48300000,25.179122725058342,101.85510583221756,https://github.com/CSSEGISandData/COVID-19,0.7804878048780488,470,state
,,Hainan,CHN,168,6,161,,1,9340000,19.150763250500063,109.81287682400003,https://github.com/CSSEGISandData/COVID-19,0.7804878048780488,471,state
,,Guizhou,CHN,147,2,144,,1,36000000,26.9387435980386,106.60127648352287,https://github.com/CSSEGISandData/COVID-19,0.7804878048780488,472,state
,,Tianjin,CHN,136,3,133,,0,15600000,39.40813751918114,117.34508644325369,https://github.com/CSSEGISandData/COVID-19,0.7804878048780488,473,state
,,Shanxi,CHN,133,0,133,,0,37180000,37.66312775369286,112.3891919290642,https://github.com/CSSEGISandData/COVID-19,0.7804878048780488,474,state
,,Gansu,CHN,133,2,91,,40,26370000,37.69770367228662,100.73804263765757,https://github.com/CSSEGISandData/COVID-19,0.7804878048780488,475,state
,,,Hong Kong,162,4,88,,70,,22.3,114.2,https://github.com/CSSEGISandData/COVID-19,0.7804878048780488,,state
,,Liaoning,CHN,125,1,120,,4,43590000,41.09091390618639,122.31055016440854,https://github.com/CSSEGISandData/COVID-19,0.7804878048780488,476,state
,,Jilin,CHN,93,1,92,,0,27040000,43.56576924140737,126.47365482303488,https://github.com/CSSEGISandData/COVID-19,0.7804878048780488,477,state
,,,CZE,396,0,3,,393,10674723,49.80312398300006,15.540038086000095,https://github.com/CSSEGISandData/COVID-19,0.7804878048780488,478,state
,,Xinjiang,CHN,76,3,73,,0,24870000,41.752899103285706,84.98429810398284,https://github.com/CSSEGISandData/COVID-19,0.7804878048780488,479,state
,,Inner Mongolia,CHN,75,1,73,,1,25000034,45.35383134546877,111.62347220837569,https://github.com/CSSEGISandData/COVID-19,0.7804878048780488,445,state
,,Ningxia,CHN,75,0,75,,0,6880000,37.31081075681095,106.00808271719359,https://github.com/CSSEGISandData/COVID-19,0.7804878048780488,480,state
,,,TWN,77,1,22,,54,23508428,23.598456122000044,120.98259524850005,https://github.com/CSSEGISandData/COVID-19,0.7804878048780488,481,state
,,,VNM,66,0,16,,50,96160163,15.941768090000089,105.79183617800007,https://github.com/CSSEGISandData/COVID-19,0.7804878048780488,482,state
,,,RUS,114,0,8,,106,142257519,61.240742495500065,4.263256414560601e-14,https://github.com/CSSEGISandData/COVID-19,0.7804878048780488,483,state
,,Qinghai,CHN,18,0,18,,0,6030000,35.43499502195269,96.23774885477579,https://github.com/CSSEGISandData/COVID-19,0.7804878048780488,484,state
,,Macau,CHN,12,0,10,,2,667400,22.1667,113.55,https://github.com/CSSEGISandData/COVID-19,0.7804878048780488,,state
,,,MDA,30,0,1,,29,3474121,46.967069702500055,28.28525496400006,https://github.com/CSSEGISandData/COVID-19,0.7804878048780488,485,state
,,,BOL,11,0,0,,11,11138234,-16.286937560999938,-63.58694087799992,https://github.com/CSSEGISandData/COVID-19,0.7804878048780488,486,state
,,St Martin,FRA,2,0,0,,2,,18.07776461717568,-63.06228647314417,https://github.com/CSSEGISandData/COVID-19,0.7804878048780488,487,state
,,,HND,8,0,0,,8,9038741,14.484747626000058,-86.24603266122396,https://github.com/CSSEGISandData/COVID-19,0.7804878048780488,488,state
,,Channel Islands,GBR,6,0,0,,6,,49.3723,-2.3644,https://github.com/CSSEGISandData/COVID-19,0.7804878048780488,,state
,,Tibet,CHN,1,0,1,,0,3440000,31.88221486755922,88.74489831230724,https://github.com/CSSEGISandData/COVID-19,0.7804878048780488,489,state
,,,COD,3,0,0,,3,83301151,-4.029468688999948,21.726683794000053,https://github.com/CSSEGISandData/COVID-19,0.7804878048780488,490,state
,,,CIV,5,0,1,,4,24184810,7.533667911000066,-5.536220662499915,https://github.com/CSSEGISandData/COVID-19,0.7804878048780488,491,state
,,Saint Barthelemy,FRA,3,0,0,,3,9793,17.903509833000072,-62.82453365799992,https://github.com/CSSEGISandData/COVID-19,0.7804878048780488,492,state
,,,JAM,12,0,2,,10,2990561,18.11774323150007,-77.30223548049992,https://github.com/CSSEGISandData/COVID-19,0.7804878048780488,493,state
,,,TUR,47,1,0,,46,80845215,38.95576283850008,35.425474377000086,https://github.com/CSSEGISandData/COVID-19,0.7804878048780488,494,state
,,Gibraltar,GBR,3,0,1,,2,32194,36.13020456349999,-5.348580120852014,https://github.com/CSSEGISandData/COVID-19,0.7804878048780488,495,state
,,,CUB,5,0,0,,5,11147407,21.528102931500058,-79.28561357349994,https://github.com/CSSEGISandData/COVID-19,0.7804878048780488,496,state
,,,GUY,7,1,0,,6,737718,4.887909040000061,-58.9307134609999,https://github.com/CSSEGISandData/COVID-19,0.7804878048780488,497,state
,,,GBR,1950,55,52,,1843,64769452,55.19161611550004,-3.192432722499916,https://github.com/CSSEGISandData/COVID-19,0.7804878048780488,498,state
,,,KAZ,33,0,0,,33,18556698,47.96872690850006,66.90155419950011,https://github.com/CSSEGISandData/COVID-19,0.7804878048780488,499,state
,,French Polynesia,FRA,3,0,0,,3,,-17.6797,149.4068,https://github.com/CSSEGISandData/COVID-19,0.7804878048780488,,state
,,,ETH,5,0,0,,5,105350020,9.170952962500039,40.484484497000125,https://github.com/CSSEGISandData/COVID-19,0.7804878048780488,500,state
,,,SDN,1,1,0,,0,37345935,15.342520469500087,30.205510901500105,https://github.com/CSSEGISandData/COVID-19,0.7804878048780488,501,state
,,,GIN,1,0,0,,1,12413867,9.955672506000056,-11.356289228999898,https://github.com/CSSEGISandData/COVID-19,0.7804878048780488,502,state
,,,ABW,3,0,0,,3,115120,12.497626043500048,-69.9691462879999,https://github.com/CSSEGISandData/COVID-19,0.7804878048780488,503,state
,,,KEN,3,0,0,,3,47615739,0.1521078450765998,37.889294067000066,https://github.com/CSSEGISandData/COVID-19,0.7804878048780488,504,state
,,,ATG,1,0,0,,1,94731,17.098659572500083,-61.78465735599994,https://github.com/CSSEGISandData/COVID-19,0.7804878048780488,505,state
,,,URY,29,0,0,,29,3360148,-32.535970353999936,-55.78074845749991,https://github.com/CSSEGISandData/COVID-19,0.7804878048780488,506,state
,,,GHA,7,0,0,,7,27499924,7.936054182000099,-1.038557295499956,https://github.com/CSSEGISandData/COVID-19,0.7804878048780488,507,state
,,PR,USA,5,0,0,,5,3193694,58.30971624953123,24.422173129022518,https://github.com/CSSEGISandData/COVID-19,0.7804878048780488,508,state
,,,JEY,2,0,0,,2,98840,49.21578603700004,-2.133269823499944,https://github.com/CSSEGISandData/COVID-19,0.7804878048780488,509,state
,,,NAM,2,0,0,,2,2484780,-22.95521270749991,18.48870100550009,https://github.com/CSSEGISandData/COVID-19,0.7804878048780488,510,state
,,,SYC,4,0,0,,4,93920,-4.6842609996816105,55.46512857035178,https://github.com/CSSEGISandData/COVID-19,0.7804878048780488,511,state
,,,TTO,5,0,0,,5,1218208,10.451544501000058,-61.33045406799994,https://github.com/CSSEGISandData/COVID-19,0.7804878048780488,512,state
,,,VEN,33,0,0,,33,31304016,6.444529930500067,-66.5967054854999,https://github.com/CSSEGISandData/COVID-19,0.7804878048780488,513,state
,,,SWZ,1,0,0,,1,1467152,-26.52995574899993,31.451547485500043,https://github.com/CSSEGISandData/COVID-19,0.7804878048780488,514,state
,,,GAB,1,0,0,,1,1772255,-0.8136401413979657,11.649647050500107,https://github.com/CSSEGISandData/COVID-19,0.7804878048780488,515,state
,,,GTM,6,1,0,,5,15460732,15.773375903990305,-90.2335965784999,https://github.com/CSSEGISandData/COVID-19,0.7804878048780488,516,state
,,,GGY,1,0,0,,1,66502,49.46224599800004,-2.601714647499932,https://github.com/CSSEGISandData/COVID-19,0.7804878048780488,517,state
,,,MRT,1,0,0,,1,19245344,17.606562093000058,8.053466634000088,https://github.com/CSSEGISandData/COVID-19,0.7804878048780488,518,state
,,,RWA,7,0,0,,7,11901484,-1.943601175999916,29.873323404500084,https://github.com/CSSEGISandData/COVID-19,0.7804878048780488,519,state
,,,LCA,2,0,0,,2,164994,13.86609528200006,-60.981353318999936,https://github.com/CSSEGISandData/COVID-19,0.7804878048780488,520,state
,,,VCT,1,0,0,,1,102089,13.257473049000055,-61.19764156799994,https://github.com/CSSEGISandData/COVID-19,0.7804878048780488,521,state
,,,SUR,1,0,0,,1,591919,3.922540270500072,-56.02702432849992,https://github.com/CSSEGISandData/COVID-19,0.7804878048780488,522,state
,,GU,USA,3,0,0,,3,,20.219303647966534,-74.81395931680615,https://github.com/CSSEGISandData/COVID-19,0.7804878048780488,523,state
,,,XKX,2,0,0,,2,1895250,42.521824239500006,20.90180383250008,https://github.com/CSSEGISandData/COVID-19,0.7804878048780488,524,state
,,,CAF,1,0,0,,1,5625118,6.61864105250006,20.91950301100013,https://github.com/CSSEGISandData/COVID-19,0.7804878048780488,525,state
,,,COG,1,0,0,,1,4954674,-0.6556773869999333,14.870201735054954,https://github.com/CSSEGISandData/COVID-19,0.7804878048780488,526,state
,,,GNQ,1,0,0,,1,778358,2.3796428239493608,9.89327355600011,https://github.com/CSSEGISandData/COVID-19,0.7804878048780488,527,state
,,,UZB,10,0,0,,10,29748859,41.373793538500024,64.48963423650005,https://github.com/CSSEGISandData/COVID-19,0.7804878048780488,528,state
,,,BEN,1,0,0,,1,11038805,9.306569115000109,2.3030941155000306,https://github.com/CSSEGISandData/COVID-19,0.7804878048780488,529,state
,,,GRL,1,0,0,,1,57713,71.81159088750007,-42.211435513499936,https://github.com/CSSEGISandData/COVID-19,0.7804878048780488,530,state
,,,LBR,1,0,0,,1,4689021,6.419949359948774,-9.434906172499936,https://github.com/CSSEGISandData/COVID-19,0.7804878048780488,531,state
,,,Republic of the Congo,1,0,0,,1,4954674,-0.6556773869999333,14.870201735054954,https://github.com/CSSEGISandData/COVID-19,0.7804878048780488,526,state
,,,SOM,1,0,0,,1,7531386,5.146407826500052,46.12904176900011,https://github.com/CSSEGISandData/COVID-19,0.7804878048780488,532,state
,,,Tanzania,1,0,0,,1,53950935,-6.362582091999926,34.87894555300008,https://github.com/CSSEGISandData/COVID-19,0.7804878048780488,533,state
,,,The Bahamas,1,0,0,,1,,21.243227533000066,-73.30892915499993,https://github.com/CSSEGISandData/COVID-19,0.7804878048780488,534,state
,,VI,USA,2,0,0,,2,,55.186838891464824,28.674670765279913,https://github.com/CSSEGISandData/COVID-19,0.7804878048780488,535,state
,,,BRB,2,0,0,,2,292336,13.189886786000045,-59.54055742099993,https://github.com/CSSEGISandData/COVID-19,0.7804878048780488,536,state
,,,MNE,2,0,0,,2,642550,42.69257924700006,19.39135339350007,https://github.com/CSSEGISandData/COVID-19,0.7804878048780488,537,state
,,,The Gambia,1,0,0,,1,2051363,13.442496646000073,-15.340368716999905,https://github.com/CSSEGISandData/COVID-19,0.7804878048780488,538,state
,Zurich,,CHE,294,0,0,0,294,,,,https://raw.githubusercontent.com/openZH/covid_19/master/COVID19_Fallzahlen_Kanton_ZH_total.csv,0.7804878048780488,,
,,Abruzzo,ITA,229,6,7,,216,1311580,42.28841046055399,13.90075072681885,https://raw.githubusercontent.com/pcm-dpc/COVID-19/master/dati-regioni/dpc-covid19-ita-regioni.csv,0.8292682926829268,539,state
,,Basilicata,ITA,20,0,0,,20,562869,40.51736165566957,16.10092821894685,https://raw.githubusercontent.com/pcm-dpc/COVID-19/master/dati-regioni/dpc-covid19-ita-regioni.csv,0.8292682926829268,540,state
,,P.A. Bolzano,ITA,291,8,1,,282,107436,46.65500433907897,11.419398570635366,https://raw.githubusercontent.com/pcm-dpc/COVID-19/master/dati-regioni/dpc-covid19-ita-regioni.csv,0.8292682926829268,541,state
,,Calabria,ITA,114,1,1,,112,1947131,39.02984011561159,16.418351979942813,https://raw.githubusercontent.com/pcm-dpc/COVID-19/master/dati-regioni/dpc-covid19-ita-regioni.csv,0.8292682926829268,542,state
,,Campania,ITA,460,9,28,,423,5801692,40.74896505776182,14.783939401902451,https://raw.githubusercontent.com/pcm-dpc/COVID-19/master/dati-regioni/dpc-covid19-ita-regioni.csv,0.8292682926829268,543,state
,,Emilia Romagna,ITA,3931,393,134,,3404,4459477,44.43551924350304,10.977418355306853,https://raw.githubusercontent.com/pcm-dpc/COVID-19/master/dati-regioni/dpc-covid19-ita-regioni.csv,0.8292682926829268,544,state
,,Friuli Venezia Giulia,ITA,394,30,17,,347,1215220,46.11416103259626,13.120408018720507,https://raw.githubusercontent.com/pcm-dpc/COVID-19/master/dati-regioni/dpc-covid19-ita-regioni.csv,0.8292682926829268,545,state
,,Lazio,ITA,607,23,34,,550,5879082,41.811776720877134,12.738640304805985,https://raw.githubusercontent.com/pcm-dpc/COVID-19/master/dati-regioni/dpc-covid19-ita-regioni.csv,0.8292682926829268,546,state
,,Liguria,ITA,778,60,57,,661,1550640,44.22635345917788,8.783353306551223,https://raw.githubusercontent.com/pcm-dpc/COVID-19/master/dati-regioni/dpc-covid19-ita-regioni.csv,0.8292682926829268,547,state
,,Lombardia,ITA,16220,1640,2485,,12095,10060574,45.65756679322394,9.96253973345539,https://raw.githubusercontent.com/pcm-dpc/COVID-19/master/dati-regioni/dpc-covid19-ita-regioni.csv,0.8292682926829268,548,state
,,Marche,ITA,1371,69,0,,1302,1525271,43.327895591043244,13.051090223045493,https://raw.githubusercontent.com/pcm-dpc/COVID-19/master/dati-regioni/dpc-covid19-ita-regioni.csv,0.8292682926829268,549,state
,,Molise,ITA,25,1,5,,19,305617,41.716894204537866,14.551257200672993,https://raw.githubusercontent.com/pcm-dpc/COVID-19/master/dati-regioni/dpc-covid19-ita-regioni.csv,0.8292682926829268,550,state
,,Piemonte,ITA,1897,133,0,,1764,4356406,45.2610218282163,7.920205809104651,https://raw.githubusercontent.com/pcm-dpc/COVID-19/master/dati-regioni/dpc-covid19-ita-regioni.csv,0.8292682926829268,551,state
,,Puglia,ITA,340,18,2,,320,4029053,41.010137150757664,16.726699634103944,https://raw.githubusercontent.com/pcm-dpc/COVID-19/master/dati-regioni/dpc-covid19-ita-regioni.csv,0.8292682926829268,552,state
,,Sardegna,ITA,117,2,0,,115,1639591,40.08640349767029,8.980454405390873,https://raw.githubusercontent.com/pcm-dpc/COVID-19/master/dati-regioni/dpc-covid19-ita-regioni.csv,0.8292682926829268,553,state
,,Sicilia,ITA,237,3,8,,226,4999891,37.15296765317062,13.78962610516875,https://raw.githubusercontent.com/pcm-dpc/COVID-19/master/dati-regioni/dpc-covid19-ita-regioni.csv,0.8292682926829268,554,state
,,Toscana,ITA,1053,17,12,,1024,3729641,43.35572961610775,11.02809014521221,https://raw.githubusercontent.com/pcm-dpc/COVID-19/master/dati-regioni/dpc-covid19-ita-regioni.csv,0.8292682926829268,555,state
,,P.A. Trento,ITA,385,7,10,,368,1072276,46.10760284849263,11.214905976229801,https://raw.githubusercontent.com/pcm-dpc/COVID-19/master/dati-regioni/dpc-covid19-ita-regioni.csv,0.8292682926829268,556,state
,,Umbria,ITA,197,1,4,,192,882015,42.99086726176927,12.578027098494626,https://raw.githubusercontent.com/pcm-dpc/COVID-19/master/dati-regioni/dpc-covid19-ita-regioni.csv,0.8292682926829268,557,state
,,Valle d'Aosta,ITA,136,2,0,,134,125666,45.726711771467265,7.3704153357535205,https://raw.githubusercontent.com/pcm-dpc/COVID-19/master/dati-regioni/dpc-covid19-ita-regioni.csv,0.8292682926829268,558,state
,,Veneto,ITA,2704,80,136,,2488,4905854,45.737146979710815,11.862938179646614,https://raw.githubusercontent.com/pcm-dpc/COVID-19/master/dati-regioni/dpc-covid19-ita-regioni.csv,0.8292682926829268,559,state
,Barking and Dagenham,,GBR,9,,,,9,,51.54832672819592,0.12030826146707341,https://www.arcgis.com/sharing/rest/content/items/b684319181f94875a6879bbc833ca3a6/data,0.5609756097560976,560,county
,Barnet,,GBR,24,,,,24,,51.61140902605567,-0.21207455134947395,https://www.arcgis.com/sharing/rest/content/items/b684319181f94875a6879bbc833ca3a6/data,0.5609756097560976,561,county
,Barnsley,,GBR,2,,,,2,,53.49588354104256,-1.5707457753972278,https://www.arcgis.com/sharing/rest/content/items/b684319181f94875a6879bbc833ca3a6/data,0.5609756097560976,562,county
,Bath and North East Somerset,,GBR,3,,,,3,,51.34663361320065,-2.49667670271765,https://www.arcgis.com/sharing/rest/content/items/b684319181f94875a6879bbc833ca3a6/data,0.5609756097560976,563,county
,Bedford,,GBR,1,,,,1,,52.18762872368663,-0.4537910627573467,https://www.arcgis.com/sharing/rest/content/items/b684319181f94875a6879bbc833ca3a6/data,0.5609756097560976,564,county
,Bexley,,GBR,14,,,,14,,51.45065827116227,0.15247684063368183,https://www.arcgis.com/sharing/rest/content/items/b684319181f94875a6879bbc833ca3a6/data,0.5609756097560976,565,county
,Birmingham,,GBR,20,,,,20,,52.476461290855866,-1.8858483547677736,https://www.arcgis.com/sharing/rest/content/items/b684319181f94875a6879bbc833ca3a6/data,0.5609756097560976,566,county
,Blackburn with Darwen,,GBR,1,,,,1,,53.69625763613098,-2.441111619305815,https://www.arcgis.com/sharing/rest/content/items/b684319181f94875a6879bbc833ca3a6/data,0.5609756097560976,567,county
,Blackpool,,GBR,3,,,,3,,53.83887360262369,-3.00525353831452,https://www.arcgis.com/sharing/rest/content/items/b684319181f94875a6879bbc833ca3a6/data,0.5609756097560976,568,county
,Bolton,,GBR,5,,,,5,,53.58462916755201,-2.4471864488955077,https://www.arcgis.com/sharing/rest/content/items/b684319181f94875a6879bbc833ca3a6/data,0.5609756097560976,569,county
,"Bournemouth, Christchurch and Poole",,GBR,6,,,,6,,,,https://www.arcgis.com/sharing/rest/content/items/b684319181f94875a6879bbc833ca3a6/data,0.5609756097560976,,county
,Bracknell Forest,,GBR,3,,,,3,,51.400511862532426,-0.7675701597850377,https://www.arcgis.com/sharing/rest/content/items/b684319181f94875a6879bbc833ca3a6/data,0.5609756097560976,570,county
,Bradford,,GBR,7,,,,7,,53.84824612590796,-1.812523939378309,https://www.arcgis.com/sharing/rest/content/items/b684319181f94875a6879bbc833ca3a6/data,0.5609756097560976,571,county
,Brent,,GBR,24,,,,24,,51.56151713725606,-0.2522658957045394,https://www.arcgis.com/sharing/rest/content/items/b684319181f94875a6879bbc833ca3a6/data,0.5609756097560976,572,county
,Brighton and Hove,,GBR,9,,,,9,,50.83370545060512,-0.0956836538794903,https://www.arcgis.com/sharing/rest/content/items/b684319181f94875a6879bbc833ca3a6/data,0.5609756097560976,573,county
,"Bristol, City of",,GBR,8,,,,8,,,,https://www.arcgis.com/sharing/rest/content/items/b684319181f94875a6879bbc833ca3a6/data,0.5609756097560976,,county
,Bromley,,GBR,23,,,,23,,51.36398397443085,0.044925265988212004,https://www.arcgis.com/sharing/rest/content/items/b684319181f94875a6879bbc833ca3a6/data,0.5609756097560976,574,county
,Buckinghamshire,,GBR,23,,,,23,781167,51.77382975993544,-0.8048032292356311,https://www.arcgis.com/sharing/rest/content/items/b684319181f94875a6879bbc833ca3a6/data,0.5609756097560976,575,county
,Bury,,GBR,7,,,,7,,53.584358023753765,-2.313881069755581,https://www.arcgis.com/sharing/rest/content/items/b684319181f94875a6879bbc833ca3a6/data,0.5609756097560976,576,county
,Calderdale,,GBR,3,,,,3,,53.754367784295795,-1.9539011830931372,https://www.arcgis.com/sharing/rest/content/items/b684319181f94875a6879bbc833ca3a6/data,0.5609756097560976,577,county
,Cambridgeshire,,GBR,12,,,,12,830279,52.3633803375825,0.02921563059686605,https://www.arcgis.com/sharing/rest/content/items/b684319181f94875a6879bbc833ca3a6/data,0.5609756097560976,578,county
,Camden,,GBR,20,,,,20,,51.534399929962774,-0.15101884604291627,https://www.arcgis.com/sharing/rest/content/items/b684319181f94875a6879bbc833ca3a6/data,0.5609756097560976,579,county
,Central Bedfordshire,,GBR,6,,,,6,,52.005637315759486,-0.40933641209576876,https://www.arcgis.com/sharing/rest/content/items/b684319181f94875a6879bbc833ca3a6/data,0.5609756097560976,580,county
,Cheshire East,,GBR,7,,,,7,,53.16374492069153,-2.3151145353575373,https://www.arcgis.com/sharing/rest/content/items/b684319181f94875a6879bbc833ca3a6/data,0.5609756097560976,581,county
,Cheshire West and Chester,,GBR,5,,,,5,,53.1486968423354,-2.753126456920455,https://www.arcgis.com/sharing/rest/content/items/b684319181f94875a6879bbc833ca3a6/data,0.5609756097560976,582,county
,Cornwall and Isles of Scilly,,GBR,10,,,,10,,,,https://www.arcgis.com/sharing/rest/content/items/b684319181f94875a6879bbc833ca3a6/data,0.5609756097560976,,county
,County Durham,,GBR,1,,,,1,,54.67953095184194,-1.799640245530711,https://www.arcgis.com/sharing/rest/content/items/b684319181f94875a6879bbc833ca3a6/data,0.5609756097560976,583,county
,Coventry,,GBR,3,,,,3,,52.397590135426384,-1.547535670934451,https://www.arcgis.com/sharing/rest/content/items/b684319181f94875a6879bbc833ca3a6/data,0.5609756097560976,584,county
,Croydon,,GBR,6,,,,6,,51.366968289205175,-0.07526119659695496,https://www.arcgis.com/sharing/rest/content/items/b684319181f94875a6879bbc833ca3a6/data,0.5609756097560976,585,county
,Cumbria,,GBR,22,,,,22,497874,54.65147772950007,-2.894685635497069,https://www.arcgis.com/sharing/rest/content/items/b684319181f94875a6879bbc833ca3a6/data,0.5609756097560976,586,county
,Darlington,,GBR,1,,,,1,,54.5325890167197,-1.5471868553890715,https://www.arcgis.com/sharing/rest/content/items/b684319181f94875a6879bbc833ca3a6/data,0.5609756097560976,587,county
,Derby,,GBR,0,,,,0,,52.889821072034806,-1.473741726249699,https://www.arcgis.com/sharing/rest/content/items/b684319181f94875a6879bbc833ca3a6/data,0.5609756097560976,588,county
,Derbyshire,,GBR,5,,,,5,1032267,53.10898082160762,-1.596395738322684,https://www.arcgis.com/sharing/rest/content/items/b684319181f94875a6879bbc833ca3a6/data,0.5609756097560976,589,county
,Devon,,GBR,24,,,,24,1159832,50.73217421134865,-3.7468521474031253,https://www.arcgis.com/sharing/rest/content/items/b684319181f94875a6879bbc833ca3a6/data,0.5609756097560976,590,county
,Doncaster,,GBR,0,,,,0,,53.51311636043167,-1.1025886705806727,https://www.arcgis.com/sharing/rest/content/items/b684319181f94875a6879bbc833ca3a6/data,0.5609756097560976,591,county
,Dorset,,GBR,2,,,,2,759768,50.83684499757297,-2.3107224188537714,https://www.arcgis.com/sharing/rest/content/items/b684319181f94875a6879bbc833ca3a6/data,0.5609756097560976,592,county
,Dudley,,GBR,9,,,,9,,52.49018902145616,-2.089965285219762,https://www.arcgis.com/sharing/rest/content/items/b684319181f94875a6879bbc833ca3a6/data,0.5609756097560976,593,county
,Ealing,,GBR,21,,,,21,,51.52145498321087,-0.31465226938672686,https://www.arcgis.com/sharing/rest/content/items/b684319181f94875a6879bbc833ca3a6/data,0.5609756097560976,594,county
,East Riding of Yorkshire,,GBR,9,,,,9,594825,53.88757670754899,-0.4702299669435206,https://www.arcgis.com/sharing/rest/content/items/b684319181f94875a6879bbc833ca3a6/data,0.5609756097560976,595,county
,East Sussex,,GBR,7,,,,7,820842,50.94161367390575,0.3705739670149626,https://www.arcgis.com/sharing/rest/content/items/b684319181f94875a6879bbc833ca3a6/data,0.5609756097560976,596,county
,Enfield,,GBR,10,,,,10,,51.6391351386757,-0.08400660437129659,https://www.arcgis.com/sharing/rest/content/items/b684319181f94875a6879bbc833ca3a6/data,0.5609756097560976,597,county
,Essex,,GBR,21,,,,21,1773154,51.801330145419854,0.6384996882008807,https://www.arcgis.com/sharing/rest/content/items/b684319181f94875a6879bbc833ca3a6/data,0.5609756097560976,598,county
,Gateshead,,GBR,0,,,,0,,54.94435801006409,-1.6728933342100163,https://www.arcgis.com/sharing/rest/content/items/b684319181f94875a6879bbc833ca3a6/data,0.5609756097560976,599,county
,Gloucestershire,,GBR,11,,,,11,882888,51.84146129050612,-2.1589416167073807,https://www.arcgis.com/sharing/rest/content/items/b684319181f94875a6879bbc833ca3a6/data,0.5609756097560976,600,county
,Greenwich,,GBR,19,,,,19,,51.467168891331255,0.04868472621913611,https://www.arcgis.com/sharing/rest/content/items/b684319181f94875a6879bbc833ca3a6/data,0.5609756097560976,601,county
,Hackney and City of London,,GBR,22,,,,22,,,,https://www.arcgis.com/sharing/rest/content/items/b684319181f94875a6879bbc833ca3a6/data,0.5609756097560976,,county
,Halton,,GBR,3,,,,3,,53.360951641505125,-3.055812369847803,https://www.arcgis.com/sharing/rest/content/items/b684319181f94875a6879bbc833ca3a6/data,0.5609756097560976,602,county
,Hammersmith and Fulham,,GBR,23,,,,23,,51.49955709528368,-0.2078500022258254,https://www.arcgis.com/sharing/rest/content/items/b684319181f94875a6879bbc833ca3a6/data,0.5609756097560976,603,county
,Hampshire,,GBR,69,,,,69,1800511,51.05528290387548,-1.3405973986010906,https://www.arcgis.com/sharing/rest/content/items/b684319181f94875a6879bbc833ca3a6/data,0.5609756097560976,604,county
,Haringey,,GBR,17,,,,17,,51.583918870809214,-0.09633226132478967,https://www.arcgis.com/sharing/rest/content/items/b684319181f94875a6879bbc833ca3a6/data,0.5609756097560976,605,county
,Harrow,,GBR,15,,,,15,,51.593362738849294,-0.3332945418096642,https://www.arcgis.com/sharing/rest/content/items/b684319181f94875a6879bbc833ca3a6/data,0.5609756097560976,606,county
