city,county,state,country,cases,deaths,recovered,tested,active,population,lat,long,url,rating,featureId
,DeKalb County,IN,USA,0,0,,0,0,43226,41.397172,-84.998833,https://opendata.arcgis.com/datasets/d14de7e28b0448ab82eb36d6f25b1ea1_0.csv,0.71875,0
,Boone County,IN,USA,1,0,,0,1,66999,40.051773999999995,-86.4677715,https://opendata.arcgis.com/datasets/d14de7e28b0448ab82eb36d6f25b1ea1_0.csv,0.71875,1
,Tippecanoe County,IN,USA,0,0,,0,0,193048,40.388631000000004,-86.89501100000001,https://opendata.arcgis.com/datasets/d14de7e28b0448ab82eb36d6f25b1ea1_0.csv,0.71875,2
,Johnson County,IN,USA,3,0,,0,3,156225,39.4900085,-86.101242,https://opendata.arcgis.com/datasets/d14de7e28b0448ab82eb36d6f25b1ea1_0.csv,0.71875,3
,Elkhart County,IN,USA,0,0,,0,0,205560,41.598169999999996,-85.858041,https://opendata.arcgis.com/datasets/d14de7e28b0448ab82eb36d6f25b1ea1_0.csv,0.71875,4
,Adams County,IN,USA,1,0,,0,1,35636,40.745404,-84.93797749999999,https://opendata.arcgis.com/datasets/d14de7e28b0448ab82eb36d6f25b1ea1_0.csv,0.71875,5
,Noble County,IN,USA,1,0,,0,1,47532,41.3952975,-85.42342049999999,https://opendata.arcgis.com/datasets/d14de7e28b0448ab82eb36d6f25b1ea1_0.csv,0.71875,6
,Madison County,IN,USA,0,0,,0,0,129641,40.1616875,-85.7193405,https://opendata.arcgis.com/datasets/d14de7e28b0448ab82eb36d6f25b1ea1_0.csv,0.71875,7
,St. Joseph County,IN,USA,1,0,,0,1,270771,41.596739,-86.2930665,https://opendata.arcgis.com/datasets/d14de7e28b0448ab82eb36d6f25b1ea1_0.csv,0.71875,8
,Jackson County,IN,USA,0,0,,0,0,44111,38.898375,-86.056745,https://opendata.arcgis.com/datasets/d14de7e28b0448ab82eb36d6f25b1ea1_0.csv,0.71875,9
,Vanderburgh County,IN,USA,0,0,,0,0,180974,37.997158999999996,-87.575276,https://opendata.arcgis.com/datasets/d14de7e28b0448ab82eb36d6f25b1ea1_0.csv,0.71875,10
,Grant County,IN,USA,0,0,,0,0,65936,40.515986999999996,-85.6545605,https://opendata.arcgis.com/datasets/d14de7e28b0448ab82eb36d6f25b1ea1_0.csv,0.71875,11
,Porter County,IN,USA,0,0,,0,0,169594,41.465349,-87.07600400000001,https://opendata.arcgis.com/datasets/d14de7e28b0448ab82eb36d6f25b1ea1_0.csv,0.71875,12
,Marion County,IN,USA,7,1,,0,6,954670,39.779657,-86.13272599999999,https://opendata.arcgis.com/datasets/d14de7e28b0448ab82eb36d6f25b1ea1_0.csv,0.71875,13
,Hamilton County,IN,USA,1,0,,0,1,330086,40.0724955,-86.052323,https://opendata.arcgis.com/datasets/d14de7e28b0448ab82eb36d6f25b1ea1_0.csv,0.71875,14
,Lake County,IN,USA,0,0,,0,0,484411,41.4360915,-87.372815,https://opendata.arcgis.com/datasets/d14de7e28b0448ab82eb36d6f25b1ea1_0.csv,0.71875,15
,Morgan County,IN,USA,0,0,,0,0,70116,39.486663,-86.46872300000001,https://opendata.arcgis.com/datasets/d14de7e28b0448ab82eb36d6f25b1ea1_0.csv,0.71875,16
,Hendricks County,IN,USA,3,0,,0,3,167009,39.762399,-86.510613,https://opendata.arcgis.com/datasets/d14de7e28b0448ab82eb36d6f25b1ea1_0.csv,0.71875,17
,LaPorte County,IN,USA,1,0,,0,1,110007,41.4985245,-86.70959,https://opendata.arcgis.com/datasets/d14de7e28b0448ab82eb36d6f25b1ea1_0.csv,0.71875,18
,Floyd County,IN,USA,1,0,,0,1,77781,38.299344000000005,-85.8968305,https://opendata.arcgis.com/datasets/d14de7e28b0448ab82eb36d6f25b1ea1_0.csv,0.71875,19
,Shelby County,IN,USA,0,0,,0,0,44593,39.5229175,-85.7912735,https://opendata.arcgis.com/datasets/d14de7e28b0448ab82eb36d6f25b1ea1_0.csv,0.71875,20
,Allen County,IN,USA,0,0,,0,0,375351,41.093929,-85.070744,https://opendata.arcgis.com/datasets/d14de7e28b0448ab82eb36d6f25b1ea1_0.csv,0.71875,21
,Tipton County,IN,USA,0,0,,0,0,15128,40.311361500000004,-86.052076,https://opendata.arcgis.com/datasets/d14de7e28b0448ab82eb36d6f25b1ea1_0.csv,0.71875,22
,Rush County,IN,USA,0,0,,0,0,16663,39.6201645,-85.465533,https://opendata.arcgis.com/datasets/d14de7e28b0448ab82eb36d6f25b1ea1_0.csv,0.71875,23
,Orange County,IN,USA,0,0,,0,0,19489,38.541362,-86.49588800000001,https://opendata.arcgis.com/datasets/d14de7e28b0448ab82eb36d6f25b1ea1_0.csv,0.71875,24
,Crawford County,IN,USA,0,0,,0,0,10558,38.264135499999995,-86.4664205,https://opendata.arcgis.com/datasets/d14de7e28b0448ab82eb36d6f25b1ea1_0.csv,0.71875,25
,Owen County,IN,USA,0,0,,0,0,20845,39.319545500000004,-86.84269800000001,https://opendata.arcgis.com/datasets/d14de7e28b0448ab82eb36d6f25b1ea1_0.csv,0.71875,26
,Fountain County,IN,USA,0,0,,0,0,16351,40.159532,-87.2651005,https://opendata.arcgis.com/datasets/d14de7e28b0448ab82eb36d6f25b1ea1_0.csv,0.71875,27
,Decatur County,IN,USA,0,0,,0,0,26794,39.292067,-85.4919175,https://opendata.arcgis.com/datasets/d14de7e28b0448ab82eb36d6f25b1ea1_0.csv,0.71875,28
,Fulton County,IN,USA,0,0,,0,0,20092,41.0412495,-86.2069545,https://opendata.arcgis.com/datasets/d14de7e28b0448ab82eb36d6f25b1ea1_0.csv,0.71875,29
,LaGrange County,IN,USA,0,0,,0,0,39330,41.641722,-85.426917,https://opendata.arcgis.com/datasets/d14de7e28b0448ab82eb36d6f25b1ea1_0.csv,0.71875,30
,Knox County,IN,USA,0,0,,0,0,36895,38.6611855,-87.4215765,https://opendata.arcgis.com/datasets/d14de7e28b0448ab82eb36d6f25b1ea1_0.csv,0.71875,31
,Monroe County,IN,USA,0,0,,0,0,146917,39.173286000000004,-86.50153900000001,https://opendata.arcgis.com/datasets/d14de7e28b0448ab82eb36d6f25b1ea1_0.csv,0.71875,32
,Cass County,IN,USA,0,0,,0,0,37955,40.736143,-86.3733815,https://opendata.arcgis.com/datasets/d14de7e28b0448ab82eb36d6f25b1ea1_0.csv,0.71875,33
,Randolph County,IN,USA,0,0,,0,0,24851,40.157236999999995,-85.011338,https://opendata.arcgis.com/datasets/d14de7e28b0448ab82eb36d6f25b1ea1_0.csv,0.71875,34
,Martin County,IN,USA,0,0,,0,0,10217,38.700171999999995,-86.8032725,https://opendata.arcgis.com/datasets/d14de7e28b0448ab82eb36d6f25b1ea1_0.csv,0.71875,35
,Washington County,IN,USA,0,0,,0,0,27943,38.5984585,-86.078819,https://opendata.arcgis.com/datasets/d14de7e28b0448ab82eb36d6f25b1ea1_0.csv,0.71875,36
,Parke County,IN,USA,0,0,,0,0,16927,39.779033,-87.2218005,https://opendata.arcgis.com/datasets/d14de7e28b0448ab82eb36d6f25b1ea1_0.csv,0.71875,37
,Kosciusko County,IN,USA,0,0,,0,0,79344,41.239367,-85.8647395,https://opendata.arcgis.com/datasets/d14de7e28b0448ab82eb36d6f25b1ea1_0.csv,0.71875,38
,Wayne County,IN,USA,0,0,,0,0,65936,39.8599215,-85.01602550000001,https://opendata.arcgis.com/datasets/d14de7e28b0448ab82eb36d6f25b1ea1_0.csv,0.71875,39
,Montgomery County,IN,USA,0,0,,0,0,38346,40.039825500000006,-86.893817,https://opendata.arcgis.com/datasets/d14de7e28b0448ab82eb36d6f25b1ea1_0.csv,0.71875,40
,Hancock County,IN,USA,0,0,,0,0,76351,39.821446,-85.76510250000001,https://opendata.arcgis.com/datasets/d14de7e28b0448ab82eb36d6f25b1ea1_0.csv,0.71875,41
,Vigo County,IN,USA,0,0,,0,0,107386,39.4335005,-87.40453099999999,https://opendata.arcgis.com/datasets/d14de7e28b0448ab82eb36d6f25b1ea1_0.csv,0.71875,42
,Jefferson County,IN,USA,0,0,,0,0,32208,38.749990499999996,-85.4428255,https://opendata.arcgis.com/datasets/d14de7e28b0448ab82eb36d6f25b1ea1_0.csv,0.71875,43
,Huntington County,IN,USA,0,0,,0,0,36240,40.8291895,-85.48925399999999,https://opendata.arcgis.com/datasets/d14de7e28b0448ab82eb36d6f25b1ea1_0.csv,0.71875,44
,Harrison County,IN,USA,0,0,,0,0,40350,38.190351500000006,-86.114784,https://opendata.arcgis.com/datasets/d14de7e28b0448ab82eb36d6f25b1ea1_0.csv,0.71875,45
,Wabash County,IN,USA,0,0,,0,0,31280,40.848853500000004,-85.7925115,https://opendata.arcgis.com/datasets/d14de7e28b0448ab82eb36d6f25b1ea1_0.csv,0.71875,46
,Delaware County,IN,USA,0,0,,0,0,114772,40.2282065,-85.3964875,https://opendata.arcgis.com/datasets/d14de7e28b0448ab82eb36d6f25b1ea1_0.csv,0.71875,47
,Posey County,IN,USA,0,0,,0,0,25540,38.001000000000005,-87.87335350000001,https://opendata.arcgis.com/datasets/d14de7e28b0448ab82eb36d6f25b1ea1_0.csv,0.71875,48
,Spencer County,IN,USA,0,0,,0,0,20327,37.993821,-87.0179535,https://opendata.arcgis.com/datasets/d14de7e28b0448ab82eb36d6f25b1ea1_0.csv,0.71875,49
,Ohio County,IN,USA,0,0,,0,0,5844,38.9659135,-84.9850845,https://opendata.arcgis.com/datasets/d14de7e28b0448ab82eb36d6f25b1ea1_0.csv,0.71875,50
,Carroll County,IN,USA,0,0,,0,0,20127,40.5844765,-86.5738755,https://opendata.arcgis.com/datasets/d14de7e28b0448ab82eb36d6f25b1ea1_0.csv,0.71875,51
,Warren County,IN,USA,0,0,,0,0,8263,40.3021425,-87.311793,https://opendata.arcgis.com/datasets/d14de7e28b0448ab82eb36d6f25b1ea1_0.csv,0.71875,52
,Franklin County,IN,USA,0,0,,0,0,22736,39.397251999999995,-85.056989,https://opendata.arcgis.com/datasets/d14de7e28b0448ab82eb36d6f25b1ea1_0.csv,0.71875,53
,Pulaski County,IN,USA,0,0,,0,0,12469,41.0411035,-86.6989025,https://opendata.arcgis.com/datasets/d14de7e28b0448ab82eb36d6f25b1ea1_0.csv,0.71875,54
,Jay County,IN,USA,0,0,,0,0,20764,40.439459,-85.0111465,https://opendata.arcgis.com/datasets/d14de7e28b0448ab82eb36d6f25b1ea1_0.csv,0.71875,55
,Wells County,IN,USA,1,0,,0,1,28206,40.742376,-85.258652,https://opendata.arcgis.com/datasets/d14de7e28b0448ab82eb36d6f25b1ea1_0.csv,0.71875,56
,Marshall County,IN,USA,0,0,,0,0,46248,41.325298000000004,-86.2605775,https://opendata.arcgis.com/datasets/d14de7e28b0448ab82eb36d6f25b1ea1_0.csv,0.71875,57
,Sullivan County,IN,USA,0,0,,0,0,20690,39.080525,-87.4431845,https://opendata.arcgis.com/datasets/d14de7e28b0448ab82eb36d6f25b1ea1_0.csv,0.71875,58
,Brown County,IN,USA,0,0,,0,0,15234,39.196282,-86.23083349999999,https://opendata.arcgis.com/datasets/d14de7e28b0448ab82eb36d6f25b1ea1_0.csv,0.71875,59
,Ripley County,IN,USA,0,0,,0,0,28523,39.1115335,-85.2549985,https://opendata.arcgis.com/datasets/d14de7e28b0448ab82eb36d6f25b1ea1_0.csv,0.71875,60
,Henry County,IN,USA,0,0,,0,0,48271,39.931831,-85.3989305,https://opendata.arcgis.com/datasets/d14de7e28b0448ab82eb36d6f25b1ea1_0.csv,0.71875,61
,Howard County,IN,USA,2,0,,0,2,82366,40.469593,-86.1189395,https://opendata.arcgis.com/datasets/d14de7e28b0448ab82eb36d6f25b1ea1_0.csv,0.71875,62
,Whitley County,IN,USA,0,0,,0,0,34074,41.148574999999994,-85.49717749999999,https://opendata.arcgis.com/datasets/d14de7e28b0448ab82eb36d6f25b1ea1_0.csv,0.71875,63
,Dearborn County,IN,USA,0,0,,0,0,49568,39.1234195,-84.9759795,https://opendata.arcgis.com/datasets/d14de7e28b0448ab82eb36d6f25b1ea1_0.csv,0.71875,64
,Blackford County,IN,USA,0,0,,0,0,11930,40.473138,-85.32408,https://opendata.arcgis.com/datasets/d14de7e28b0448ab82eb36d6f25b1ea1_0.csv,0.71875,65
,Scott County,IN,USA,0,0,,0,0,23878,38.6948615,-85.729157,https://opendata.arcgis.com/datasets/d14de7e28b0448ab82eb36d6f25b1ea1_0.csv,0.71875,66
,Bartholomew County,IN,USA,1,0,,0,1,82753,39.192976,-85.885058,https://opendata.arcgis.com/datasets/d14de7e28b0448ab82eb36d6f25b1ea1_0.csv,0.71875,67
,Jasper County,IN,USA,0,0,,0,0,33370,41.011453,-87.1030475,https://opendata.arcgis.com/datasets/d14de7e28b0448ab82eb36d6f25b1ea1_0.csv,0.71875,68
,Union County,IN,USA,0,0,,0,0,7037,39.6256065,-84.925108,https://opendata.arcgis.com/datasets/d14de7e28b0448ab82eb36d6f25b1ea1_0.csv,0.71875,69
,Vermillion County,IN,USA,0,0,,0,0,15479,39.877864,-87.443545,https://opendata.arcgis.com/datasets/d14de7e28b0448ab82eb36d6f25b1ea1_0.csv,0.71875,70
,Benton County,IN,USA,0,0,,0,0,8653,40.606315,-87.3100935,https://opendata.arcgis.com/datasets/d14de7e28b0448ab82eb36d6f25b1ea1_0.csv,0.71875,71
,Clay County,IN,USA,0,0,,0,0,26170,39.387551,-87.090359,https://opendata.arcgis.com/datasets/d14de7e28b0448ab82eb36d6f25b1ea1_0.csv,0.71875,72
,Lawrence County,IN,USA,0,0,,0,0,45668,38.8394825,-86.47919150000001,https://opendata.arcgis.com/datasets/d14de7e28b0448ab82eb36d6f25b1ea1_0.csv,0.71875,73
,Clark County,IN,USA,0,0,,0,0,117360,38.436953,-85.704951,https://opendata.arcgis.com/datasets/d14de7e28b0448ab82eb36d6f25b1ea1_0.csv,0.71875,74
,Miami County,IN,USA,0,0,,0,0,35567,40.780922000000004,-86.01632649999999,https://opendata.arcgis.com/datasets/d14de7e28b0448ab82eb36d6f25b1ea1_0.csv,0.71875,75
,Fayette County,IN,USA,0,0,,0,0,23047,39.6569625,-85.1680795,https://opendata.arcgis.com/datasets/d14de7e28b0448ab82eb36d6f25b1ea1_0.csv,0.71875,76
,Newton County,IN,USA,0,0,,0,0,14011,40.977588499999996,-87.3970095,https://opendata.arcgis.com/datasets/d14de7e28b0448ab82eb36d6f25b1ea1_0.csv,0.71875,77
,Perry County,IN,USA,0,0,,0,0,19102,38.0538765,-86.6224235,https://opendata.arcgis.com/datasets/d14de7e28b0448ab82eb36d6f25b1ea1_0.csv,0.71875,78
,Putnam County,IN,USA,0,0,,0,0,37779,39.668384,-86.8280865,https://opendata.arcgis.com/datasets/d14de7e28b0448ab82eb36d6f25b1ea1_0.csv,0.71875,79
,Starke County,IN,USA,0,0,,0,0,22935,41.302205,-86.6983865,https://opendata.arcgis.com/datasets/d14de7e28b0448ab82eb36d6f25b1ea1_0.csv,0.71875,80
,Greene County,IN,USA,0,0,,0,0,32006,39.0371445,-86.961652,https://opendata.arcgis.com/datasets/d14de7e28b0448ab82eb36d6f25b1ea1_0.csv,0.71875,81
,Pike County,IN,USA,0,0,,0,0,12410,38.390486499999994,-87.2676305,https://opendata.arcgis.com/datasets/d14de7e28b0448ab82eb36d6f25b1ea1_0.csv,0.71875,82
,Warrick County,IN,USA,0,0,,0,0,62567,38.062363000000005,-87.245218,https://opendata.arcgis.com/datasets/d14de7e28b0448ab82eb36d6f25b1ea1_0.csv,0.71875,83
,Daviess County,IN,USA,0,0,,0,0,33147,38.6973285,-87.0858515,https://opendata.arcgis.com/datasets/d14de7e28b0448ab82eb36d6f25b1ea1_0.csv,0.71875,84
,Dubois County,IN,USA,0,0,,0,0,42565,38.365024000000005,-86.87606650000001,https://opendata.arcgis.com/datasets/d14de7e28b0448ab82eb36d6f25b1ea1_0.csv,0.71875,85
,Clinton County,IN,USA,0,0,,0,0,32250,40.304673,-86.46908450000001,https://opendata.arcgis.com/datasets/d14de7e28b0448ab82eb36d6f25b1ea1_0.csv,0.71875,86
,White County,IN,USA,0,0,,0,0,24133,40.737271,-86.8406485,https://opendata.arcgis.com/datasets/d14de7e28b0448ab82eb36d6f25b1ea1_0.csv,0.71875,87
,Switzerland County,IN,USA,0,0,,0,0,10717,38.8085935,-84.9938725,https://opendata.arcgis.com/datasets/d14de7e28b0448ab82eb36d6f25b1ea1_0.csv,0.71875,88
,Steuben County,IN,USA,0,0,,0,0,34586,41.6433265,-85.0007515,https://opendata.arcgis.com/datasets/d14de7e28b0448ab82eb36d6f25b1ea1_0.csv,0.71875,89
,Gibson County,IN,USA,0,0,,0,0,33452,38.349461,-87.64698250000001,https://opendata.arcgis.com/datasets/d14de7e28b0448ab82eb36d6f25b1ea1_0.csv,0.71875,90
,Jennings County,IN,USA,0,0,,0,0,27611,39.0015625,-85.619944,https://opendata.arcgis.com/datasets/d14de7e28b0448ab82eb36d6f25b1ea1_0.csv,0.71875,91
,Rockingham County,NC,USA,0,0,,,0,90690,36.39209,-79.77325049999999,https://opendata.arcgis.com/datasets/969678bce431494a8f64d7faade6e5b8_0.csv,0.59375,92
,Guilford County,NC,USA,0,0,,,0,533670,36.078567,-79.789537,https://opendata.arcgis.com/datasets/969678bce431494a8f64d7faade6e5b8_0.csv,0.59375,93
,Alamance County,NC,USA,0,0,,,0,166436,36.046625,-79.389903,https://opendata.arcgis.com/datasets/969678bce431494a8f64d7faade6e5b8_0.csv,0.59375,94
,Alexander County,NC,USA,0,0,,,0,37353,35.9112,-81.173576,https://opendata.arcgis.com/datasets/969678bce431494a8f64d7faade6e5b8_0.csv,0.59375,95
,Randolph County,NC,USA,0,0,,,0,143351,35.713162,-79.80440999999999,https://opendata.arcgis.com/datasets/969678bce431494a8f64d7faade6e5b8_0.csv,0.59375,96
,Wayne County,NC,USA,1,0,,,1,123248,35.372187,-78.0523115,https://opendata.arcgis.com/datasets/969678bce431494a8f64d7faade6e5b8_0.csv,0.59375,97
,Ashe County,NC,USA,0,0,,,0,27109,36.414194499999994,-81.4925705,https://opendata.arcgis.com/datasets/969678bce431494a8f64d7faade6e5b8_0.csv,0.59375,98
,Alleghany County,NC,USA,0,0,,,0,11161,36.470187499999994,-81.128388,https://opendata.arcgis.com/datasets/969678bce431494a8f64d7faade6e5b8_0.csv,0.59375,99
,Currituck County,NC,USA,0,0,,,0,27072,36.311232000000004,-76.0432625,https://opendata.arcgis.com/datasets/969678bce431494a8f64d7faade6e5b8_0.csv,0.59375,100
,Camden County,NC,USA,0,0,,,0,10710,36.357271,-76.2231965,https://opendata.arcgis.com/datasets/969678bce431494a8f64d7faade6e5b8_0.csv,0.59375,101
,Surry County,NC,USA,0,0,,,0,71948,36.399366,-80.7073595,https://opendata.arcgis.com/datasets/969678bce431494a8f64d7faade6e5b8_0.csv,0.59375,102
,Gates County,NC,USA,0,0,,,0,11573,36.424152,-76.70138,https://opendata.arcgis.com/datasets/969678bce431494a8f64d7faade6e5b8_0.csv,0.59375,103
,Hertford County,NC,USA,0,0,,,0,23659,36.392281999999994,-76.94985,https://opendata.arcgis.com/datasets/969678bce431494a8f64d7faade6e5b8_0.csv,0.59375,104
,Northampton County,NC,USA,0,0,,,0,19676,36.356129499999994,-77.48302000000001,https://opendata.arcgis.com/datasets/969678bce431494a8f64d7faade6e5b8_0.csv,0.59375,105
,Stokes County,NC,USA,0,0,,,0,45467,36.4039905,-80.2396115,https://opendata.arcgis.com/datasets/969678bce431494a8f64d7faade6e5b8_0.csv,0.59375,106
,Warren County,NC,USA,0,0,,,0,19807,36.373663,-78.110931,https://opendata.arcgis.com/datasets/969678bce431494a8f64d7faade6e5b8_0.csv,0.59375,107
,Vance County,NC,USA,0,0,,,0,44582,36.3539845,-78.394374,https://opendata.arcgis.com/datasets/969678bce431494a8f64d7faade6e5b8_0.csv,0.59375,108
,Granville County,NC,USA,0,0,,,0,60115,36.282139,-78.6309765,https://opendata.arcgis.com/datasets/969678bce431494a8f64d7faade6e5b8_0.csv,0.59375,109
,Caswell County,NC,USA,0,0,,,0,22698,36.391928,-79.335016,https://opendata.arcgis.com/datasets/969678bce431494a8f64d7faade6e5b8_0.csv,0.59375,110
,Person County,NC,USA,0,0,,,0,39507,36.389045499999995,-78.974278,https://opendata.arcgis.com/datasets/969678bce431494a8f64d7faade6e5b8_0.csv,0.59375,111
,Pasquotank County,NC,USA,0,0,,,0,39639,36.31698,-76.2753735,https://opendata.arcgis.com/datasets/969678bce431494a8f64d7faade6e5b8_0.csv,0.59375,112
,Halifax County,NC,USA,0,0,,,0,50574,36.255891000000005,-77.618624,https://opendata.arcgis.com/datasets/969678bce431494a8f64d7faade6e5b8_0.csv,0.59375,113
,Wilkes County,NC,USA,0,0,,,0,68557,36.217608,-81.20716300000001,https://opendata.arcgis.com/datasets/969678bce431494a8f64d7faade6e5b8_0.csv,0.59375,114
,Watauga County,NC,USA,1,0,,,1,55945,36.2509755,-81.686846,https://opendata.arcgis.com/datasets/969678bce431494a8f64d7faade6e5b8_0.csv,0.59375,115
,Perquimans County,NC,USA,0,0,,,0,13422,36.226709,-76.390806,https://opendata.arcgis.com/datasets/969678bce431494a8f64d7faade6e5b8_0.csv,0.59375,116
,Chowan County,NC,USA,0,0,,,0,14029,36.178765999999996,-76.5666445,https://opendata.arcgis.com/datasets/969678bce431494a8f64d7faade6e5b8_0.csv,0.59375,117
,Avery County,NC,USA,0,0,,,0,17505,36.099315000000004,-81.9081385,https://opendata.arcgis.com/datasets/969678bce431494a8f64d7faade6e5b8_0.csv,0.59375,118
,Yadkin County,NC,USA,0,0,,,0,37543,36.165891,-80.657182,https://opendata.arcgis.com/datasets/969678bce431494a8f64d7faade6e5b8_0.csv,0.59375,119
,Dare County,NC,USA,0,0,,,0,36501,35.708368,-75.7362335,https://opendata.arcgis.com/datasets/969678bce431494a8f64d7faade6e5b8_0.csv,0.59375,120
,Forsyth County,NC,USA,2,0,,,2,379099,36.1174225,-80.2759705,https://opendata.arcgis.com/datasets/969678bce431494a8f64d7faade6e5b8_0.csv,0.59375,121
,Franklin County,NC,USA,0,0,,,0,67560,36.0419445,-78.27652549999999,https://opendata.arcgis.com/datasets/969678bce431494a8f64d7faade6e5b8_0.csv,0.59375,122
,Bertie County,NC,USA,0,0,,,0,19026,36.0338355,-77.0036715,https://opendata.arcgis.com/datasets/969678bce431494a8f64d7faade6e5b8_0.csv,0.59375,123
,Orange County,NC,USA,0,0,,,0,146027,36.052271,-79.107692,https://opendata.arcgis.com/datasets/969678bce431494a8f64d7faade6e5b8_0.csv,0.59375,124
,Durham County,NC,USA,1,0,,,1,316739,36.051317999999995,-78.8573145,https://opendata.arcgis.com/datasets/969678bce431494a8f64d7faade6e5b8_0.csv,0.59375,125
,Nash County,NC,USA,0,0,,,0,94016,35.966553000000005,-77.976391,https://opendata.arcgis.com/datasets/969678bce431494a8f64d7faade6e5b8_0.csv,0.59375,126
,Mitchell County,NC,USA,0,0,,,0,15000,35.991779,-82.198442,https://opendata.arcgis.com/datasets/969678bce431494a8f64d7faade6e5b8_0.csv,0.59375,127
,Edgecombe County,NC,USA,0,0,,,0,52005,35.915150999999994,-77.585453,https://opendata.arcgis.com/datasets/969678bce431494a8f64d7faade6e5b8_0.csv,0.59375,128
,Caldwell County,NC,USA,0,0,,,0,82029,35.939887,-81.5699525,https://opendata.arcgis.com/datasets/969678bce431494a8f64d7faade6e5b8_0.csv,0.59375,129
,Tyrrell County,NC,USA,0,0,,,0,4131,35.7957445,-76.210059,https://opendata.arcgis.com/datasets/969678bce431494a8f64d7faade6e5b8_0.csv,0.59375,130
,Yancey County,NC,USA,0,0,,,0,17903,35.888507000000004,-82.31928300000001,https://opendata.arcgis.com/datasets/969678bce431494a8f64d7faade6e5b8_0.csv,0.59375,131
,Madison County,NC,USA,0,0,,,0,21763,35.8719975,-82.685785,https://opendata.arcgis.com/datasets/969678bce431494a8f64d7faade6e5b8_0.csv,0.59375,132
,Martin County,NC,USA,0,0,,,0,22671,35.8664985,-77.084982,https://opendata.arcgis.com/datasets/969678bce431494a8f64d7faade6e5b8_0.csv,0.59375,133
,Wake County,NC,USA,14,0,,,14,1092305,35.796786499999996,-78.6249785,https://opendata.arcgis.com/datasets/969678bce431494a8f64d7faade6e5b8_0.csv,0.59375,134
,Davie County,NC,USA,0,0,,,0,42733,35.9026525,-80.5364645,https://opendata.arcgis.com/datasets/969678bce431494a8f64d7faade6e5b8_0.csv,0.59375,135
,Washington County,NC,USA,0,0,,,0,11859,35.840892999999994,-76.6003345,https://opendata.arcgis.com/datasets/969678bce431494a8f64d7faade6e5b8_0.csv,0.59375,136
,Burke County,NC,USA,0,0,,,0,90382,35.7791955,-81.675545,https://opendata.arcgis.com/datasets/969678bce431494a8f64d7faade6e5b8_0.csv,0.59375,137
,Davidson County,NC,USA,0,0,,,0,166614,35.765553499999996,-80.2652875,https://opendata.arcgis.com/datasets/969678bce431494a8f64d7faade6e5b8_0.csv,0.59375,138
,McDowell County,NC,USA,0,0,,,0,45507,35.738724500000004,-82.0594425,https://opendata.arcgis.com/datasets/969678bce431494a8f64d7faade6e5b8_0.csv,0.59375,139
,Chatham County,NC,USA,1,0,,,1,73139,35.6959365,-79.231033,https://opendata.arcgis.com/datasets/969678bce431494a8f64d7faade6e5b8_0.csv,0.59375,140
,Wilson County,NC,USA,1,0,,,1,81455,35.7253325,-77.926691,https://opendata.arcgis.com/datasets/969678bce431494a8f64d7faade6e5b8_0.csv,0.59375,141
,Buncombe County,NC,USA,0,0,,,0,259103,35.620303,-82.5263415,https://opendata.arcgis.com/datasets/969678bce431494a8f64d7faade6e5b8_0.csv,0.59375,142
,Haywood County,NC,USA,0,0,,,0,61971,35.5418605,-83.000247,https://opendata.arcgis.com/datasets/969678bce431494a8f64d7faade6e5b8_0.csv,0.59375,143
,Catawba County,NC,USA,0,0,,,0,158652,35.6878485,-81.22916649999999,https://opendata.arcgis.com/datasets/969678bce431494a8f64d7faade6e5b8_0.csv,0.59375,144
,Pitt County,NC,USA,0,0,,,0,179914,35.580454,-77.392609,https://opendata.arcgis.com/datasets/969678bce431494a8f64d7faade6e5b8_0.csv,0.59375,145
,Johnston County,NC,USA,2,0,,,2,202675,35.537085,-78.386616,https://opendata.arcgis.com/datasets/969678bce431494a8f64d7faade6e5b8_0.csv,0.59375,146
,Swain County,NC,USA,0,0,,,0,14245,35.4877375,-83.554631,https://opendata.arcgis.com/datasets/969678bce431494a8f64d7faade6e5b8_0.csv,0.59375,147
,Beaufort County,NC,USA,0,0,,,0,47079,35.477776000000006,-76.83147650000001,https://opendata.arcgis.com/datasets/969678bce431494a8f64d7faade6e5b8_0.csv,0.59375,148
,Hyde County,NC,USA,0,0,,,0,5230,35.383544,-76.19371849999999,https://opendata.arcgis.com/datasets/969678bce431494a8f64d7faade6e5b8_0.csv,0.59375,149
,Greene County,NC,USA,0,0,,,0,21012,35.500008,-77.6507765,https://opendata.arcgis.com/datasets/969678bce431494a8f64d7faade6e5b8_0.csv,0.59375,150
,Rutherford County,NC,USA,0,0,,,0,66826,35.395423,-81.985972,https://opendata.arcgis.com/datasets/969678bce431494a8f64d7faade6e5b8_0.csv,0.59375,151
,Lee County,NC,USA,0,0,,,0,61452,35.467607,-79.16466,https://opendata.arcgis.com/datasets/969678bce431494a8f64d7faade6e5b8_0.csv,0.59375,152
,Cleveland County,NC,USA,0,0,,,0,97645,35.371596499999995,-81.54468800000001,https://opendata.arcgis.com/datasets/969678bce431494a8f64d7faade6e5b8_0.csv,0.59375,153
,Jackson County,NC,USA,0,0,,,0,43327,35.26292,-83.1417865,https://opendata.arcgis.com/datasets/969678bce431494a8f64d7faade6e5b8_0.csv,0.59375,154
,Harnett County,NC,USA,2,0,,,2,134214,35.3876225,-78.87648899999999,https://opendata.arcgis.com/datasets/969678bce431494a8f64d7faade6e5b8_0.csv,0.59375,155
,Graham County,NC,USA,0,0,,,0,8484,35.342066,-83.810297,https://opendata.arcgis.com/datasets/969678bce431494a8f64d7faade6e5b8_0.csv,0.59375,156
,Henderson County,NC,USA,0,0,,,0,116748,35.322029,-82.5033325,https://opendata.arcgis.com/datasets/969678bce431494a8f64d7faade6e5b8_0.csv,0.59375,157
,Moore County,NC,USA,0,0,,,0,98682,35.2805435,-79.43270749999999,https://opendata.arcgis.com/datasets/969678bce431494a8f64d7faade6e5b8_0.csv,0.59375,158
,Montgomery County,NC,USA,0,0,,,0,27271,35.324289,-79.898494,https://opendata.arcgis.com/datasets/969678bce431494a8f64d7faade6e5b8_0.csv,0.59375,159
,Stanly County,NC,USA,0,0,,,0,62075,35.323707999999996,-80.278733,https://opendata.arcgis.com/datasets/969678bce431494a8f64d7faade6e5b8_0.csv,0.59375,160
,Transylvania County,NC,USA,0,0,,,0,34215,35.2252595,-82.815485,https://opendata.arcgis.com/datasets/969678bce431494a8f64d7faade6e5b8_0.csv,0.59375,161
,Polk County,NC,USA,0,0,,,0,20611,35.296185,-82.1603345,https://opendata.arcgis.com/datasets/969678bce431494a8f64d7faade6e5b8_0.csv,0.59375,162
,Lenoir County,NC,USA,0,0,,,0,55976,35.2174715,-77.6126075,https://opendata.arcgis.com/datasets/969678bce431494a8f64d7faade6e5b8_0.csv,0.59375,163
,Craven County,NC,USA,1,0,,,1,102912,35.110855,-77.063318,https://opendata.arcgis.com/datasets/969678bce431494a8f64d7faade6e5b8_0.csv,0.59375,164
,Macon County,NC,USA,0,0,,,0,35285,35.162244,-83.42341,https://opendata.arcgis.com/datasets/969678bce431494a8f64d7faade6e5b8_0.csv,0.59375,165
,Cherokee County,NC,USA,0,0,,,0,28383,35.139748499999996,-84.0097475,https://opendata.arcgis.com/datasets/969678bce431494a8f64d7faade6e5b8_0.csv,0.59375,166
,Pamlico County,NC,USA,0,0,,,0,12670,35.1507535,-76.72772499999999,https://opendata.arcgis.com/datasets/969678bce431494a8f64d7faade6e5b8_0.csv,0.59375,167
,Sampson County,NC,USA,0,0,,,0,63626,34.9345395,-78.3926405,https://opendata.arcgis.com/datasets/969678bce431494a8f64d7faade6e5b8_0.csv,0.59375,168
,Cumberland County,NC,USA,0,0,,,0,332330,35.0502155,-78.8038205,https://opendata.arcgis.com/datasets/969678bce431494a8f64d7faade6e5b8_0.csv,0.59375,169
,Clay County,NC,USA,0,0,,,0,11139,35.0712515,-83.7441825,https://opendata.arcgis.com/datasets/969678bce431494a8f64d7faade6e5b8_0.csv,0.59375,170
,Jones County,NC,USA,0,0,,,0,9637,35.014189,-77.39021650000001,https://opendata.arcgis.com/datasets/969678bce431494a8f64d7faade6e5b8_0.csv,0.59375,171
,Carteret County,NC,USA,0,0,,,0,69524,34.832848999999996,-76.60086799999999,https://opendata.arcgis.com/datasets/969678bce431494a8f64d7faade6e5b8_0.csv,0.59375,172
,Union County,NC,USA,0,0,,,0,235908,35.0112285,-80.5587175,https://opendata.arcgis.com/datasets/969678bce431494a8f64d7faade6e5b8_0.csv,0.59375,173
,Anson County,NC,USA,0,0,,,0,24877,35.008912,-80.0844735,https://opendata.arcgis.com/datasets/969678bce431494a8f64d7faade6e5b8_0.csv,0.59375,174
,Hoke County,NC,USA,0,0,,,0,54764,35.02319,-79.24694550000001,https://opendata.arcgis.com/datasets/969678bce431494a8f64d7faade6e5b8_0.csv,0.59375,175
,Duplin County,NC,USA,0,0,,,0,58856,34.9501105,-77.9257305,https://opendata.arcgis.com/datasets/969678bce431494a8f64d7faade6e5b8_0.csv,0.59375,176
,Richmond County,NC,USA,0,0,,,0,44887,34.99408,-79.76728299999999,https://opendata.arcgis.com/datasets/969678bce431494a8f64d7faade6e5b8_0.csv,0.59375,177
,Scotland County,NC,USA,0,0,,,0,34810,34.836764,-79.5119535,https://opendata.arcgis.com/datasets/969678bce431494a8f64d7faade6e5b8_0.csv,0.59375,178
,Onslow County,NC,USA,1,0,,,1,197683,34.712451,-77.3899735,https://opendata.arcgis.com/datasets/969678bce431494a8f64d7faade6e5b8_0.csv,0.59375,179
,Robeson County,NC,USA,0,0,,,0,131831,34.626412,-79.133749,https://opendata.arcgis.com/datasets/969678bce431494a8f64d7faade6e5b8_0.csv,0.59375,180
,Bladen County,NC,USA,0,0,,,0,33190,34.611776500000005,-78.5427315,https://opendata.arcgis.com/datasets/969678bce431494a8f64d7faade6e5b8_0.csv,0.59375,181
,Pender County,NC,USA,0,0,,,0,62162,34.512526,-77.894035,https://opendata.arcgis.com/datasets/969678bce431494a8f64d7faade6e5b8_0.csv,0.59375,182
,Columbus County,NC,USA,0,0,,,0,55655,34.2134885,-78.6167595,https://opendata.arcgis.com/datasets/969678bce431494a8f64d7faade6e5b8_0.csv,0.59375,183
,New Hanover County,NC,USA,0,0,,,0,232274,34.15828500000001,-77.872919,https://opendata.arcgis.com/datasets/969678bce431494a8f64d7faade6e5b8_0.csv,0.59375,184
,Brunswick County,NC,USA,1,0,,,1,136744,34.1056615,-78.292874,https://opendata.arcgis.com/datasets/969678bce431494a8f64d7faade6e5b8_0.csv,0.59375,185
,Iredell County,NC,USA,0,0,,,0,178435,35.7732565,-80.901307,https://opendata.arcgis.com/datasets/969678bce431494a8f64d7faade6e5b8_0.csv,0.59375,186
,Rowan County,NC,USA,0,0,,,0,141262,35.6830585,-80.47710000000001,https://opendata.arcgis.com/datasets/969678bce431494a8f64d7faade6e5b8_0.csv,0.59375,187
,Lincoln County,NC,USA,0,0,,,0,83770,35.484821999999994,-81.24025,https://opendata.arcgis.com/datasets/969678bce431494a8f64d7faade6e5b8_0.csv,0.59375,188
,Mecklenburg County,NC,USA,4,0,,,4,1093901,35.2583695,-80.804163,https://opendata.arcgis.com/datasets/969678bce431494a8f64d7faade6e5b8_0.csv,0.59375,189
,Cabarrus County,NC,USA,1,0,,,1,211342,35.3456055,-80.541589,https://opendata.arcgis.com/datasets/969678bce431494a8f64d7faade6e5b8_0.csv,0.59375,190
,Gaston County,NC,USA,0,0,,,0,222846,35.284431999999995,-81.1896935,https://opendata.arcgis.com/datasets/969678bce431494a8f64d7faade6e5b8_0.csv,0.59375,191
,,NC,USA,33,,,,33,10488084,-28.844672746443443,20.996920403668724,https://opendata.arcgis.com/datasets/969678bce431494a8f64d7faade6e5b8_0.csv,0.34375,192
,Atlantic County,NJ,USA,0,,,0,0,265429,39.509258,-74.6437035,https://opendata.arcgis.com/datasets/8840fd8ac1314f5188e6cf98b525321c_0.csv,0.59375,193
,Bergen County,NJ,USA,61,,,68,61,936692,40.952146,-74.08225,https://opendata.arcgis.com/datasets/8840fd8ac1314f5188e6cf98b525321c_0.csv,0.59375,194
,Burlington County,NJ,USA,5,,,8,5,445384,39.8658955,-74.72494950000001,https://opendata.arcgis.com/datasets/8840fd8ac1314f5188e6cf98b525321c_0.csv,0.59375,195
,Camden County,NJ,USA,3,,,6,3,507078,39.800549000000004,-74.9381575,https://opendata.arcgis.com/datasets/8840fd8ac1314f5188e6cf98b525321c_0.csv,0.59375,196
,Cape May County,NJ,USA,0,,,0,0,92560,39.1261435,-74.756719,https://opendata.arcgis.com/datasets/8840fd8ac1314f5188e6cf98b525321c_0.csv,0.59375,197
,Cumberland County,NJ,USA,0,,,1,0,150972,39.373098,-75.135421,https://opendata.arcgis.com/datasets/8840fd8ac1314f5188e6cf98b525321c_0.csv,0.59375,198
,Essex County,NJ,USA,20,,,24,20,799767,40.7914715,-74.24515199999999,https://opendata.arcgis.com/datasets/8840fd8ac1314f5188e6cf98b525321c_0.csv,0.59375,199
,Gloucester County,NJ,USA,0,,,0,0,291408,39.7016335,-75.15904900000001,https://opendata.arcgis.com/datasets/8840fd8ac1314f5188e6cf98b525321c_0.csv,0.59375,200
,Hudson County,NJ,USA,19,,,25,19,676061,40.732721999999995,-74.07540449999999,https://opendata.arcgis.com/datasets/8840fd8ac1314f5188e6cf98b525321c_0.csv,0.59375,201
,Hunterdon County,NJ,USA,1,,,2,1,124714,40.5647375,-74.9494015,https://opendata.arcgis.com/datasets/8840fd8ac1314f5188e6cf98b525321c_0.csv,0.59375,202
,Mercer County,NJ,USA,6,,,6,6,369811,40.280848500000005,-74.7122715,https://opendata.arcgis.com/datasets/8840fd8ac1314f5188e6cf98b525321c_0.csv,0.59375,203
,Monmouth County,NJ,USA,14,,,19,14,621354,40.2778005,-74.2928135,https://opendata.arcgis.com/datasets/8840fd8ac1314f5188e6cf98b525321c_0.csv,0.59375,204
,Ocean County,NJ,USA,3,,,4,3,601651,39.835446000000005,-74.29221150000001,https://opendata.arcgis.com/datasets/8840fd8ac1314f5188e6cf98b525321c_0.csv,0.59375,205
,Passaic County,NJ,USA,8,,,10,8,503310,41.0114805,-74.304839,https://opendata.arcgis.com/datasets/8840fd8ac1314f5188e6cf98b525321c_0.csv,0.59375,206
,Salem County,NJ,USA,0,,,0,0,62607,39.5848515,-75.31079349999999,https://opendata.arcgis.com/datasets/8840fd8ac1314f5188e6cf98b525321c_0.csv,0.59375,207
,Somerset County,NJ,USA,5,,,5,5,331164,40.566201,-74.5998835,https://opendata.arcgis.com/datasets/8840fd8ac1314f5188e6cf98b525321c_0.csv,0.59375,208
,Sussex County,NJ,USA,0,,,1,0,140799,41.128282,-74.678832,https://opendata.arcgis.com/datasets/8840fd8ac1314f5188e6cf98b525321c_0.csv,0.59375,209
,Union County,NJ,USA,8,,,13,8,558067,40.665566,-74.300027,https://opendata.arcgis.com/datasets/8840fd8ac1314f5188e6cf98b525321c_0.csv,0.59375,210
,Warren County,NJ,USA,0,,,1,0,105779,40.8430415,-74.985897,https://opendata.arcgis.com/datasets/8840fd8ac1314f5188e6cf98b525321c_0.csv,0.59375,211
,Morris County,NJ,USA,6,,,6,6,494228,40.867802999999995,-74.5802275,https://opendata.arcgis.com/datasets/8840fd8ac1314f5188e6cf98b525321c_0.csv,0.59375,212
,Middlesex County,NJ,USA,17,,,21,17,829685,40.430130500000004,-74.41841600000001,https://opendata.arcgis.com/datasets/8840fd8ac1314f5188e6cf98b525321c_0.csv,0.59375,213
,,NJ,USA,176,,,220,176,8882190,12.104873978005386,15.06717673331957,https://opendata.arcgis.com/datasets/8840fd8ac1314f5188e6cf98b525321c_0.csv,0.46875,214
,,British Columbia,CAN,73,,,,73,5071000,54.15716767014678,-126.56202337499991,https://www.canada.ca/en/public-health/services/diseases/2019-novel-coronavirus-infection.html,0.3125,215
,,Alberta,CAN,56,,,,56,4067175,54.49628672664678,-115.00016854279502,https://www.canada.ca/en/public-health/services/diseases/2019-novel-coronavirus-infection.html,0.3125,216
,,Saskatchewan,CAN,1,,,,1,1098352,54.496338403094796,-105.6821561755884,https://www.canada.ca/en/public-health/services/diseases/2019-novel-coronavirus-infection.html,0.3125,217
,,Manitoba,CAN,4,,,,4,1278365,54.496368513369816,-95.4742987434922,https://www.canada.ca/en/public-health/services/diseases/2019-novel-coronavirus-infection.html,0.3125,218
,,Ontario,CAN,145,,,,145,13448494,49.26501413726137,-84.7533750036988,https://www.canada.ca/en/public-health/services/diseases/2019-novel-coronavirus-infection.html,0.3125,219
,,Quebec,CAN,39,,,,39,8164361,53.79378896700006,-68.38833574149993,https://www.canada.ca/en/public-health/services/diseases/2019-novel-coronavirus-infection.html,0.3125,220
,,Newfoundland and Labrador,CAN,0,,,,0,519716,53.46112743006114,-60.21844100481229,https://www.canada.ca/en/public-health/services/diseases/2019-novel-coronavirus-infection.html,0.3125,221
,,New Brunswick,CAN,1,,,,1,747101,46.36274594300005,-66.43830941249992,https://www.canada.ca/en/public-health/services/diseases/2019-novel-coronavirus-infection.html,0.3125,222
,,Nova Scotia,CAN,0,,,,0,923598,45.266872463000055,-63.021209276499945,https://www.canada.ca/en/public-health/services/diseases/2019-novel-coronavirus-infection.html,0.3125,223
,,Prince Edward Island,CAN,1,,,,1,142907,46.49290599200006,-63.21041826049995,https://www.canada.ca/en/public-health/services/diseases/2019-novel-coronavirus-infection.html,0.3125,224
,,,THA,147,1,35,,111,68414135,13.04083302850006,101.54455590850003,https://github.com/CSSEGISandData/COVID-19,0.65625,225
,,,JPN,825,27,144,,654,126451398,37.87307291750005,137.65978516150005,https://github.com/CSSEGISandData/COVID-19,0.65625,226
,,,SGP,243,0,109,,134,5888926,1.3585676125000532,103.80420983150006,https://github.com/CSSEGISandData/COVID-19,0.65625,227
,,,NPL,1,0,1,,0,29384297,28.38379831950006,84.1027264815001,https://github.com/CSSEGISandData/COVID-19,0.65625,228
,,,MYS,566,0,42,,524,31381992,3.9309068840000734,109.69719485800007,https://github.com/CSSEGISandData/COVID-19,0.65625,229
,,,KHM,7,0,1,,6,16204486,12.56212270450002,104.96757694500008,https://github.com/CSSEGISandData/COVID-19,0.65625,230
,,,LKA,28,0,1,,27,22409381,7.8766543645000695,80.82227623750006,https://github.com/CSSEGISandData/COVID-19,0.65625,231
,,,DEU,7272,17,67,,7188,80594017,51.09924480150008,10.473758178500105,https://github.com/CSSEGISandData/COVID-19,0.65625,232
,,,FIN,277,0,10,,267,5491218,64.9866635165001,26.09634464500006,https://github.com/CSSEGISandData/COVID-19,0.65625,233
,,,ARE,98,0,23,,75,6072475,24.340997059161296,53.97632897200003,https://github.com/CSSEGISandData/COVID-19,0.65625,234
,,,PHL,142,12,2,,128,104256076,12.108262437000064,121.93718509200005,https://github.com/CSSEGISandData/COVID-19,0.65625,235
,,,IND,119,2,13,,104,1281935911,21.151850284000083,82.74863427400004,https://github.com/CSSEGISandData/COVID-19,0.65625,236
,,,ITA,27980,2158,2749,,23073,62137802,41.826061709500074,12.56007714450007,https://github.com/CSSEGISandData/COVID-19,0.65625,237
,,,SWE,1103,6,1,,1096,9960487,62.191185204500094,17.635630730000088,https://github.com/CSSEGISandData/COVID-19,0.65625,238
,,,BEL,1058,5,1,,1052,11491346,50.49042053300006,4.4297657472728815,https://github.com/CSSEGISandData/COVID-19,0.65625,239
,,,EGY,150,2,27,,121,97041072,26.825424706000064,30.791862752500094,https://github.com/CSSEGISandData/COVID-19,0.65625,240
,,,LBN,99,3,1,,95,6229794,33.86861807120964,35.85466820900007,https://github.com/CSSEGISandData/COVID-19,0.65625,241
,,,IRQ,124,10,26,,88,39192111,33.21901997950006,43.65276391200004,https://github.com/CSSEGISandData/COVID-19,0.65625,242
,,,OMN,22,0,9,,13,3424386,21.444199937000064,55.911594682500095,https://github.com/CSSEGISandData/COVID-19,0.65625,243
,,,AFG,21,0,1,,20,34124811,33.930139364000084,67.6895422770001,https://github.com/CSSEGISandData/COVID-19,0.65625,244
,,,BHR,214,1,77,,136,1410942,26.024400132000068,50.53386477950008,https://github.com/CSSEGISandData/COVID-19,0.65625,245
,,,KWT,123,0,9,,114,2875422,29.315860290500055,47.48260848850009,https://github.com/CSSEGISandData/COVID-19,0.65625,246
,,,DZA,54,4,12,,38,40969443,28.032339379000085,1.6432377520000898,https://github.com/CSSEGISandData/COVID-19,0.65625,247
,,,HRV,57,0,2,,55,4292095,44.48165314050009,16.33771101500008,https://github.com/CSSEGISandData/COVID-19,0.65625,248
,,,CHE,2200,14,4,,2182,8236303,46.840811259500086,8.258983805500094,https://github.com/CSSEGISandData/COVID-19,0.65625,249
,,,AUT,1018,3,6,,1009,8754413,47.71313527500007,13.334746337500093,https://github.com/CSSEGISandData/COVID-19,0.65625,250
,,,ISR,255,0,4,,251,8299706,31.448389692000035,35.06821170350008,https://github.com/CSSEGISandData/COVID-19,0.65625,251
,,,PAK,136,0,2,,134,204924861,30.377750552000087,68.94667484550007,https://github.com/CSSEGISandData/COVID-19,0.65625,252
,,,BRA,200,0,1,,199,207353391,-14.236725569657125,-54.38839290699988,https://github.com/CSSEGISandData/COVID-19,0.65625,253
,,,GEO,33,0,1,,32,4926330,42.31029968300004,43.34038972821833,https://github.com/CSSEGISandData/COVID-19,0.65625,254
,,,GRC,331,4,8,,319,10768477,38.322331546000065,24.119802279500078,https://github.com/CSSEGISandData/COVID-19,0.65625,255
,,,MKD,18,0,1,,17,2103721,41.591247966000054,21.726869751000095,https://github.com/CSSEGISandData/COVID-19,0.65625,256
,,,NOR,1333,3,1,,1329,5320045,69.25525543850006,18.013723178000077,https://github.com/CSSEGISandData/COVID-19,0.65625,257
,,,ROU,158,0,9,,149,21529967,45.95662750300005,24.950926754500074,https://github.com/CSSEGISandData/COVID-19,0.65625,258
,,,EST,205,0,1,,204,1251581,58.572233381000025,24.943451368500064,https://github.com/CSSEGISandData/COVID-19,0.65625,259
,,,SMR,109,7,4,,98,33537,43.92963720000006,12.437976970500117,https://github.com/CSSEGISandData/COVID-19,0.65625,260
,,,BLR,36,0,3,,33,9549747,53.72384073950006,27.942588541500044,https://github.com/CSSEGISandData/COVID-19,0.65625,261
,,,ISL,180,0,0,,180,339747,64.96666087450004,-18.861826138499936,https://github.com/CSSEGISandData/COVID-19,0.65625,262
,,,LTU,17,0,1,,16,2823859,55.16278391600002,23.911012610500066,https://github.com/CSSEGISandData/COVID-19,0.65625,263
,,,MEX,53,0,4,,49,124574795,23.629557940500092,-101.93334401247205,https://github.com/CSSEGISandData/COVID-19,0.65625,264
,,,NZL,8,0,0,,8,4510327,-40.878065687999936,172.51685631600003,https://github.com/CSSEGISandData/COVID-19,0.65625,265
,,,NGA,2,0,0,,2,190632261,9.07578074450008,8.671077514500098,https://github.com/CSSEGISandData/COVID-19,0.65625,266
,,,IRL,169,2,0,,167,5011102,53.46108633000006,-8.136179165499925,https://github.com/CSSEGISandData/COVID-19,0.65625,267
,,,LUX,77,1,0,,76,594130,49.80347279900003,6.1075130615000575,https://github.com/CSSEGISandData/COVID-19,0.65625,268
,,,MCO,7,0,0,,7,30645,43.743117918500026,7.401602119563048,https://github.com/CSSEGISandData/COVID-19,0.65625,269
,,,QAT,439,0,4,,435,2314307,25.363913984500023,51.18376712300005,https://github.com/CSSEGISandData/COVID-19,0.65625,270
,,,ECU,37,2,0,,35,16290913,-1.7634670984999161,-83.4578538649999,https://github.com/CSSEGISandData/COVID-19,0.65625,271
,,,AZE,15,1,6,,8,9961396,40.14320973750006,47.50227481750011,https://github.com/CSSEGISandData/COVID-19,0.65625,272
,,,ARM,52,0,0,,52,3045191,40.077076823500036,45.01914310700013,https://github.com/CSSEGISandData/COVID-19,0.65625,273
,,,DOM,11,0,0,,11,10734247,18.771246649000062,-70.13417985399988,https://github.com/CSSEGISandData/COVID-19,0.65625,274
,,,IDN,134,5,8,,121,260580739,-2.6357561174999375,118.08721907200007,https://github.com/CSSEGISandData/COVID-19,0.65625,275
,,,PRT,331,0,3,,328,10839514,37.400416263500055,-15.94334102749994,https://github.com/CSSEGISandData/COVID-19,0.65625,276
,,,AND,2,0,1,,1,85702,42.51501586950006,1.5681518960000886,https://github.com/CSSEGISandData/COVID-19,0.65625,277
,,,LVA,34,0,1,,33,1944643,56.862861023500045,24.59194014100008,https://github.com/CSSEGISandData/COVID-19,0.65625,278
,,,MAR,29,1,1,,27,33986655,28.67223747529175,-9.030622863196513,https://github.com/CSSEGISandData/COVID-19,0.65625,279
,,,SAU,118,0,2,,116,28571770,24.244550886000077,45.132142167500064,https://github.com/CSSEGISandData/COVID-19,0.65625,280
,,,SEN,24,0,2,,22,14668522,14.474492289500091,-14.37969132899994,https://github.com/CSSEGISandData/COVID-19,0.65625,281
,,,ARG,56,2,1,,53,44293293,-38.42173074799991,-63.626654215499926,https://github.com/CSSEGISandData/COVID-19,0.65625,282
,,,CHL,155,0,0,,155,17789267,-36.567062457499944,-71.3604937374999,https://github.com/CSSEGISandData/COVID-19,0.65625,283
,,,JOR,17,0,1,,16,10248069,31.280817871500048,37.04788003839781,https://github.com/CSSEGISandData/COVID-19,0.65625,284
,,,UKR,7,1,0,,6,44033874,48.79241852100008,31.137251424000127,https://github.com/CSSEGISandData/COVID-19,0.65625,285
,,,HUN,39,1,1,,37,9850845,47.156127930000025,19.485817912000087,https://github.com/CSSEGISandData/COVID-19,0.65625,286
,,,LIE,4,0,0,,4,38244,47.15983571400008,9.533092081500058,https://github.com/CSSEGISandData/COVID-19,0.65625,287
,,,POL,177,4,13,,160,38476269,51.93482900350006,19.125478149000088,https://github.com/CSSEGISandData/COVID-19,0.65625,288
,,,TUN,20,0,0,,20,11403800,33.78217031200008,9.521981649000097,https://github.com/CSSEGISandData/COVID-19,0.65625,289
,,,BIH,25,0,0,,25,3856181,43.91899993950011,17.668099406000096,https://github.com/CSSEGISandData/COVID-19,0.65625,290
,,,SVN,253,1,0,,252,1972126,46.14379954050001,14.940281412500084,https://github.com/CSSEGISandData/COVID-19,0.65625,291
,,,ZAF,62,0,0,,62,54841552,-28.469792578999943,24.690074089500087,https://github.com/CSSEGISandData/COVID-19,0.65625,292
,,,BTN,1,0,0,,1,758288,27.518180482737833,90.40745792650009,https://github.com/CSSEGISandData/COVID-19,0.65625,293
,,,CMR,4,0,0,,4,24994885,7.407972718000032,12.350860429500074,https://github.com/CSSEGISandData/COVID-19,0.65625,294
,,,COL,54,0,0,,54,47698524,4.114416812000066,-72.93652033249992,https://github.com/CSSEGISandData/COVID-19,0.65625,295
,,,CRI,35,0,0,,35,4930258,9.615482479500045,-84.21760006449992,https://github.com/CSSEGISandData/COVID-19,0.65625,296
,,,PER,86,0,0,,86,31036656,-9.190602483184005,-75.01090500599992,https://github.com/CSSEGISandData/COVID-19,0.65625,297
,,,SRB,55,0,1,,54,7111024,44.20522467850007,20.9182886145001,https://github.com/CSSEGISandData/COVID-19,0.65625,298
,,,SVK,63,0,0,,63,5445829,48.67589304650005,19.692058553000123,https://github.com/CSSEGISandData/COVID-19,0.65625,299
,,,TGO,1,0,0,,1,7965055,8.61773549700009,0.8081207685000891,https://github.com/CSSEGISandData/COVID-19,0.65625,300
,,,MLT,30,0,2,,28,416338,35.88346995650005,14.445323113000057,https://github.com/CSSEGISandData/COVID-19,0.65625,301
,,,MTQ,15,1,0,,14,,14.6415,-61.0242,https://github.com/CSSEGISandData/COVID-19,0.65625,
,,,BGR,52,2,0,,50,7101510,42.73391529800004,25.47427473600007,https://github.com/CSSEGISandData/COVID-19,0.65625,302
,,,MDV,13,0,0,,13,392709,4.213175576792927,73.52910604309824,https://github.com/CSSEGISandData/COVID-19,0.65625,303
,,,BGD,8,0,2,,6,157826578,23.73811778050007,90.33232039450004,https://github.com/CSSEGISandData/COVID-19,0.65625,304
,,,PRY,8,0,0,,8,6943739,-23.43368479399996,-58.44782303899994,https://github.com/CSSEGISandData/COVID-19,0.65625,305
,,,ALB,51,1,0,,50,3047987,41.11245290150006,20.154355916000085,https://github.com/CSSEGISandData/COVID-19,0.65625,306
,,,CYP,33,0,0,,33,1221549,34.910753335500104,33.197142898000095,https://github.com/CSSEGISandData/COVID-19,0.65625,307
,,,BRN,54,0,0,,54,443593,4.510995486500057,114.66157535500005,https://github.com/CSSEGISandData/COVID-19,0.65625,308
,,CA,USA,557,7,6,,544,39512223,13.881211864033439,-88.73667151233042,https://github.com/CSSEGISandData/COVID-19,0.65625,309
,,MA,USA,197,0,1,,196,6892503,3.8958436470103948,-57.491786678543065,https://github.com/CSSEGISandData/COVID-19,0.65625,310
,,GA,USA,121,1,0,,120,10617423,5.003778723500062,46.67953211888616,https://github.com/CSSEGISandData/COVID-19,0.65625,311
,,FL,USA,155,5,0,,150,21477737,53.20875990795537,-3.1370130791734043,https://github.com/CSSEGISandData/COVID-19,0.65625,312
,,IL,USA,105,0,2,,103,12671821,33.07065725892534,46.81172136345015,https://github.com/CSSEGISandData/COVID-19,0.65625,313
,,MD,USA,41,0,3,,38,6045680,-11.649295559249765,-70.53651199773051,https://github.com/CSSEGISandData/COVID-19,0.65625,314
,,SC,USA,33,1,0,,32,5148714,45.898594465640834,19.585981719498946,https://github.com/CSSEGISandData/COVID-19,0.65625,315
,,TN,USA,52,0,0,,52,6829174,11.370549577000084,106.12875657678063,https://github.com/CSSEGISandData/COVID-19,0.65625,316
,,VA,USA,49,1,0,,48,8535519,47.69023320653376,16.562298798952522,https://github.com/CSSEGISandData/COVID-19,0.65625,317
,,AZ,USA,18,0,1,,17,7278717,23.795429430473412,53.78359968700005,https://github.com/CSSEGISandData/COVID-19,0.65625,318
,,IN,USA,25,1,0,,24,6732219,43.14869771655038,44.835279168249,https://github.com/CSSEGISandData/COVID-19,0.65625,319
,,KY,USA,21,1,1,,19,4467673,13.788978577500039,-10.19809332590178,https://github.com/CSSEGISandData/COVID-19,0.65625,320
,,NV,USA,45,1,0,,44,3080156,41.01050781662638,21.66318692014022,https://github.com/CSSEGISandData/COVID-19,0.65625,321
,,NH,USA,17,0,0,,17,1359711,44.002575579129676,-71.64192281532604,https://github.com/CSSEGISandData/COVID-19,0.65625,322
,,MN,USA,54,0,0,,54,5639632,54.15832285890196,-6.933507071014063,https://github.com/CSSEGISandData/COVID-19,0.65625,323
,,NE,USA,18,0,0,,18,1934408,-21.0124630734999,27.602830536104022,https://github.com/CSSEGISandData/COVID-19,0.65625,324
,,OH,USA,50,0,0,,50,11689100,40.36645852284252,-82.67188114679749,https://github.com/CSSEGISandData/COVID-19,0.65625,325
,,RI,USA,21,0,0,,21,1059361,0.7348025577156534,101.93572187668923,https://github.com/CSSEGISandData/COVID-19,0.65625,326
,,CT,USA,30,0,0,,30,3565287,-10.031169938956474,34.05329914828664,https://github.com/CSSEGISandData/COVID-19,0.65625,327
,,HI,USA,7,0,0,,7,1415872,4.370262062444226,45.49839878947134,https://github.com/CSSEGISandData/COVID-19,0.65625,328
,,OK,USA,10,0,0,,10,3956971,-18.289010747629185,19.49680472116094,https://github.com/CSSEGISandData/COVID-19,0.65625,329
,,UT,USA,39,0,0,,39,3205958,30.085476993671897,79.29053999553955,https://github.com/CSSEGISandData/COVID-19,0.65625,330
,,,BFA,15,0,0,,15,20107509,12.230804951500069,-1.5662045904998934,https://github.com/CSSEGISandData/COVID-19,0.65625,331
,,,VAT,1,0,0,,1,1000,41.90333333950011,12.453533325000109,https://github.com/CSSEGISandData/COVID-19,0.65625,332
,,,MNG,1,0,0,,1,3068243,46.85141784700008,103.85503503500007,https://github.com/CSSEGISandData/COVID-19,0.65625,333
,,,PAN,55,1,0,,54,3753142,8.420921827000058,-80.07274338849989,https://github.com/CSSEGISandData/COVID-19,0.65625,334
,,KS,USA,11,1,0,,10,2913314,-13.001272450762997,33.45296190966974,https://github.com/CSSEGISandData/COVID-19,0.65625,335
,,MO,USA,6,0,0,,6,6137428,13.766638946280324,-88.10526448763456,https://github.com/CSSEGISandData/COVID-19,0.65625,336
,,VT,USA,12,0,0,,12,623989,43.2286709521527,25.622240024407574,https://github.com/CSSEGISandData/COVID-19,0.65625,337
,,AK,USA,1,0,0,,1,731545,60.053117394710654,11.221986756417863,https://github.com/CSSEGISandData/COVID-19,0.65625,338
,,AR,USA,22,0,0,,22,3017804,28.008685410239444,94.46749434450007,https://github.com/CSSEGISandData/COVID-19,0.65625,339
,,ID,USA,5,0,0,,5,1787065,35.84422068938329,36.68586180312968,https://github.com/CSSEGISandData/COVID-19,0.65625,340
,,ME,USA,17,0,0,,17,1344212,33.07348753200004,10.639019813077255,https://github.com/CSSEGISandData/COVID-19,0.65625,341
,,MI,USA,53,0,0,,53,9986857,-26.9553565436281,-57.118730231514974,https://github.com/CSSEGISandData/COVID-19,0.65625,342
,,MT,USA,7,0,0,,7,1068778,46.7125883042568,16.272058415378368,https://github.com/CSSEGISandData/COVID-19,0.65625,343
,,NM,USA,17,0,0,,17,2096829,45.35383134546877,111.62347220837569,https://github.com/CSSEGISandData/COVID-19,0.65625,344
,,ND,USA,1,0,0,,1,762062,47.46721085597658,-100.3019580214955,https://github.com/CSSEGISandData/COVID-19,0.65625,345
,,SD,USA,10,1,0,,9,884659,26.13054169295833,68.8897290410001,https://github.com/CSSEGISandData/COVID-19,0.65625,346
,,WV,USA,0,0,0,,0,1792147,38.92806805344787,-80.1829407161911,https://github.com/CSSEGISandData/COVID-19,0.65625,347
,,WY,USA,3,0,0,,3,578759,42.999967466625236,-107.55199589229656,https://github.com/CSSEGISandData/COVID-19,0.65625,348
,,Hubei,CHN,67798,3099,55142,,9557,59170000,31.166405443456426,112.26392825753302,https://github.com/CSSEGISandData/COVID-19,0.65625,349
,,,IRN,14991,853,4590,,9548,82021564,32.412651216000036,53.6631116130001,https://github.com/CSSEGISandData/COVID-19,0.65625,350
,,,KOR,8236,75,1137,,7024,51181299,35.91235993050006,127.85698489700007,https://github.com/CSSEGISandData/COVID-19,0.65625,351
,,Guangdong,CHN,1361,8,1306,,47,113460000,22.876783758944043,113.41792352680932,https://github.com/CSSEGISandData/COVID-19,0.65625,352
,,Henan,CHN,1273,22,1250,,1,96050000,33.87707977965809,113.48442223524788,https://github.com/CSSEGISandData/COVID-19,0.65625,353
,,Zhejiang,CHN,1231,1,1216,,14,57370000,29.189050400871963,120.1641359794138,https://github.com/CSSEGISandData/COVID-19,0.65625,354
,,Hunan,CHN,1018,4,1014,,0,68990000,27.369414984613826,111.50909061104284,https://github.com/CSSEGISandData/COVID-19,0.65625,355
,,Anhui,CHN,990,6,984,,0,63240000,32.02378204990168,117.2581712176775,https://github.com/CSSEGISandData/COVID-19,0.65625,356
,,Jiangxi,CHN,935,1,934,,0,46480000,27.275131334293633,116.01917707751011,https://github.com/CSSEGISandData/COVID-19,0.65625,357
,,Shandong,CHN,760,7,746,,7,100470000,36.33507593620547,118.74515424940193,https://github.com/CSSEGISandData/COVID-19,0.65625,358
,,Jiangsu,CHN,631,0,631,,0,80510000,32.934811713190015,119.14963721029278,https://github.com/CSSEGISandData/COVID-19,0.65625,359
,,Chongqing,CHN,576,6,570,,0,31020000,30.198712571927643,107.73296451180275,https://github.com/CSSEGISandData/COVID-19,0.65625,360
,,Sichuan,CHN,539,3,516,,20,83410000,30.165213324835065,102.93966535826965,https://github.com/CSSEGISandData/COVID-19,0.65625,361
,,Heilongjiang,CHN,482,13,455,,14,37730000,48.501949771374576,127.97325321185173,https://github.com/CSSEGISandData/COVID-19,0.65625,362
,,Beijing,CHN,452,8,360,,84,21540000,40.236575323991985,116.42780846573805,https://github.com/CSSEGISandData/COVID-19,0.65625,363
,,Shanghai,CHN,355,3,325,,27,24240000,31.266158547445322,121.43153719907554,https://github.com/CSSEGISandData/COVID-19,0.65625,364
,,Hebei,CHN,318,6,310,,2,75560000,39.323827419599695,116.65206139450123,https://github.com/CSSEGISandData/COVID-19,0.65625,365
,,Fujian,CHN,296,1,295,,0,39410000,25.971159641604146,118.13227705193037,https://github.com/CSSEGISandData/COVID-19,0.65625,366
,,Guangxi,CHN,252,2,248,,2,49260000,23.899949245349177,108.27096784823755,https://github.com/CSSEGISandData/COVID-19,0.65625,367
,,Shaanxi,CHN,245,2,233,,10,38640000,35.63509908705319,108.36171166401203,https://github.com/CSSEGISandData/COVID-19,0.65625,368
,,Yunnan,CHN,176,2,172,,2,48300000,25.179122725058342,101.85510583221756,https://github.com/CSSEGISandData/COVID-19,0.65625,369
,,Hainan,CHN,168,6,161,,1,9340000,19.150763250500063,109.81287682400003,https://github.com/CSSEGISandData/COVID-19,0.65625,370
,,Guizhou,CHN,146,2,144,,0,36000000,26.9387435980386,106.60127648352287,https://github.com/CSSEGISandData/COVID-19,0.65625,371
,,Tianjin,CHN,136,3,133,,0,15600000,39.40813751918114,117.34508644325369,https://github.com/CSSEGISandData/COVID-19,0.65625,372
,,Shanxi,CHN,133,0,133,,0,37180000,37.66312775369286,112.3891919290642,https://github.com/CSSEGISandData/COVID-19,0.65625,373
,,Gansu,CHN,133,2,91,,40,26370000,37.69770367228662,100.73804263765757,https://github.com/CSSEGISandData/COVID-19,0.65625,374
,,,Hong Kong,155,4,84,,67,,22.3,114.2,https://github.com/CSSEGISandData/COVID-19,0.65625,
,,Liaoning,CHN,125,1,115,,9,43590000,41.09091390618639,122.31055016440854,https://github.com/CSSEGISandData/COVID-19,0.65625,375
,,Jilin,CHN,93,1,92,,0,27040000,43.56576924140737,126.47365482303488,https://github.com/CSSEGISandData/COVID-19,0.65625,376
,,,CZE,298,0,3,,295,10674723,49.80312398300006,15.540038086000095,https://github.com/CSSEGISandData/COVID-19,0.65625,377
,,Xinjiang,CHN,76,3,73,,0,24870000,41.752899103285706,84.98429810398284,https://github.com/CSSEGISandData/COVID-19,0.65625,378
,,Inner Mongolia,CHN,75,1,73,,1,25000034,45.35383134546877,111.62347220837569,https://github.com/CSSEGISandData/COVID-19,0.65625,344
,,Ningxia,CHN,75,0,75,,0,6880000,37.31081075681095,106.00808271719359,https://github.com/CSSEGISandData/COVID-19,0.65625,379
,,,TWN,67,1,20,,46,23508428,23.598456122000044,120.98259524850005,https://github.com/CSSEGISandData/COVID-19,0.65625,380
,,,VNM,61,0,16,,45,96160163,15.941768090000089,105.79183617800007,https://github.com/CSSEGISandData/COVID-19,0.65625,381
,,,RUS,90,0,8,,82,142257519,61.240742495500065,4.263256414560601e-14,https://github.com/CSSEGISandData/COVID-19,0.65625,382
,,Qinghai,CHN,18,0,18,,0,6030000,35.43499502195269,96.23774885477579,https://github.com/CSSEGISandData/COVID-19,0.65625,383
,,Macau,CHN,11,0,10,,1,667400,22.1667,113.55,https://github.com/CSSEGISandData/COVID-19,0.65625,
,,,MDA,23,0,0,,23,3474121,46.967069702500055,28.28525496400006,https://github.com/CSSEGISandData/COVID-19,0.65625,384
,,,BOL,11,0,0,,11,11138234,-16.286937560999938,-63.58694087799992,https://github.com/CSSEGISandData/COVID-19,0.65625,385
,,St Martin,FRA,2,0,0,,2,,18.07776461717568,-63.06228647314417,https://github.com/CSSEGISandData/COVID-19,0.65625,386
,,,HND,6,0,0,,6,9038741,14.484747626000058,-86.24603266122396,https://github.com/CSSEGISandData/COVID-19,0.65625,387
,,Channel Islands,GBR,6,0,0,,6,,49.3723,-2.3644,https://github.com/CSSEGISandData/COVID-19,0.65625,
,,Tibet,CHN,1,0,1,,0,3440000,31.88221486755922,88.74489831230724,https://github.com/CSSEGISandData/COVID-19,0.65625,388
,,,COD,2,0,0,,2,83301151,-4.029468688999948,21.726683794000053,https://github.com/CSSEGISandData/COVID-19,0.65625,389
,,,CIV,1,0,0,,1,24184810,7.533667911000066,-5.536220662499915,https://github.com/CSSEGISandData/COVID-19,0.65625,390
,,Saint Barthelemy,FRA,3,0,0,,3,9793,17.903509833000072,-62.82453365799992,https://github.com/CSSEGISandData/COVID-19,0.65625,391
,,,JAM,10,0,2,,8,2990561,18.11774323150007,-77.30223548049992,https://github.com/CSSEGISandData/COVID-19,0.65625,392
,,,REU,9,0,0,,9,,-21.1151,55.5364,https://github.com/CSSEGISandData/COVID-19,0.65625,
,,,TUR,18,0,0,,18,80845215,38.95576283850008,35.425474377000086,https://github.com/CSSEGISandData/COVID-19,0.65625,393
,,Gibraltar,GBR,1,0,1,,0,32194,36.13020456349999,-5.348580120852014,https://github.com/CSSEGISandData/COVID-19,0.65625,394
,,,CUB,4,0,0,,4,11147407,21.528102931500058,-79.28561357349994,https://github.com/CSSEGISandData/COVID-19,0.65625,395
,,,GUY,4,1,0,,3,737718,4.887909040000061,-58.9307134609999,https://github.com/CSSEGISandData/COVID-19,0.65625,396
,,,GBR,1543,55,20,,1468,64769452,55.19161611550004,-3.192432722499916,https://github.com/CSSEGISandData/COVID-19,0.65625,397
,,,KAZ,10,0,0,,10,18556698,47.96872690850006,66.90155419950011,https://github.com/CSSEGISandData/COVID-19,0.65625,398
,,French Polynesia,FRA,3,0,0,,3,,-17.6797,149.4068,https://github.com/CSSEGISandData/COVID-19,0.65625,
,,,GLP,6,0,0,,6,,16.265,-61.551,https://github.com/CSSEGISandData/COVID-19,0.65625,
,,,ETH,5,0,0,,5,105350020,9.170952962500039,40.484484497000125,https://github.com/CSSEGISandData/COVID-19,0.65625,399
,,,SDN,1,1,0,,0,37345935,15.342520469500087,30.205510901500105,https://github.com/CSSEGISandData/COVID-19,0.65625,400
,,,GIN,1,0,0,,1,12413867,9.955672506000056,-11.356289228999898,https://github.com/CSSEGISandData/COVID-19,0.65625,401
,,,ABW,2,0,0,,2,115120,12.497626043500048,-69.9691462879999,https://github.com/CSSEGISandData/COVID-19,0.65625,402
,,,KEN,3,0,0,,3,47615739,0.1521078450765998,37.889294067000066,https://github.com/CSSEGISandData/COVID-19,0.65625,403
,,,ATG,1,0,0,,1,94731,17.098659572500083,-61.78465735599994,https://github.com/CSSEGISandData/COVID-19,0.65625,404
,,,URY,8,0,0,,8,3360148,-32.535970353999936,-55.78074845749991,https://github.com/CSSEGISandData/COVID-19,0.65625,405
,,,GHA,6,0,0,,6,27499924,7.936054182000099,-1.038557295499956,https://github.com/CSSEGISandData/COVID-19,0.65625,406
,,PR,USA,5,0,0,,5,3193694,58.30971624953123,24.422173129022518,https://github.com/CSSEGISandData/COVID-19,0.65625,407
,,,JEY,2,0,0,,2,98840,49.21578603700004,-2.133269823499944,https://github.com/CSSEGISandData/COVID-19,0.65625,408
,,,NAM,2,0,0,,2,2484780,-22.95521270749991,18.48870100550009,https://github.com/CSSEGISandData/COVID-19,0.65625,409
,,,SYC,3,0,0,,3,93920,-4.6842609996816105,55.46512857035178,https://github.com/CSSEGISandData/COVID-19,0.65625,410
,,,TTO,4,0,0,,4,1218208,10.451544501000058,-61.33045406799994,https://github.com/CSSEGISandData/COVID-19,0.65625,411
,,,VEN,17,0,0,,17,31304016,6.444529930500067,-66.5967054854999,https://github.com/CSSEGISandData/COVID-19,0.65625,412
,,,SWZ,1,0,0,,1,1467152,-26.52995574899993,31.451547485500043,https://github.com/CSSEGISandData/COVID-19,0.65625,413
,,,GAB,1,0,0,,1,1772255,-0.8136401413979657,11.649647050500107,https://github.com/CSSEGISandData/COVID-19,0.65625,414
,,,GTM,2,1,0,,1,15460732,15.773375903990305,-90.2335965784999,https://github.com/CSSEGISandData/COVID-19,0.65625,415
,,,GGY,1,0,0,,1,66502,49.46224599800004,-2.601714647499932,https://github.com/CSSEGISandData/COVID-19,0.65625,416
,,,MRT,1,0,0,,1,19245344,17.606562093000058,8.053466634000088,https://github.com/CSSEGISandData/COVID-19,0.65625,417
,,,RWA,5,0,0,,5,11901484,-1.943601175999916,29.873323404500084,https://github.com/CSSEGISandData/COVID-19,0.65625,418
,,,LCA,2,0,0,,2,164994,13.86609528200006,-60.981353318999936,https://github.com/CSSEGISandData/COVID-19,0.65625,419
,,,VCT,1,0,0,,1,102089,13.257473049000055,-61.19764156799994,https://github.com/CSSEGISandData/COVID-19,0.65625,420
,,,SUR,1,0,0,,1,591919,3.922540270500072,-56.02702432849992,https://github.com/CSSEGISandData/COVID-19,0.65625,421
,,,PSR,0,0,0,,0,4543126,31.87704451700006,34.88061508765307,https://github.com/CSSEGISandData/COVID-19,0.65625,422
,,GU,USA,3,0,0,,3,,20.219303647966534,-74.81395931680615,https://github.com/CSSEGISandData/COVID-19,0.65625,423
,,,KOS,2,0,0,,2,1895250,42.521824239500006,20.90180383250008,https://github.com/CSSEGISandData/COVID-19,0.65625,424
,,,CAF,1,0,0,,1,5625118,6.61864105250006,20.91950301100013,https://github.com/CSSEGISandData/COVID-19,0.65625,425
,,,COG,1,0,0,,1,4954674,-0.6556773869999333,14.870201735054954,https://github.com/CSSEGISandData/COVID-19,0.65625,426
,,,GNQ,1,0,0,,1,778358,2.3796428239493608,9.89327355600011,https://github.com/CSSEGISandData/COVID-19,0.65625,427
,,,UZB,6,0,0,,6,29748859,41.373793538500024,64.48963423650005,https://github.com/CSSEGISandData/COVID-19,0.65625,428
,,,GUF,11,0,0,,11,,3.9339,-53.1258,https://github.com/CSSEGISandData/COVID-19,0.65625,
,,,GUM,3,0,0,,3,167358,13.539679266500059,144.78073164150004,https://github.com/CSSEGISandData/COVID-19,0.65625,429
,,,PRI,3,0,0,,3,3351827,18.225958563000063,-66.44982821899993,https://github.com/CSSEGISandData/COVID-19,0.65625,430
,,,BEN,1,0,0,,1,11038805,9.306569115000109,2.3030941155000306,https://github.com/CSSEGISandData/COVID-19,0.65625,431
,,,GRL,1,0,0,,1,57713,71.81159088750007,-42.211435513499936,https://github.com/CSSEGISandData/COVID-19,0.65625,432
,,,LBR,1,0,0,,1,4689021,6.419949359948774,-9.434906172499936,https://github.com/CSSEGISandData/COVID-19,0.65625,433
,,,MYT,1,0,0,,1,,-12.856052341999913,45.150157097500085,https://github.com/CSSEGISandData/COVID-19,0.65625,434
,,,Republic of the Congo,1,0,0,,1,4954674,-0.6556773869999333,14.870201735054954,https://github.com/CSSEGISandData/COVID-19,0.65625,426
,,,SOM,1,0,0,,1,7531386,5.146407826500052,46.12904176900011,https://github.com/CSSEGISandData/COVID-19,0.65625,435
,,,Tanzania,1,0,0,,1,53950935,-6.362582091999926,34.87894555300008,https://github.com/CSSEGISandData/COVID-19,0.65625,436
,,,The Bahamas,1,0,0,,1,,21.243227533000066,-73.30892915499993,https://github.com/CSSEGISandData/COVID-19,0.65625,437
,,VI,USA,1,0,0,,1,,55.186838891464824,28.674670765279913,https://github.com/CSSEGISandData/COVID-19,0.65625,438
,Zurich,,CHE,270,1,0,0,269,,,,https://raw.githubusercontent.com/openZH/covid_19/master/COVID19_Fallzahlen_Kanton_ZH_total.csv,0.90625,
,,Abruzzo,ITA,176,4,7,,165,1311580,42.28841046055399,13.90075072681885,https://raw.githubusercontent.com/pcm-dpc/COVID-19/master/dati-regioni/dpc-covid19-ita-regioni.csv,0.71875,439
,,Basilicata,ITA,12,0,0,,12,562869,40.51736165566957,16.10092821894685,https://raw.githubusercontent.com/pcm-dpc/COVID-19/master/dati-regioni/dpc-covid19-ita-regioni.csv,0.71875,440
,,P.A. Bolzano,ITA,241,6,0,,235,107436,46.65500433907897,11.419398570635366,https://raw.githubusercontent.com/pcm-dpc/COVID-19/master/dati-regioni/dpc-covid19-ita-regioni.csv,0.71875,441
,,Calabria,ITA,89,1,1,,87,1947131,39.02984011561159,16.418351979942813,https://raw.githubusercontent.com/pcm-dpc/COVID-19/master/dati-regioni/dpc-covid19-ita-regioni.csv,0.71875,442
,,Campania,ITA,400,9,28,,363,5801692,40.74896505776182,14.783939401902451,https://raw.githubusercontent.com/pcm-dpc/COVID-19/master/dati-regioni/dpc-covid19-ita-regioni.csv,0.71875,443
,,Emilia Romagna,ITA,3522,346,88,,3088,4459477,44.43551924350304,10.977418355306853,https://raw.githubusercontent.com/pcm-dpc/COVID-19/master/dati-regioni/dpc-covid19-ita-regioni.csv,0.71875,444
,,Friuli Venezia Giulia,ITA,386,22,18,,346,1215220,46.11416103259626,13.120408018720507,https://raw.githubusercontent.com/pcm-dpc/COVID-19/master/dati-regioni/dpc-covid19-ita-regioni.csv,0.71875,445
,,Lazio,ITA,523,19,32,,472,5879082,41.811776720877134,12.738640304805985,https://raw.githubusercontent.com/pcm-dpc/COVID-19/master/dati-regioni/dpc-covid19-ita-regioni.csv,0.71875,446
,,Liguria,ITA,667,50,42,,575,1550640,44.22635345917788,8.783353306551223,https://raw.githubusercontent.com/pcm-dpc/COVID-19/master/dati-regioni/dpc-covid19-ita-regioni.csv,0.71875,447
,,Lombardia,ITA,14649,1420,2368,,10861,10060574,45.65756679322394,9.96253973345539,https://raw.githubusercontent.com/pcm-dpc/COVID-19/master/dati-regioni/dpc-covid19-ita-regioni.csv,0.71875,448
,,Marche,ITA,1242,57,0,,1185,1525271,43.327895591043244,13.051090223045493,https://raw.githubusercontent.com/pcm-dpc/COVID-19/master/dati-regioni/dpc-covid19-ita-regioni.csv,0.71875,449
,,Molise,ITA,21,1,5,,15,305617,41.716894204537866,14.551257200672993,https://raw.githubusercontent.com/pcm-dpc/COVID-19/master/dati-regioni/dpc-covid19-ita-regioni.csv,0.71875,450
,,Piemonte,ITA,1516,111,0,,1405,4356406,45.2610218282163,7.920205809104651,https://raw.githubusercontent.com/pcm-dpc/COVID-19/master/dati-regioni/dpc-covid19-ita-regioni.csv,0.71875,451
,,Puglia,ITA,230,16,2,,212,4029053,41.010137150757664,16.726699634103944,https://raw.githubusercontent.com/pcm-dpc/COVID-19/master/dati-regioni/dpc-covid19-ita-regioni.csv,0.71875,452
,,Sardegna,ITA,107,2,0,,105,1639591,40.08640349767029,8.980454405390873,https://raw.githubusercontent.com/pcm-dpc/COVID-19/master/dati-regioni/dpc-covid19-ita-regioni.csv,0.71875,453
,,Sicilia,ITA,213,2,8,,203,4999891,37.15296765317062,13.78962610516875,https://raw.githubusercontent.com/pcm-dpc/COVID-19/master/dati-regioni/dpc-covid19-ita-regioni.csv,0.71875,454
,,Toscana,ITA,866,14,11,,841,3729641,43.35572961610775,11.02809014521221,https://raw.githubusercontent.com/pcm-dpc/COVID-19/master/dati-regioni/dpc-covid19-ita-regioni.csv,0.71875,455
,,P.A. Trento,ITA,378,6,5,,367,1072276,46.10760284849263,11.214905976229801,https://raw.githubusercontent.com/pcm-dpc/COVID-19/master/dati-regioni/dpc-covid19-ita-regioni.csv,0.71875,456
,,Umbria,ITA,164,1,4,,159,882015,42.99086726176927,12.578027098494626,https://raw.githubusercontent.com/pcm-dpc/COVID-19/master/dati-regioni/dpc-covid19-ita-regioni.csv,0.71875,457
,,Valle d'Aosta,ITA,105,2,0,,103,125666,45.726711771467265,7.3704153357535205,https://raw.githubusercontent.com/pcm-dpc/COVID-19/master/dati-regioni/dpc-covid19-ita-regioni.csv,0.71875,458
,,Veneto,ITA,2473,69,130,,2274,4905854,45.737146979710815,11.862938179646614,https://raw.githubusercontent.com/pcm-dpc/COVID-19/master/dati-regioni/dpc-covid19-ita-regioni.csv,0.71875,459
,Barking and Dagenham,,GBR,10,,,,10,,51.54832672819592,0.12030826146707341,https://www.arcgis.com/sharing/rest/content/items/b684319181f94875a6879bbc833ca3a6/data,0.34375,460
,Barnet,,GBR,25,,,,25,,51.61140902605567,-0.21207455134947395,https://www.arcgis.com/sharing/rest/content/items/b684319181f94875a6879bbc833ca3a6/data,0.34375,461
,Barnsley,,GBR,4,,,,4,,53.49588354104256,-1.5707457753972278,https://www.arcgis.com/sharing/rest/content/items/b684319181f94875a6879bbc833ca3a6/data,0.34375,462
,Bath and North East Somerset,,GBR,1,,,,1,,51.34663361320065,-2.49667670271765,https://www.arcgis.com/sharing/rest/content/items/b684319181f94875a6879bbc833ca3a6/data,0.34375,463
,Bedford,,GBR,0,,,,0,,52.18762872368663,-0.4537910627573467,https://www.arcgis.com/sharing/rest/content/items/b684319181f94875a6879bbc833ca3a6/data,0.34375,464
,Bexley,,GBR,8,,,,8,,51.45065827116227,0.15247684063368183,https://www.arcgis.com/sharing/rest/content/items/b684319181f94875a6879bbc833ca3a6/data,0.34375,465
,Birmingham,,GBR,15,,,,15,,52.476461290855866,-1.8858483547677736,https://www.arcgis.com/sharing/rest/content/items/b684319181f94875a6879bbc833ca3a6/data,0.34375,466
,Blackburn with Darwen,,GBR,0,,,,0,,53.69625763613098,-2.441111619305815,https://www.arcgis.com/sharing/rest/content/items/b684319181f94875a6879bbc833ca3a6/data,0.34375,467
,Blackpool,,GBR,2,,,,2,,53.83887360262369,-3.00525353831452,https://www.arcgis.com/sharing/rest/content/items/b684319181f94875a6879bbc833ca3a6/data,0.34375,468
,Bolton,,GBR,3,,,,3,,53.58462916755201,-2.4471864488955077,https://www.arcgis.com/sharing/rest/content/items/b684319181f94875a6879bbc833ca3a6/data,0.34375,469
,"Bournemouth, Christchurch and Poole",,GBR,5,,,,5,,,,https://www.arcgis.com/sharing/rest/content/items/b684319181f94875a6879bbc833ca3a6/data,0.34375,
,Bracknell Forest,,GBR,4,,,,4,,51.400511862532426,-0.7675701597850377,https://www.arcgis.com/sharing/rest/content/items/b684319181f94875a6879bbc833ca3a6/data,0.34375,470
,Bradford,,GBR,7,,,,7,,53.84824612590796,-1.812523939378309,https://www.arcgis.com/sharing/rest/content/items/b684319181f94875a6879bbc833ca3a6/data,0.34375,471
,Brent,,GBR,20,,,,20,,51.56151713725606,-0.2522658957045394,https://www.arcgis.com/sharing/rest/content/items/b684319181f94875a6879bbc833ca3a6/data,0.34375,472
,Brighton and Hove,,GBR,10,,,,10,,50.83370545060512,-0.0956836538794903,https://www.arcgis.com/sharing/rest/content/items/b684319181f94875a6879bbc833ca3a6/data,0.34375,473
,"Bristol, City of",,GBR,7,,,,7,,,,https://www.arcgis.com/sharing/rest/content/items/b684319181f94875a6879bbc833ca3a6/data,0.34375,
,Bromley,,GBR,11,,,,11,,51.36398397443085,0.044925265988212004,https://www.arcgis.com/sharing/rest/content/items/b684319181f94875a6879bbc833ca3a6/data,0.34375,474
,Buckinghamshire,,GBR,12,,,,12,781167,51.77382975993544,-0.8048032292356311,https://www.arcgis.com/sharing/rest/content/items/b684319181f94875a6879bbc833ca3a6/data,0.34375,475
,Bury,,GBR,6,,,,6,,53.584358023753765,-2.313881069755581,https://www.arcgis.com/sharing/rest/content/items/b684319181f94875a6879bbc833ca3a6/data,0.34375,476
,Calderdale,,GBR,2,,,,2,,53.754367784295795,-1.9539011830931372,https://www.arcgis.com/sharing/rest/content/items/b684319181f94875a6879bbc833ca3a6/data,0.34375,477
,Cambridgeshire,,GBR,12,,,,12,830279,52.3633803375825,0.02921563059686605,https://www.arcgis.com/sharing/rest/content/items/b684319181f94875a6879bbc833ca3a6/data,0.34375,478
,Camden,,GBR,22,,,,22,,51.534399929962774,-0.15101884604291627,https://www.arcgis.com/sharing/rest/content/items/b684319181f94875a6879bbc833ca3a6/data,0.34375,479
,Central Bedfordshire,,GBR,4,,,,4,,52.005637315759486,-0.40933641209576876,https://www.arcgis.com/sharing/rest/content/items/b684319181f94875a6879bbc833ca3a6/data,0.34375,480
,Cheshire East,,GBR,0,,,,0,,53.16374492069153,-2.3151145353575373,https://www.arcgis.com/sharing/rest/content/items/b684319181f94875a6879bbc833ca3a6/data,0.34375,481
,Cheshire West and Chester,,GBR,4,,,,4,,53.1486968423354,-2.753126456920455,https://www.arcgis.com/sharing/rest/content/items/b684319181f94875a6879bbc833ca3a6/data,0.34375,482
,Cornwall and Isles of Scilly,,GBR,8,,,,8,,,,https://www.arcgis.com/sharing/rest/content/items/b684319181f94875a6879bbc833ca3a6/data,0.34375,
,County Durham,,GBR,1,,,,1,,54.67953095184194,-1.799640245530711,https://www.arcgis.com/sharing/rest/content/items/b684319181f94875a6879bbc833ca3a6/data,0.34375,483
,Coventry,,GBR,3,,,,3,,52.397590135426384,-1.547535670934451,https://www.arcgis.com/sharing/rest/content/items/b684319181f94875a6879bbc833ca3a6/data,0.34375,484
,Croydon,,GBR,4,,,,4,,51.366968289205175,-0.07526119659695496,https://www.arcgis.com/sharing/rest/content/items/b684319181f94875a6879bbc833ca3a6/data,0.34375,485
,Cumbria,,GBR,10,,,,10,497874,54.65147772950007,-2.894685635497069,https://www.arcgis.com/sharing/rest/content/items/b684319181f94875a6879bbc833ca3a6/data,0.34375,486
,Darlington,,GBR,2,,,,2,,54.5325890167197,-1.5471868553890715,https://www.arcgis.com/sharing/rest/content/items/b684319181f94875a6879bbc833ca3a6/data,0.34375,487
,Derby,,GBR,4,,,,4,,52.889821072034806,-1.473741726249699,https://www.arcgis.com/sharing/rest/content/items/b684319181f94875a6879bbc833ca3a6/data,0.34375,488
,Derbyshire,,GBR,12,,,,12,1032267,53.10898082160762,-1.596395738322684,https://www.arcgis.com/sharing/rest/content/items/b684319181f94875a6879bbc833ca3a6/data,0.34375,489
,Devon,,GBR,20,,,,20,1159832,50.73217421134865,-3.7468521474031253,https://www.arcgis.com/sharing/rest/content/items/b684319181f94875a6879bbc833ca3a6/data,0.34375,490
,Doncaster,,GBR,2,,,,2,,53.51311636043167,-1.1025886705806727,https://www.arcgis.com/sharing/rest/content/items/b684319181f94875a6879bbc833ca3a6/data,0.34375,491
,Dorset,,GBR,2,,,,2,759768,50.83684499757297,-2.3107224188537714,https://www.arcgis.com/sharing/rest/content/items/b684319181f94875a6879bbc833ca3a6/data,0.34375,492
,Dudley,,GBR,6,,,,6,,52.49018902145616,-2.089965285219762,https://www.arcgis.com/sharing/rest/content/items/b684319181f94875a6879bbc833ca3a6/data,0.34375,493
,Ealing,,GBR,18,,,,18,,51.52145498321087,-0.31465226938672686,https://www.arcgis.com/sharing/rest/content/items/b684319181f94875a6879bbc833ca3a6/data,0.34375,494
,East Riding of Yorkshire,,GBR,4,,,,4,594825,53.88757670754899,-0.4702299669435206,https://www.arcgis.com/sharing/rest/content/items/b684319181f94875a6879bbc833ca3a6/data,0.34375,495
,East Sussex,,GBR,2,,,,2,820842,50.94161367390575,0.3705739670149626,https://www.arcgis.com/sharing/rest/content/items/b684319181f94875a6879bbc833ca3a6/data,0.34375,496
,Enfield,,GBR,8,,,,8,,51.6391351386757,-0.08400660437129659,https://www.arcgis.com/sharing/rest/content/items/b684319181f94875a6879bbc833ca3a6/data,0.34375,497
,Essex,,GBR,20,,,,20,1773154,51.801330145419854,0.6384996882008807,https://www.arcgis.com/sharing/rest/content/items/b684319181f94875a6879bbc833ca3a6/data,0.34375,498
,Gateshead,,GBR,1,,,,1,,54.94435801006409,-1.6728933342100163,https://www.arcgis.com/sharing/rest/content/items/b684319181f94875a6879bbc833ca3a6/data,0.34375,499
,Gloucestershire,,GBR,6,,,,6,882888,51.84146129050612,-2.1589416167073807,https://www.arcgis.com/sharing/rest/content/items/b684319181f94875a6879bbc833ca3a6/data,0.34375,500
,Greenwich,,GBR,18,,,,18,,51.467168891331255,0.04868472621913611,https://www.arcgis.com/sharing/rest/content/items/b684319181f94875a6879bbc833ca3a6/data,0.34375,501
,Hackney and City of London,,GBR,20,,,,20,,,,https://www.arcgis.com/sharing/rest/content/items/b684319181f94875a6879bbc833ca3a6/data,0.34375,
,Halton,,GBR,0,,,,0,,53.360951641505125,-3.055812369847803,https://www.arcgis.com/sharing/rest/content/items/b684319181f94875a6879bbc833ca3a6/data,0.34375,502
,Hammersmith and Fulham,,GBR,21,,,,21,,51.49955709528368,-0.2078500022258254,https://www.arcgis.com/sharing/rest/content/items/b684319181f94875a6879bbc833ca3a6/data,0.34375,503
,Hampshire,,GBR,55,,,,55,1800511,51.05528290387548,-1.3405973986010906,https://www.arcgis.com/sharing/rest/content/items/b684319181f94875a6879bbc833ca3a6/data,0.34375,504
,Haringey,,GBR,16,,,,16,,51.583918870809214,-0.09633226132478967,https://www.arcgis.com/sharing/rest/content/items/b684319181f94875a6879bbc833ca3a6/data,0.34375,505
,Harrow,,GBR,14,,,,14,,51.593362738849294,-0.3332945418096642,https://www.arcgis.com/sharing/rest/content/items/b684319181f94875a6879bbc833ca3a6/data,0.34375,506
,Hartlepool,,GBR,0,,,,0,,54.666020093800526,-1.290542151179023,https://www.arcgis.com/sharing/rest/content/items/b684319181f94875a6879bbc833ca3a6/data,0.34375,507
,Havering,,GBR,5,,,,5,,51.55322306998866,0.23417727985756187,https://www.arcgis.com/sharing/rest/content/items/b684319181f94875a6879bbc833ca3a6/data,0.34375,508
,"Herefordshire, County of",,GBR,1,,,,1,,,,https://www.arcgis.com/sharing/rest/content/items/b684319181f94875a6879bbc833ca3a6/data,0.34375,
,Hertfordshire,,GBR,29,,,,29,1154766,51.83029918091245,-0.25780819354329765,https://www.arcgis.com/sharing/rest/content/items/b684319181f94875a6879bbc833ca3a6/data,0.34375,509
,Hillingdon,,GBR,13,,,,13,,51.5343224151473,-0.43250037279398157,https://www.arcgis.com/sharing/rest/content/items/b684319181f94875a6879bbc833ca3a6/data,0.34375,510
,Hounslow,,GBR,12,,,,12,,51.454017239454004,-0.3390693831954934,https://www.arcgis.com/sharing/rest/content/items/b684319181f94875a6879bbc833ca3a6/data,0.34375,511
,Isle of Wight,,GBR,1,,,,1,139105,50.68117910350006,-1.2943416004999335,https://www.arcgis.com/sharing/rest/content/items/b684319181f94875a6879bbc833ca3a6/data,0.34375,512
,Islington,,GBR,11,,,,11,,51.54380504037027,-0.1091867740503858,https://www.arcgis.com/sharing/rest/content/items/b684319181f94875a6879bbc833ca3a6/data,0.34375,513
,Kensington and Chelsea,,GBR,43,,,,43,,51.49734792776462,-0.17697333470164267,https://www.arcgis.com/sharing/rest/content/items/b684319181f94875a6879bbc833ca3a6/data,0.34375,514
,Kent,,GBR,12,,,,12,1784369,51.20639796273913,0.7391297744358951,https://www.arcgis.com/sharing/rest/content/items/b684319181f94875a6879bbc833ca3a6/data,0.34375,515
,"Kingston upon Hull, City of",,GBR,1,,,,1,,,,https://www.arcgis.com/sharing/rest/content/items/b684319181f94875a6879bbc833ca3a6/data,0.34375,
,Kingston upon Thames,,GBR,2,,,,2,,51.403012600601016,-0.2657405251551097,https://www.arcgis.com/sharing/rest/content/items/b684319181f94875a6879bbc833ca3a6/data,0.34375,516
,Kirklees,,GBR,2,,,,2,,53.64010463801861,-1.8024297176073958,https://www.arcgis.com/sharing/rest/content/items/b684319181f94875a6879bbc833ca3a6/data,0.34375,517
,Knowsley,,GBR,0,,,,0,,53.42208175625544,-2.8437495108312874,https://www.arcgis.com/sharing/rest/content/items/b684319181f94875a6879bbc833ca3a6/data,0.34375,518
,Lambeth,,GBR,26,,,,26,,51.45665273733394,-0.10314063148496189,https://www.arcgis.com/sharing/rest/content/items/b684319181f94875a6879bbc833ca3a6/data,0.34375,519
,Lancashire,,GBR,8,,,,8,1471979,53.86064036695933,-2.5321267362598974,https://www.arcgis.com/sharing/rest/content/items/b684319181f94875a6879bbc833ca3a6/data,0.34375,520
,Leeds,,GBR,14,,,,14,,53.80972938979946,-1.5114138447231653,https://www.arcgis.com/sharing/rest/content/items/b684319181f94875a6879bbc833ca3a6/data,0.34375,521
,Leicester,,GBR,1,,,,1,,52.60678925257193,-1.1258430644059274,https://www.arcgis.com/sharing/rest/content/items/b684319181f94875a6879bbc833ca3a6/data,0.34375,522
,Leicestershire,,GBR,5,,,,5,1005558,52.67122976369262,-1.1170709903839224,https://www.arcgis.com/sharing/rest/content/items/b684319181f94875a6879bbc833ca3a6/data,0.34375,523
,Lewisham,,GBR,17,,,,17,,51.45485698096485,-0.020626288272609372,https://www.arcgis.com/sharing/rest/content/items/b684319181f94875a6879bbc833ca3a6/data,0.34375,524
,Lincolnshire,,GBR,4,,,,4,1060567,53.12138316510095,-0.22751105405745875,https://www.arcgis.com/sharing/rest/content/items/b684319181f94875a6879bbc833ca3a6/data,0.34375,525
,Liverpool,,GBR,6,,,,6,,53.412221738037374,-2.9620655980152155,https://www.arcgis.com/sharing/rest/content/items/b684319181f94875a6879bbc833ca3a6/data,0.34375,526
,Luton,,GBR,3,,,,3,,51.88424937600786,-0.3940014311211826,https://www.arcgis.com/sharing/rest/content/items/b684319181f94875a6879bbc833ca3a6/data,0.34375,527
,Manchester,,GBR,8,,,,8,,53.44718915755354,-2.2513235753227434,https://www.arcgis.com/sharing/rest/content/items/b684319181f94875a6879bbc833ca3a6/data,0.34375,528
,Medway,,GBR,2,,,,2,,51.41229721683642,0.5708690730683657,https://www.arcgis.com/sharing/rest/content/items/b684319181f94875a6879bbc833ca3a6/data,0.34375,529
,Merton,,GBR,12,,,,12,,51.40890371353552,-0.18562913672528225,https://www.arcgis.com/sharing/rest/content/items/b684319181f94875a6879bbc833ca3a6/data,0.34375,530
,Middlesbrough,,GBR,0,,,,0,,54.531012885136505,-1.2151916162001442,https://www.arcgis.com/sharing/rest/content/items/b684319181f94875a6879bbc833ca3a6/data,0.34375,531
,Milton Keynes,,GBR,3,,,,3,,52.070181179218025,-0.7260095895209417,https://www.arcgis.com/sharing/rest/content/items/b684319181f94875a6879bbc833ca3a6/data,0.34375,532
,Newcastle upon Tyne,,GBR,5,,,,5,,55.01077984411447,-1.6197237394090394,https://www.arcgis.com/sharing/rest/content/items/b684319181f94875a6879bbc833ca3a6/data,0.34375,533
,Newham,,GBR,3,,,,3,,51.52600250990787,0.042922804493827016,https://www.arcgis.com/sharing/rest/content/items/b684319181f94875a6879bbc833ca3a6/data,0.34375,534
,Norfolk,,GBR,2,,,,2,877710,52.66413290015265,0.9523097061513965,https://www.arcgis.com/sharing/rest/content/items/b684319181f94875a6879bbc833ca3a6/data,0.34375,535
,North East Lincolnshire,,GBR,0,,,,0,,53.553496852445065,-0.1301505615609193,https://www.arcgis.com/sharing/rest/content/items/b684319181f94875a6879bbc833ca3a6/data,0.34375,536
,North Lincolnshire,,GBR,1,,,,1,,53.58327667878578,-0.558919283936299,https://www.arcgis.com/sharing/rest/content/items/b684319181f94875a6879bbc833ca3a6/data,0.34375,537
,North Somerset,,GBR,2,,,,2,,51.40801629048416,-2.8128399318404718,https://www.arcgis.com/sharing/rest/content/items/b684319181f94875a6879bbc833ca3a6/data,0.34375,538
,North Tyneside,,GBR,3,,,,3,,55.026428262859,-1.5311261769496696,https://www.arcgis.com/sharing/rest/content/items/b684319181f94875a6879bbc833ca3a6/data,0.34375,539
,North Yorkshire,,GBR,6,,,,6,1080136,54.08903304402421,-1.3737297140511806,https://www.arcgis.com/sharing/rest/content/items/b684319181f94875a6879bbc833ca3a6/data,0.34375,540
,Northamptonshire,,GBR,12,,,,12,714392,52.30807363568971,-0.8284193587164452,https://www.arcgis.com/sharing/rest/content/items/b684319181f94875a6879bbc833ca3a6/data,0.34375,541
,Northumberland,,GBR,0,,,,0,315987,55.2943535425097,-2.0702957224004597,https://www.arcgis.com/sharing/rest/content/items/b684319181f94875a6879bbc833ca3a6/data,0.34375,542
,Nottingham,,GBR,10,,,,10,,52.93211823202077,-1.1664349024987644,https://www.arcgis.com/sharing/rest/content/items/b684319181f94875a6879bbc833ca3a6/data,0.34375,543
,Nottinghamshire,,GBR,14,,,,14,1115658,53.12984518121013,-1.0091835185045852,https://www.arcgis.com/sharing/rest/content/items/b684319181f94875a6879bbc833ca3a6/data,0.34375,544
,Oldham,,GBR,10,,,,10,,53.54174510415322,-2.0505382180143386,https://www.arcgis.com/sharing/rest/content/items/b684319181f94875a6879bbc833ca3a6/data,0.34375,545
,Oxfordshire,,GBR,23,,,,23,672516,51.808104153383965,-1.2839083519388907,https://www.arcgis.com/sharing/rest/content/items/b684319181f94875a6879bbc833ca3a6/data,0.34375,546
,Peterborough,,GBR,1,,,,1,,52.58384491665956,-0.27010718424918423,https://www.arcgis.com/sharing/rest/content/items/b684319181f94875a6879bbc833ca3a6/data,0.34375,547
,Plymouth,,GBR,2,,,,2,,50.386921002852894,-4.114404709437087,https://www.arcgis.com/sharing/rest/content/items/b684319181f94875a6879bbc833ca3a6/data,0.34375,548
,Portsmouth,,GBR,1,,,,1,,50.81639231950007,-1.0414932934999115,https://www.arcgis.com/sharing/rest/content/items/b684319181f94875a6879bbc833ca3a6/data,0.34375,549
,Reading,,GBR,3,,,,3,,51.45051852416054,-1.0228260967969334,https://www.arcgis.com/sharing/rest/content/items/b684319181f94875a6879bbc833ca3a6/data,0.34375,550
,Redbridge,,GBR,2,,,,2,,51.58426768725394,0.08813968275015327,https://www.arcgis.com/sharing/rest/content/items/b684319181f94875a6879bbc833ca3a6/data,0.34375,551
,Redcar and Cleveland,,GBR,0,,,,0,,54.56022797297001,-0.9987577985335747,https://www.arcgis.com/sharing/rest/content/items/b684319181f94875a6879bbc833ca3a6/data,0.34375,552
,Richmond upon Thames,,GBR,2,,,,2,,51.43577545852057,-0.2985421411569007,https://www.arcgis.com/sharing/rest/content/items/b684319181f94875a6879bbc833ca3a6/data,0.34375,553
,Rochdale,,GBR,4,,,,4,,53.611113383875534,-2.1230948556430747,https://www.arcgis.com/sharing/rest/content/items/b684319181f94875a6879bbc833ca3a6/data,0.34375,554
,Rotherham,,GBR,2,,,,2,,53.38535818403295,-1.2620607199262963,https://www.arcgis.com/sharing/rest/content/items/b684319181f94875a6879bbc833ca3a6/data,0.34375,555
,Rutland,,GBR,0,,,,0,38022,52.62709809060436,-0.6102156235521932,https://www.arcgis.com/sharing/rest/content/items/b684319181f94875a6879bbc833ca3a6/data,0.34375,556
,Salford,,GBR,1,,,,1,,53.478487549560725,-2.4083187582041603,https://www.arcgis.com/sharing/rest/content/items/b684319181f94875a6879bbc833ca3a6/data,0.34375,557
,Sandwell,,GBR,4,,,,4,,52.51594821064137,-1.990508552377804,https://www.arcgis.com/sharing/rest/content/items/b684319181f94875a6879bbc833ca3a6/data,0.34375,558
,Sefton,,GBR,1,,,,1,,53.59523329742909,-2.9978000018707007,https://www.arcgis.com/sharing/rest/content/items/b684319181f94875a6879bbc833ca3a6/data,0.34375,559
,Sheffield,,GBR,15,,,,15,,53.40286469230168,-1.604896511165066,https://www.arcgis.com/sharing/rest/content/items/b684319181f94875a6879bbc833ca3a6/data,0.34375,560
,Shropshire,,GBR,2,,,,2,479561,52.660881557637765,-2.7153846879136267,https://www.arcgis.com/sharing/rest/content/items/b684319181f94875a6879bbc833ca3a6/data,0.34375,561
,Slough,,GBR,2,,,,2,,51.469675198001966,-0.5744942897296994,https://www.arcgis.com/sharing/rest/content/items/b684319181f94875a6879bbc833ca3a6/data,0.34375,562
,Solihull,,GBR,1,,,,1,,52.42412598362722,-1.7274030960260518,https://www.arcgis.com/sharing/rest/content/items/b684319181f94875a6879bbc833ca3a6/data,0.34375,563
,Somerset,,GBR,3,,,,3,931784,51.07369161647489,-2.975872259896903,https://www.arcgis.com/sharing/rest/content/items/b684319181f94875a6879bbc833ca3a6/data,0.34375,564
,South Gloucestershire,,GBR,5,,,,5,,51.54588758329207,-2.475195048114843,https://www.arcgis.com/sharing/rest/content/items/b684319181f94875a6879bbc833ca3a6/data,0.34375,565
,South Tyneside,,GBR,0,,,,0,,54.958685614000075,-1.4462816066733524,https://www.arcgis.com/sharing/rest/content/items/b684319181f94875a6879bbc833ca3a6/data,0.34375,566
,Southampton,,GBR,1,,,,1,,50.88910228093991,-1.3789863545366359,https://www.arcgis.com/sharing/rest/content/items/b684319181f94875a6879bbc833ca3a6/data,0.34375,567
,Southend-on-Sea,,GBR,3,,,,3,,51.55627981216796,0.7374681475586442,https://www.arcgis.com/sharing/rest/content/items/b684319181f94875a6879bbc833ca3a6/data,0.34375,568
,Southwark,,GBR,33,,,,33,,51.464455878635846,-0.06552018850590002,https://www.arcgis.com/sharing/rest/content/items/b684319181f94875a6879bbc833ca3a6/data,0.34375,569
,St. Helens,,GBR,1,,,,1,,,,https://www.arcgis.com/sharing/rest/content/items/b684319181f94875a6879bbc833ca3a6/data,0.34375,
,Staffordshire,,GBR,7,,,,7,1111192,52.81512278888559,-2.014742295320673,https://www.arcgis.com/sharing/rest/content/items/b684319181f94875a6879bbc833ca3a6/data,0.34375,570
,Stockport,,GBR,3,,,,3,,53.39109497375401,-2.1360268822847956,https://www.arcgis.com/sharing/rest/content/items/b684319181f94875a6879bbc833ca3a6/data,0.34375,571
,Stockton-on-Tees,,GBR,2,,,,2,,54.55390554510478,-1.3218388537300996,https://www.arcgis.com/sharing/rest/content/items/b684319181f94875a6879bbc833ca3a6/data,0.34375,572
,Stoke-on-Trent,,GBR,0,,,,0,,53.03867503507479,-2.1709084745964162,https://www.arcgis.com/sharing/rest/content/items/b684319181f94875a6879bbc833ca3a6/data,0.34375,573
,Suffolk,,GBR,3,,,,3,738512,52.236436265000066,1.0804205660576542,https://www.arcgis.com/sharing/rest/content/items/b684319181f94875a6879bbc833ca3a6/data,0.34375,574
,Sunderland,,GBR,1,,,,1,,54.86062788461916,-1.459068324274273,https://www.arcgis.com/sharing/rest/content/items/b684319181f94875a6879bbc833ca3a6/data,0.34375,575
,Surrey,,GBR,25,,,,25,1161256,51.27844656061026,-0.38864000088534567,https://www.arcgis.com/sharing/rest/content/items/b684319181f94875a6879bbc833ca3a6/data,0.34375,576
,Sutton,,GBR,11,,,,11,,51.35340322572827,-0.1872181866200151,https://www.arcgis.com/sharing/rest/content/items/b684319181f94875a6879bbc833ca3a6/data,0.34375,577
,Swindon,,GBR,2,,,,2,,51.56933319821849,-1.7075775824394839,https://www.arcgis.com/sharing/rest/content/items/b684319181f94875a6879bbc833ca3a6/data,0.34375,578
,Tameside,,GBR,3,,,,3,,53.46045083518786,-2.1016202588178885,https://www.arcgis.com/sharing/rest/content/items/b684319181f94875a6879bbc833ca3a6/data,0.34375,579
,Telford and Wrekin,,GBR,0,,,,0,,52.71430206958482,-2.4850753440019275,https://www.arcgis.com/sharing/rest/content/items/b684319181f94875a6879bbc833ca3a6/data,0.34375,580
,Thurrock,,GBR,1,,,,1,,51.505512803373136,0.3850030914694855,https://www.arcgis.com/sharing/rest/content/items/b684319181f94875a6879bbc833ca3a6/data,0.34375,581
,Torbay,,GBR,7,,,,7,,50.44218552834638,-3.5739260030656315,https://www.arcgis.com/sharing/rest/content/items/b684319181f94875a6879bbc833ca3a6/data,0.34375,582
,Tower Hamlets,,GBR,12,,,,12,,51.516080633764204,-0.02629777642127351,https://www.arcgis.com/sharing/rest/content/items/b684319181f94875a6879bbc833ca3a6/data,0.34375,583
,Trafford,,GBR,7,,,,7,,53.40615211592737,-2.3816966416367222,https://www.arcgis.com/sharing/rest/content/items/b684319181f94875a6879bbc833ca3a6/data,0.34375,584
,Wakefield,,GBR,3,,,,3,,53.6560275336937,-1.4101797147220907,https://www.arcgis.com/sharing/rest/content/items/b684319181f94875a6879bbc833ca3a6/data,0.34375,585
,Walsall,,GBR,11,,,,11,,52.598079007839914,-1.955641203978388,https://www.arcgis.com/sharing/rest/content/items/b684319181f94875a6879bbc833ca3a6/data,0.34375,586
,Waltham Forest,,GBR,4,,,,4,,51.599512234202194,-0.012551846240711484,https://www.arcgis.com/sharing/rest/content/items/b684319181f94875a6879bbc833ca3a6/data,0.34375,587
,Wandsworth,,GBR,20,,,,20,,51.45489573859743,-0.1861200631404074,https://www.arcgis.com/sharing/rest/content/items/b684319181f94875a6879bbc833ca3a6/data,0.34375,588
,Warrington,,GBR,1,,,,1,,53.387232571276115,-2.5546834985446196,https://www.arcgis.com/sharing/rest/content/items/b684319181f94875a6879bbc833ca3a6/data,0.34375,589
,Warwickshire,,GBR,4,,,,4,551594,52.33041077363828,-1.5655449083208737,https://www.arcgis.com/sharing/rest/content/items/b684319181f94875a6879bbc833ca3a6/data,0.34375,590
,West Berkshire,,GBR,3,,,,3,,51.44120148436099,-1.3082479518315324,https://www.arcgis.com/sharing/rest/content/items/b684319181f94875a6879bbc833ca3a6/data,0.34375,591
,West Sussex,,GBR,5,,,,5,828398,50.94804494863297,-0.4655862087365392,https://www.arcgis.com/sharing/rest/content/items/b684319181f94875a6879bbc833ca3a6/data,0.34375,592
,Westminster,,GBR,37,,,,37,,51.50601664944878,-0.16165127203859697,https://www.arcgis.com/sharing/rest/content/items/b684319181f94875a6879bbc833ca3a6/data,0.34375,593
,Wigan,,GBR,3,,,,3,,53.51763804825728,-2.6185297304627113,https://www.arcgis.com/sharing/rest/content/items/b684319181f94875a6879bbc833ca3a6/data,0.34375,594
,Wiltshire,,GBR,7,,,,7,698942,51.309930426547936,-1.9179652566412813,https://www.arcgis.com/sharing/rest/content/items/b684319181f94875a6879bbc833ca3a6/data,0.34375,595
,Windsor and Maidenhead,,GBR,6,,,,6,,51.464455878186186,-0.7110234240917634,https://www.arcgis.com/sharing/rest/content/items/b684319181f94875a6879bbc833ca3a6/data,0.34375,596
,Wirral,,GBR,5,,,,5,,,,https://www.arcgis.com/sharing/rest/content/items/b684319181f94875a6879bbc833ca3a6/data,0.34375,
,Wokingham,,GBR,6,,,,6,,51.44908526202519,-0.9407575803480484,https://www.arcgis.com/sharing/rest/content/items/b684319181f94875a6879bbc833ca3a6/data,0.34375,597
,Wolverhampton,,GBR,11,,,,11,,52.58091227872865,-2.088510402932741,https://www.arcgis.com/sharing/rest/content/items/b684319181f94875a6879bbc833ca3a6/data,0.34375,598
,Worcestershire,,GBR,3,,,,3,575421,52.20434611687975,-2.1993563498157016,https://www.arcgis.com/sharing/rest/content/items/b684319181f94875a6879bbc833ca3a6/data,0.34375,599
,York,,GBR,4,,,,4,,53.94391693776643,-1.0799931502137383,https://www.arcgis.com/sharing/rest/content/items/b684319181f94875a6879bbc833ca3a6/data,0.34375,600
,Copiah County,MS,USA,2,,,,2,28543,31.867576,-90.42352199999999,"https://msdh.ms.gov/msdhsite/_static/14,0,420.html",0.4375,601
,Forrest County,MS,USA,3,,,,3,75036,31.1719645,-89.2947915,"https://msdh.ms.gov/msdhsite/_static/14,0,420.html",0.4375,602
,Hancock County,MS,USA,1,,,,1,47334,30.4111555,-89.506062,"https://msdh.ms.gov/msdhsite/_static/14,0,420.html",0.4375,603
,Hinds County,MS,USA,2,,,,2,237085,32.3110675,-90.3971595,"https://msdh.ms.gov/msdhsite/_static/14,0,420.html",0.4375,604
,Leflore County,MS,USA,1,,,,1,28919,33.523355,-90.277601,"https://msdh.ms.gov/msdhsite/_static/14,0,420.html",0.4375,605
,Monroe County,MS,USA,1,,,,1,35564,33.8697745,-88.4618815,"https://msdh.ms.gov/msdhsite/_static/14,0,420.html",0.4375,606
,Pearl River County,MS,USA,2,,,,2,55387,30.7364495,-89.596482,"https://msdh.ms.gov/msdhsite/_static/14,0,420.html",0.4375,607
,Total County,MS,USA,12,,,,12,,,,"https://msdh.ms.gov/msdhsite/_static/14,0,420.html",0.4375,
,,MS,USA,24,,,,24,2976149,-20.91221119876881,28.88710896780958,"https://msdh.ms.gov/msdhsite/_static/14,0,420.html",0.3125,608
,,DC,USA,17,,,120,17,705749,38.899451555326564,-77.0145477695639,https://coronavirus.dc.gov/page/coronavirus-data,0.40625,609
,Baldwin County,AL,USA,1,,,,1,218022,30.765086,-87.69793150000001,http://www.alabamapublichealth.gov/infectiousdiseases/2019-coronavirus.html,0.40625,610
,Elmore County,AL,USA,1,,,,1,81887,32.5876855,-86.13298,http://www.alabamapublichealth.gov/infectiousdiseases/2019-coronavirus.html,0.40625,611
,Lee County,AL,USA,1,,,,1,163941,32.578877500000004,-85.348772,http://www.alabamapublichealth.gov/infectiousdiseases/2019-coronavirus.html,0.40625,612
,Jefferson County,AL,USA,17,,,,17,659300,33.544622000000004,-86.92924049999999,http://www.alabamapublichealth.gov/infectiousdiseases/2019-coronavirus.html,0.40625,613
,Limestone County,AL,USA,1,,,,1,96174,34.774907,-87.030965,http://www.alabamapublichealth.gov/infectiousdiseases/2019-coronavirus.html,0.40625,614
,Montgomery County,AL,USA,2,,,,2,225763,32.2330785,-86.2080335,http://www.alabamapublichealth.gov/infectiousdiseases/2019-coronavirus.html,0.40625,615
,Shelby County,AL,USA,3,,,,3,215707,33.2828065,-86.6839795,http://www.alabamapublichealth.gov/infectiousdiseases/2019-coronavirus.html,0.40625,616
,Tuscaloosa County,AL,USA,3,,,,3,208911,33.306606,-87.4532105,http://www.alabamapublichealth.gov/infectiousdiseases/2019-coronavirus.html,0.40625,617
,,AL,USA,29,,,,29,4903185,10.447463789112518,-84.7976370213814,http://www.alabamapublichealth.gov/infectiousdiseases/2019-coronavirus.html,0.28125,618
,,CO,USA,160,,,1216,160,5758736,45.94117645058273,9.174864674246866,https://docs.google.com/document/d/e/2PACX-1vRSxDeeJEaDxir0cCd9Sfji8ZPKzNaCPZnvRCbG63Oa1ztz4B4r7xG_wsoC9ucd_ei3--Pz7UD50yQD/pub,0.40625,619
,Clackamas County,OR,USA,1,,,,1,416075,45.1737,-122.26009400000001,https://www.oregon.gov/oha/PH/DISEASESCONDITIONS/DISEASESAZ/Pages/emerging-respiratory-infections.aspx,0.4375,620
,Deschutes County,OR,USA,4,,,,4,191996,44.001645499999995,-120.94952,https://www.oregon.gov/oha/PH/DISEASESCONDITIONS/DISEASESAZ/Pages/emerging-respiratory-infections.aspx,0.4375,621
,Douglas County,OR,USA,1,,,,1,110283,43.3222345,-123.0963585,https://www.oregon.gov/oha/PH/DISEASESCONDITIONS/DISEASESAZ/Pages/emerging-respiratory-infections.aspx,0.4375,622
,Jackson County,OR,USA,2,,,,2,219564,42.4995805,-122.756742,https://www.oregon.gov/oha/PH/DISEASESCONDITIONS/DISEASESAZ/Pages/emerging-respiratory-infections.aspx,0.4375,623
,Klamath County,OR,USA,1,,,,1,67653,42.804975999999996,-121.58491599999999,https://www.oregon.gov/oha/PH/DISEASESCONDITIONS/DISEASESAZ/Pages/emerging-respiratory-infections.aspx,0.4375,624
,Linn County,OR,USA,10,,,,10,127335,44.496468,-122.5272075,https://www.oregon.gov/oha/PH/DISEASESCONDITIONS/DISEASESAZ/Pages/emerging-respiratory-infections.aspx,0.4375,625
,Marion County,OR,USA,2,,,,2,346868,44.984239,-122.4575375,https://www.oregon.gov/oha/PH/DISEASESCONDITIONS/DISEASESAZ/Pages/emerging-respiratory-infections.aspx,0.4375,626
,Multnomah County,OR,USA,1,,,,1,811880,45.580658,-122.374808,https://www.oregon.gov/oha/PH/DISEASESCONDITIONS/DISEASESAZ/Pages/emerging-respiratory-infections.aspx,0.4375,627
,Polk County,OR,USA,1,,,,1,85234,44.8977695,-123.38289850000001,https://www.oregon.gov/oha/PH/DISEASESCONDITIONS/DISEASESAZ/Pages/emerging-respiratory-infections.aspx,0.4375,628
,Umatilla County,OR,USA,2,,,,2,77516,45.4984405,-118.7037805,https://www.oregon.gov/oha/PH/DISEASESCONDITIONS/DISEASESAZ/Pages/emerging-respiratory-infections.aspx,0.4375,629
,Washington County,OR,USA,13,,,,13,597695,45.5483985,-123.114875,https://www.oregon.gov/oha/PH/DISEASESCONDITIONS/DISEASESAZ/Pages/emerging-respiratory-infections.aspx,0.4375,630
,Yamhill County,OR,USA,1,,,,1,107002,45.254474,-123.31725850000001,https://www.oregon.gov/oha/PH/DISEASESCONDITIONS/DISEASESAZ/Pages/emerging-respiratory-infections.aspx,0.4375,631
,,OR,USA,39,,,,39,4217737,-18.613514702841258,-67.60700517144237,https://www.oregon.gov/oha/PH/DISEASESCONDITIONS/DISEASESAZ/Pages/emerging-respiratory-infections.aspx,0.3125,632
,De Soto Parish,LA,USA,0,0,,,0,27436,32.0948115,-93.699102,https://opendata.arcgis.com/datasets/cba425c2e5b8421c88827dc0ec8c663b_0.csv,0.59375,633
,St. John the Baptist Parish,LA,USA,1,0,,,1,43184,30.0930385,-90.4833525,https://opendata.arcgis.com/datasets/cba425c2e5b8421c88827dc0ec8c663b_0.csv,0.59375,634
,Lafourche Parish,LA,USA,2,0,,,2,98115,29.4895455,-90.50821049999999,https://opendata.arcgis.com/datasets/cba425c2e5b8421c88827dc0ec8c663b_0.csv,0.59375,635
,Orleans Parish,LA,USA,94,0,,,94,391006,30.033868,-89.88147699999999,https://opendata.arcgis.com/datasets/cba425c2e5b8421c88827dc0ec8c663b_0.csv,0.59375,636
,Sabine Parish,LA,USA,0,0,,,0,24032,31.505406999999998,-93.557699,https://opendata.arcgis.com/datasets/cba425c2e5b8421c88827dc0ec8c663b_0.csv,0.59375,637
,Tangipahoa Parish,LA,USA,0,0,,,0,133777,30.612403,-90.405269,https://opendata.arcgis.com/datasets/cba425c2e5b8421c88827dc0ec8c663b_0.csv,0.59375,638
,St. Tammany Parish,LA,USA,6,0,,,6,258111,30.43073,-89.891049,https://opendata.arcgis.com/datasets/cba425c2e5b8421c88827dc0ec8c663b_0.csv,0.59375,639
,Livingston Parish,LA,USA,0,0,,,0,139567,30.412879,-90.696248,https://opendata.arcgis.com/datasets/cba425c2e5b8421c88827dc0ec8c663b_0.csv,0.59375,640
,St. Charles Parish,LA,USA,3,0,,,3,52879,29.961458,-90.3585315,https://opendata.arcgis.com/datasets/cba425c2e5b8421c88827dc0ec8c663b_0.csv,0.59375,641
,Calcasieu Parish,LA,USA,0,0,,,0,203112,30.2639165,-93.326522,https://opendata.arcgis.com/datasets/cba425c2e5b8421c88827dc0ec8c663b_0.csv,0.59375,642
,Union Parish,LA,USA,0,0,,,0,22330,32.7976865,-92.394117,https://opendata.arcgis.com/datasets/cba425c2e5b8421c88827dc0ec8c663b_0.csv,0.59375,643
,Caldwell Parish,LA,USA,0,0,,,0,9960,32.102264500000004,-92.09278499999999,https://opendata.arcgis.com/datasets/cba425c2e5b8421c88827dc0ec8c663b_0.csv,0.59375,644
,Tensas Parish,LA,USA,0,0,,,0,4462,31.991290499999998,-91.3045835,https://opendata.arcgis.com/datasets/cba425c2e5b8421c88827dc0ec8c663b_0.csv,0.59375,645
,Jackson Parish,LA,USA,0,0,,,0,15902,32.3212645,-92.56701000000001,https://opendata.arcgis.com/datasets/cba425c2e5b8421c88827dc0ec8c663b_0.csv,0.59375,646
,Grant Parish,LA,USA,0,0,,,0,22482,31.5926135,-92.58483,https://opendata.arcgis.com/datasets/cba425c2e5b8421c88827dc0ec8c663b_0.csv,0.59375,647
,Lincoln Parish,LA,USA,0,0,,,0,47196,32.606269499999996,-92.64820449999999,https://opendata.arcgis.com/datasets/cba425c2e5b8421c88827dc0ec8c663b_0.csv,0.59375,648
,Jefferson Davis Parish,LA,USA,0,0,,,0,31582,30.2628035,-92.857122,https://opendata.arcgis.com/datasets/cba425c2e5b8421c88827dc0ec8c663b_0.csv,0.59375,649
,Lafayette Parish,LA,USA,0,0,,,0,242782,30.2075775,-92.0951095,https://opendata.arcgis.com/datasets/cba425c2e5b8421c88827dc0ec8c663b_0.csv,0.59375,650
,East Carroll Parish,LA,USA,0,0,,,0,7037,32.7714455,-91.2303025,https://opendata.arcgis.com/datasets/cba425c2e5b8421c88827dc0ec8c663b_0.csv,0.59375,651
,East Feliciana Parish,LA,USA,0,0,,,0,19305,30.824589,-91.0732675,https://opendata.arcgis.com/datasets/cba425c2e5b8421c88827dc0ec8c663b_0.csv,0.59375,652
,Iberville Parish,LA,USA,0,0,,,0,32721,30.2613845,-91.3600815,https://opendata.arcgis.com/datasets/cba425c2e5b8421c88827dc0ec8c663b_0.csv,0.59375,653
,Richland Parish,LA,USA,0,0,,,0,20192,32.409445500000004,-91.732693,https://opendata.arcgis.com/datasets/cba425c2e5b8421c88827dc0ec8c663b_0.csv,0.59375,654
,St. Martin Parish,LA,USA,0,0,,,0,53621,30.09857,-91.53909150000001,https://opendata.arcgis.com/datasets/cba425c2e5b8421c88827dc0ec8c663b_0.csv,0.59375,655
,Claiborne Parish,LA,USA,0,0,,,0,15944,32.8016545,-92.981675,https://opendata.arcgis.com/datasets/cba425c2e5b8421c88827dc0ec8c663b_0.csv,0.59375,656
,St. Landry Parish,LA,USA,0,0,,,0,82764,30.573712,-92.08607749999999,https://opendata.arcgis.com/datasets/cba425c2e5b8421c88827dc0ec8c663b_0.csv,0.59375,657
,Pointe Coupee Parish,LA,USA,0,0,,,0,21940,30.750701999999997,-91.5623665,https://opendata.arcgis.com/datasets/cba425c2e5b8421c88827dc0ec8c663b_0.csv,0.59375,658
,LaSalle Parish,LA,USA,0,0,,,0,14917,,,https://opendata.arcgis.com/datasets/cba425c2e5b8421c88827dc0ec8c663b_0.csv,0.59375,
,Webster Parish,LA,USA,0,0,,,0,38798,32.7143435,-93.3384255,https://opendata.arcgis.com/datasets/cba425c2e5b8421c88827dc0ec8c663b_0.csv,0.59375,659
,St. James Parish,LA,USA,0,0,,,0,21037,30.027838,-90.8028455,https://opendata.arcgis.com/datasets/cba425c2e5b8421c88827dc0ec8c663b_0.csv,0.59375,660
,Morehouse Parish,LA,USA,0,0,,,0,25398,32.7570325,-91.76029249999999,https://opendata.arcgis.com/datasets/cba425c2e5b8421c88827dc0ec8c663b_0.csv,0.59375,661
,Rapides Parish,LA,USA,0,0,,,0,130562,31.203797,-92.5286315,https://opendata.arcgis.com/datasets/cba425c2e5b8421c88827dc0ec8c663b_0.csv,0.59375,662
,Avoyelles Parish,LA,USA,0,0,,,0,40462,31.095483,-91.97901999999999,https://opendata.arcgis.com/datasets/cba425c2e5b8421c88827dc0ec8c663b_0.csv,0.59375,663
,Winn Parish,LA,USA,0,0,,,0,14134,31.928432,-92.64287350000001,https://opendata.arcgis.com/datasets/cba425c2e5b8421c88827dc0ec8c663b_0.csv,0.59375,664
,Catahoula Parish,LA,USA,0,0,,,0,9608,31.5993165,-91.776279,https://opendata.arcgis.com/datasets/cba425c2e5b8421c88827dc0ec8c663b_0.csv,0.59375,665
