name,level,city,county,state,country,cases,deaths,recovered,tested,active,population,populationDensity,lat,long,url,aggregate,rating,tz,featureId,countryId,stateId,countyId,hospitalized,publishedDate
American Samoa,country,,,,American Samoa,0,0,,,,55689,317.35676363567194,-12.8,-169.6165,https://github.com/CSSEGISandData/COVID-19,county,0.47058823529411764,Etc/GMT+11,iso1:AS,iso1:AS,,,,
Guam,country,,,,Guam,113,4,,,,167772,312.9536655195383,13.445,144.7905,https://github.com/CSSEGISandData/COVID-19,county,0.47058823529411764,Pacific/Guam,iso1:GU,iso1:GU,,,,
Northern Mariana Islands,country,,,,Northern Mariana Islands,6,1,,,,55144,129.34926555592153,17.326,145.469,https://github.com/CSSEGISandData/COVID-19,county,0.47058823529411764,Etc/GMT-10,iso1:MP,iso1:MP,,,,
United States Virgin Islands,country,,,,United States Virgin Islands,43,1,,,,104901,320.5555600938774,18.047,-64.834,https://github.com/CSSEGISandData/COVID-19,county,0.47058823529411764,America/St_Thomas,iso1:VI,iso1:VI,,,,
"Aleutians East Borough, Alaska, United States",county,,Aleutians East Borough,Alaska,United States,0,0,,,,3337,0.1741423869025485,55.403239,-162.5453310518975,https://github.com/CSSEGISandData/COVID-19,county,0.5882352941176471,America/Nome,fips:02013,iso1:US,iso2:US-AK,fips:02013,,
"Aleutians West Census Area, Alaska, United States",county,,Aleutians West Census Area,Alaska,United States,0,0,,,,5634,0.4538000812138815,54.224759,0.31556500000000653,https://github.com/CSSEGISandData/COVID-19,county,0.5882352941176471,Etc/GMT,fips:02016,iso1:US,iso2:US-AK,fips:02016,,
"Bethel Census Area, Alaska, United States",county,,Bethel Census Area,Alaska,United States,0,0,,,,18386,0.1677096877976478,60.422242999999995,-163.057704,https://github.com/CSSEGISandData/COVID-19,county,0.5882352941176471,America/Nome,fips:02050,iso1:US,iso2:US-AK,fips:02050,,
"Bristol Bay Borough, Alaska, United States",county,,Bristol Bay Borough,Alaska,United States,0,0,,,,836,0.6315548003042001,58.75125008756325,-156.78566558379651,https://github.com/CSSEGISandData/COVID-19,county,0.5882352941176471,America/Anchorage,fips:02060,iso1:US,iso2:US-AK,fips:02060,,
"Denali Borough, Alaska, United States",county,,Denali Borough,Alaska,United States,0,0,,,,2097,0.06420637874541803,63.542024,-149.99877800000002,https://github.com/CSSEGISandData/COVID-19,county,0.5882352941176471,America/Anchorage,fips:02068,iso1:US,iso2:US-AK,fips:02068,,
"Dillingham Census Area, Alaska, United States",county,,Dillingham Census Area,Alaska,United States,0,0,,,,4916,0.10020339952128238,59.691452,-158.6825675,https://github.com/CSSEGISandData/COVID-19,county,0.5882352941176471,America/Anchorage,fips:02070,iso1:US,iso2:US-AK,fips:02070,,
"Haines Borough, Alaska, United States",county,,Haines Borough,Alaska,United States,0,0,,,,2530,0.40648503247015866,58.9599517315778,-135.408613520411,https://github.com/CSSEGISandData/COVID-19,county,0.5882352941176471,America/Juneau,fips:02100,iso1:US,iso2:US-AK,fips:02100,,
"Hoonah-Angoon Census Area, Alaska, United States",county,,Hoonah-Angoon Census Area,Alaska,United States,0,0,,,,2148,0.11850295430343513,58.217178499999996,-135.297381,https://github.com/CSSEGISandData/COVID-19,county,0.5882352941176471,America/Juneau,fips:02105,iso1:US,iso2:US-AK,fips:02105,,
"Kodiak Island Borough, Alaska, United States",county,,Kodiak Island Borough,Alaska,United States,0,0,,,,12998,0.702179103934507,57.3618905,-154.29755699999998,https://github.com/CSSEGISandData/COVID-19,county,0.5882352941176471,America/Anchorage,fips:02150,iso1:US,iso2:US-AK,fips:02150,,
"Kusilvak Census Area, Alaska, United States",county,,Kusilvak Census Area,Alaska,United States,0,0,,,,8314,0.17773769057478875,62.09682517393679,-163.18514249999998,https://github.com/CSSEGISandData/COVID-19,county,0.5882352941176471,America/Nome,fips:02158,iso1:US,iso2:US-AK,fips:02158,,
"Lake and Peninsula Borough, Alaska, United States",county,,Lake and Peninsula Borough,Alaska,United States,0,0,,,,1592,0.023180978398215996,58.2723395,-156.6487125,https://github.com/CSSEGISandData/COVID-19,county,0.5882352941176471,America/Anchorage,fips:02164,iso1:US,iso2:US-AK,fips:02164,,
"Nome Census Area, Alaska, United States",county,,Nome Census Area,Alaska,United States,0,0,,,,10004,0.1631526677625897,64.75931849999999,-165.6136745,https://github.com/CSSEGISandData/COVID-19,county,0.5882352941176471,America/Nome,fips:02180,iso1:US,iso2:US-AK,fips:02180,,
"North Slope Borough, Alaska, United States",county,,North Slope Borough,Alaska,United States,0,0,,,,9832,0.04223607211742887,69.6762745,-153.9208205,https://github.com/CSSEGISandData/COVID-19,county,0.5882352941176471,America/Anchorage,fips:02185,iso1:US,iso2:US-AK,fips:02185,,
"Northwest Arctic Borough, Alaska, United States",county,,Northwest Arctic Borough,Alaska,United States,0,0,,,,7621,0.08034723240490428,66.865861,-159.76639555015652,https://github.com/CSSEGISandData/COVID-19,county,0.5882352941176471,America/Anchorage,fips:02188,iso1:US,iso2:US-AK,fips:02188,,
"Prince of Wales-Hyder Census Area, Alaska, United States",county,,Prince of Wales-Hyder Census Area,Alaska,United States,0,0,,,,6203,0.38806608566973666,55.883404,-132.3350765,https://github.com/CSSEGISandData/COVID-19,county,0.5882352941176471,America/Sitka,fips:02198,iso1:US,iso2:US-AK,fips:02198,,
"Sitka City and Borough, Alaska, United States",county,,Sitka City and Borough,Alaska,United States,0,0,,,,8493,0.9899482875424741,57.084134,-135.493847299929,https://github.com/CSSEGISandData/COVID-19,county,0.5882352941176471,America/Sitka,fips:02220,iso1:US,iso2:US-AK,fips:02220,,
"Skagway Municipality, Alaska, United States",county,,Skagway Municipality,Alaska,United States,0,0,,,,1183,1.025413952739242,59.572194499999995,-135.3535154014475,https://github.com/CSSEGISandData/COVID-19,county,0.5882352941176471,America/Juneau,fips:02230,iso1:US,iso2:US-AK,fips:02230,,
"Valdez-Cordova Census Area, Alaska, United States",county,,Valdez-Cordova Census Area,Alaska,United States,0,0,,,,9202,0.10023149468345809,61.490837,-144.8716865,https://github.com/CSSEGISandData/COVID-19,county,0.5882352941176471,America/Anchorage,fips:02261,iso1:US,iso2:US-AK,fips:02261,,
"Wrangell City and Borough, Alaska, United States",county,,Wrangell City and Borough,Alaska,United States,0,0,,,,2502,0.34788940993872586,56.26856934043104,-132.0350185,https://github.com/CSSEGISandData/COVID-19,county,0.5882352941176471,America/Sitka,fips:02275,iso1:US,iso2:US-AK,fips:02275,,
"Yakutat City and Borough, Alaska, United States",county,,Yakutat City and Borough,Alaska,United States,0,0,,,,579,0.02819302219732171,59.66555898581555,-140.696663,https://github.com/CSSEGISandData/COVID-19,county,0.5882352941176471,America/Yakutat,fips:02282,iso1:US,iso2:US-AK,fips:02282,,
"Churchill County, Nevada, United States",county,,Churchill County,Nevada,United States,0,0,,,,24909,1.9147936200278997,39.537344,-118.34398949999999,https://github.com/CSSEGISandData/COVID-19,county,0.5882352941176471,America/Los_Angeles,fips:32001,iso1:US,iso2:US-NV,fips:32001,,
"Esmeralda County, Nevada, United States",county,,Esmeralda County,Nevada,United States,0,0,,,,873,0.0937798590945841,37.72251048219175,-117.796282681924,https://github.com/CSSEGISandData/COVID-19,county,0.5882352941176471,America/Los_Angeles,fips:32009,iso1:US,iso2:US-NV,fips:32009,,
"Eureka County, Nevada, United States",county,,Eureka County,Nevada,United States,0,0,,,,2029,0.18692114998393147,40.080813,-116.19790549999999,https://github.com/CSSEGISandData/COVID-19,county,0.5882352941176471,America/Los_Angeles,fips:32011,iso1:US,iso2:US-NV,fips:32011,,
"Lander County, Nevada, United States",county,,Lander County,Nevada,United States,0,0,,,,5532,0.3867088341589221,40.04691149999999,-117.194163,https://github.com/CSSEGISandData/COVID-19,county,0.5882352941176471,America/Los_Angeles,fips:32015,iso1:US,iso2:US-NV,fips:32015,,
"Lincoln County, Nevada, United States",county,,Lincoln County,Nevada,United States,0,0,,,,5183,0.18787577315313972,37.759757,-114.972699,https://github.com/CSSEGISandData/COVID-19,county,0.5882352941176471,America/Los_Angeles,fips:32017,iso1:US,iso2:US-NV,fips:32017,,
"Mineral County, Nevada, United States",county,,Mineral County,Nevada,United States,0,0,,,,4505,0.4552077300882395,38.4841675,-118.42400187688301,https://github.com/CSSEGISandData/COVID-19,county,0.5882352941176471,America/Los_Angeles,fips:32021,iso1:US,iso2:US-NV,fips:32021,,
"Pershing County, Nevada, United States",county,,Pershing County,Nevada,United States,0,0,,,,6725,0.4274813842746939,40.4797295,-118.3196335,https://github.com/CSSEGISandData/COVID-19,county,0.5882352941176471,America/Los_Angeles,fips:32027,iso1:US,iso2:US-NV,fips:32027,,
"White Pine County, Nevada, United States",county,,White Pine County,Nevada,United States,1,0,,,,9580,0.414998835066302,39.402609999999996,-114.977001,https://github.com/CSSEGISandData/COVID-19,county,0.5882352941176471,America/Los_Angeles,fips:32033,iso1:US,iso2:US-NV,fips:32033,,
"Beaver County, Utah, United States",county,,Beaver County,Utah,United States,0,0,,,,6710,1.0008434270021138,38.360196729150445,-113.192933,https://github.com/CSSEGISandData/COVID-19,county,0.5882352941176471,America/Denver,fips:49001,iso1:US,iso2:US-UT,fips:49001,,
"Daggett County, Utah, United States",county,,Daggett County,Utah,United States,0,0,,,,950,0.5082785751715216,40.832222,-109.5245419871205,https://github.com/CSSEGISandData/COVID-19,county,0.5882352941176471,America/Denver,fips:49009,iso1:US,iso2:US-UT,fips:49009,,
"Piute County, Utah, United States",county,,Piute County,Utah,United States,0,0,,,,1479,0.7428007908869568,38.328869499999996,-112.1429575,https://github.com/CSSEGISandData/COVID-19,county,0.5882352941176471,America/Denver,fips:49031,iso1:US,iso2:US-UT,fips:49031,,
"Rich County, Utah, United States",county,,Rich County,Utah,United States,0,0,,,,2483,0.8812182773711023,41.572224,-111.2787905,https://github.com/CSSEGISandData/COVID-19,county,0.5882352941176471,America/Denver,fips:49033,iso1:US,iso2:US-UT,fips:49033,,
"Sanpete County, Utah, United States",county,,Sanpete County,Utah,United States,0,0,,,,30939,7.450144599539261,39.422646,-111.631697,https://github.com/CSSEGISandData/COVID-19,county,0.5882352941176471,America/Denver,fips:49039,iso1:US,iso2:US-UT,fips:49039,,
"Sevier County, Utah, United States",county,,Sevier County,Utah,United States,0,0,,,,21620,4.342001363448807,38.773833499999995,-111.910367,https://github.com/CSSEGISandData/COVID-19,county,0.5882352941176471,America/Denver,fips:49041,iso1:US,iso2:US-UT,fips:49041,,
"Wayne County, Utah, United States",county,,Wayne County,Utah,United States,0,0,,,,2711,0.42378176334442325,38.330128,-110.86695549999999,https://github.com/CSSEGISandData/COVID-19,county,0.5882352941176471,America/Denver,fips:49055,iso1:US,iso2:US-UT,fips:49055,,
"Essex County, Vermont, United States",county,,Essex County,Vermont,United States,0,0,,,,6163,3.530731859542543,44.6806911178554,-71.71967849999999,https://github.com/CSSEGISandData/COVID-19,county,0.5882352941176471,America/New_York,fips:50009,iso1:US,iso2:US-VT,fips:50009,,
"Grand Isle County, Vermont, United States",county,,Grand Isle County,Vermont,United States,0,0,,,,7235,14.303588078497988,44.7885695424674,-73.29107955019444,https://github.com/CSSEGISandData/COVID-19,county,0.5882352941176471,America/New_York,fips:50013,iso1:US,iso2:US-VT,fips:50013,,
Afghanistan,country,,,,Afghanistan,367,11,18,,338,34940837,54.307017216799736,33.934,67.70400000000001,https://github.com/CSSEGISandData/COVID-19,country,0.5490196078431373,Asia/Kabul,iso1:AF,iso1:AF,,,,
Albania,country,,,,Albania,377,21,116,,240,2873457,100.8856572708837,41.1555,20.1605,https://github.com/CSSEGISandData/COVID-19,country,0.5490196078431373,Europe/Tirane,iso1:AL,iso1:AL,,,,
Algeria,country,,,,Algeria,1423,173,90,,1160,41318142,17.81994729288031,28.03,1.6639999999999997,https://github.com/CSSEGISandData/COVID-19,country,0.5490196078431373,Africa/Algiers,iso1:DZ,iso1:DZ,,,,
Andorra,country,,,,Andorra,525,21,31,,473,76177,167.9404193145347,42.545,1.601,https://github.com/CSSEGISandData/COVID-19,country,0.5490196078431373,Europe/Andorra,iso1:AD,iso1:AD,,,,
Angola,country,,,,Angola,16,2,2,,12,29784193,23.73310439046137,-11.2135,17.8785,https://github.com/CSSEGISandData/COVID-19,country,0.5490196078431373,Africa/Luanda,iso1:AO,iso1:AO,,,,
Antigua and Barbuda,country,,,,Antigua and Barbuda,15,0,0,,15,102012,259.15478421001933,17.333,-62.0095,https://github.com/CSSEGISandData/COVID-19,country,0.5490196078431373,Etc/GMT+4,iso1:AG,iso1:AG,,,,
Argentina,country,,,,Argentina,1554,48,325,,1181,44938712,16.129350177191103,-38.4275,-63.599500000000006,https://github.com/CSSEGISandData/COVID-19,country,0.5490196078431373,America/Argentina/Salta,iso1:AR,iso1:AR,,,,
Armenia,country,,,,Armenia,833,8,62,,763,2930450,98.50772315644862,40.070499999999996,45.040000000000006,https://github.com/CSSEGISandData/COVID-19,country,0.5490196078431373,Asia/Yerevan,iso1:AM,iso1:AM,,,,
Austria,country,,,,Austria,12297,220,3463,,8614,8809212,105.06376002852437,47.696,13.346,https://github.com/CSSEGISandData/COVID-19,country,0.5490196078431373,Europe/Vienna,iso1:AT,iso1:AT,,,,
Azerbaijan,country,,,,Azerbaijan,641,7,44,,590,10000000,116.28490435125894,40.1505,47.810500000000005,https://github.com/CSSEGISandData/COVID-19,country,0.5490196078431373,Asia/Baku,iso1:AZ,iso1:AZ,,,,
The Bahamas,country,,,,The Bahamas,29,5,4,,20,395361,35.26474622861078,24.0925,-76.5975,https://github.com/CSSEGISandData/COVID-19,country,0.5490196078431373,America/Nassau,iso1:BS,iso1:BS,,,,
Bahrain,country,,,,Bahrain,756,4,458,,294,1492584,2020.160599576151,26.029,50.6055,https://github.com/CSSEGISandData/COVID-19,country,0.5490196078431373,Asia/Bahrain,iso1:BH,iso1:BH,,,,
Bangladesh,country,,,,Bangladesh,123,12,33,,78,164669751,1164.789860150111,23.6125,90.344,https://github.com/CSSEGISandData/COVID-19,country,0.5490196078431373,Asia/Dhaka,iso1:BD,iso1:BD,,,,
Barbados,country,,,,Barbados,60,2,6,,52,285719,663.0664877939863,13.1935,-59.5355,https://github.com/CSSEGISandData/COVID-19,country,0.5490196078431373,America/Barbados,iso1:BB,iso1:BB,,,,
Belarus,country,,,,Belarus,700,13,53,,634,9504700,45.88305667504291,53.716499999999996,27.9675,https://github.com/CSSEGISandData/COVID-19,country,0.5490196078431373,Europe/Minsk,iso1:BY,iso1:BY,,,,
Belgium,country,,,,Belgium,20814,1632,3986,,15196,11431406,373.599837562333,50.501000000000005,4.475,https://github.com/CSSEGISandData/COVID-19,country,0.5490196078431373,Europe/Brussels,iso1:BE,iso1:BE,,,,
Benin,country,,,,Benin,26,1,5,,20,11175692,96.34666444093794,9.321,2.311,https://github.com/CSSEGISandData/COVID-19,country,0.5490196078431373,Africa/Porto-Novo,iso1:BJ,iso1:BJ,,,,
Bhutan,country,,,,Bhutan,5,0,2,,3,807610,21.079060306233668,27.4745,90.4335,https://github.com/CSSEGISandData/COVID-19,country,0.5490196078431373,Asia/Thimphu,iso1:BT,iso1:BT,,,,
Bolivia,country,,,,Bolivia,183,11,2,,170,11051600,10.169992777500974,-16.2835,-63.5475,https://github.com/CSSEGISandData/COVID-19,country,0.5490196078431373,America/La_Paz,iso1:BO,iso1:BO,,,,
Bosnia and Herzegovina,country,,,,Bosnia and Herzegovina,674,29,47,,598,3507017,68.50084679701428,43.916,17.673499999999997,https://github.com/CSSEGISandData/COVID-19,country,0.5490196078431373,Europe/Sarajevo,iso1:BA,iso1:BA,,,,
Brunei,country,,,,Brunei,135,1,82,,52,428697,72.67090533338622,4.5245,114.7195,https://github.com/CSSEGISandData/COVID-19,country,0.5490196078431373,Asia/Brunei,iso1:BN,iso1:BN,,,,
Bulgaria,country,,,,Bulgaria,549,22,39,,488,7000039,63.01979598928075,42.726,25.4825,https://github.com/CSSEGISandData/COVID-19,country,0.5490196078431373,Europe/Sofia,iso1:BG,iso1:BG,,,,
Burkina Faso,country,,,,Burkina Faso,364,18,108,,238,19193382,69.99292516080118,12.248000000000001,-1.552,https://github.com/CSSEGISandData/COVID-19,country,0.5490196078431373,Africa/Ouagadougou,iso1:BF,iso1:BF,,,,
Cape Verde,country,,,,Cape Verde,7,1,1,,5,546388,132.74894683534765,15.999,-24.0135,https://github.com/CSSEGISandData/COVID-19,country,0.5490196078431373,Atlantic/Cape_Verde,iso1:CV,iso1:CV,,,,
Cambodia,country,,,,Cambodia,114,0,53,,61,16005373,87.58197641980047,12.307500000000001,104.981,https://github.com/CSSEGISandData/COVID-19,country,0.5490196078431373,Asia/Phnom_Penh,iso1:KH,iso1:KH,,,,
Cameroon,country,,,,Cameroon,658,9,17,,632,24053727,51.25140552780305,7.366,12.3445,https://github.com/CSSEGISandData/COVID-19,country,0.5490196078431373,Africa/Douala,iso1:CM,iso1:CM,,,,
Central African Republic,country,,,,Central African Republic,8,0,0,,8,4659080,7.492942849035554,6.603,20.941000000000003,https://github.com/CSSEGISandData/COVID-19,country,0.5490196078431373,Africa/Bangui,iso1:CF,iso1:CF,,,,
Chad,country,,,,Chad,9,0,0,,9,15477751,12.081135319983906,15.4695,18.7365,https://github.com/CSSEGISandData/COVID-19,country,0.5490196078431373,Africa/Ndjamena,iso1:TD,iso1:TD,,,,
Chile,country,,,,Chile,4815,37,728,,4050,18054726,23.942950082562078,-37.018,-87.938,https://github.com/CSSEGISandData/COVID-19,country,0.5490196078431373,Etc/GMT+6,iso1:CL,iso1:CL,,,,
"Anhui, China",state,,,Anhui,China,990,6,984,,0,60300000,428.91334446557613,32.0255,117.25649999999999,https://github.com/CSSEGISandData/COVID-19,state,0.5882352941176471,Asia/Shanghai,iso2:CN-AH,iso1:CN,iso2:CN-AH,,,
"Beijing, China",state,,,Beijing,China,587,8,443,,136,21710000,1322.0897839665988,40.247,116.464,https://github.com/CSSEGISandData/COVID-19,state,0.5882352941176471,Asia/Shanghai,iso2:CN-BJ,iso1:CN,iso2:CN-BJ,,,
"Chongqing, China",state,,,Chongqing,China,579,6,570,,3,7990000,96.70765870389965,30.183,107.7425,https://github.com/CSSEGISandData/COVID-19,state,0.5882352941176471,Asia/Shanghai,iso2:CN-CQ,iso1:CN,iso2:CN-CQ,,,
"Fujian, China",state,,,Fujian,China,350,1,305,,44,36894216,300.48183955694606,25.924500000000002,118.2875,https://github.com/CSSEGISandData/COVID-19,state,0.5882352941176471,Asia/Shanghai,iso2:CN-FJ,iso1:CN,iso2:CN-FJ,,,
"Gansu, China",state,,,Gansu,China,139,2,132,,5,25575254,60.00918501028431,37.6965,100.525,https://github.com/CSSEGISandData/COVID-19,state,0.5882352941176471,Asia/Shanghai,iso2:CN-GS,iso1:CN,iso2:CN-GS,,,
"Guangdong, China",state,,,Guangdong,China,1532,8,1395,,129,113460000,634.3957230213136,22.8685,113.4885,https://github.com/CSSEGISandData/COVID-19,state,0.5882352941176471,Asia/Shanghai,iso2:CN-GD,iso1:CN,iso2:CN-GD,,,
"Guangxi, China",state,,,Guangxi,China,254,2,252,,0,46026629,193.6896719654089,23.643500000000003,108.27250000000001,https://github.com/CSSEGISandData/COVID-19,state,0.5882352941176471,Asia/Shanghai,iso2:CN-GX,iso1:CN,iso2:CN-GX,,,
"Guizhou, China",state,,,Guizhou,China,146,2,144,,0,35800000,202.45265391138375,26.921999999999997,106.5875,https://github.com/CSSEGISandData/COVID-19,state,0.5882352941176471,Asia/Shanghai,iso2:CN-GZ,iso1:CN,iso2:CN-GZ,,,
"Hainan, China",state,,,Hainan,China,168,6,162,,0,9171300,267.5873476082559,14.5155,112.068,https://github.com/CSSEGISandData/COVID-19,state,0.5882352941176471,Etc/GMT-7,iso2:CN-HI,iso1:CN,iso2:CN-HI,,,
"Hebei, China",state,,,Hebei,China,327,6,310,,11,71854202,381.3540573277238,39.3345,116.6525,https://github.com/CSSEGISandData/COVID-19,state,0.5882352941176471,Asia/Shanghai,iso2:CN-HE,iso1:CN,iso2:CN-HE,,,
"Heilongjiang, China",state,,,Heilongjiang,China,524,13,469,,42,38312224,84.90449554741129,48.4915,127.9795,https://github.com/CSSEGISandData/COVID-19,state,0.5882352941176471,Asia/Shanghai,iso2:CN-HL,iso1:CN,iso2:CN-HL,,,
"Henan, China",state,,,Henan,China,1276,22,1252,,2,96050000,578.706204742534,33.873999999999995,113.499,https://github.com/CSSEGISandData/COVID-19,state,0.5882352941176471,Asia/Shanghai,iso2:CN-HA,iso1:CN,iso2:CN-HA,,,
Hong Kong,country,,,,Hong Kong,914,4,216,,694,7500700,6955.486766198668,22.3575,114.1325,https://github.com/CSSEGISandData/COVID-19,country,0.5490196078431373,Asia/Hong_Kong,iso1:HK,iso1:HK,,,,
"Hubei, China",state,,,Hubei,China,67803,3212,64014,,577,58160000,311.7107556110959,31.155,112.249,https://github.com/CSSEGISandData/COVID-19,state,0.5882352941176471,Asia/Shanghai,iso2:CN-HB,iso1:CN,iso2:CN-HB,,,
"Hunan, China",state,,,Hunan,China,1019,4,1014,,1,65683722,308.79061915226646,27.386499999999998,111.518,https://github.com/CSSEGISandData/COVID-19,state,0.5882352941176471,Asia/Shanghai,iso2:CN-HN,iso1:CN,iso2:CN-HN,,,
"Inner Mongolia, China",state,,,Inner Mongolia,China,118,1,74,,43,24706321,21.561274718648416,45.37,111.61949999999999,https://github.com/CSSEGISandData/COVID-19,state,0.5882352941176471,Asia/Ulaanbaatar,iso2:CN-NM,iso1:CN,iso2:CN-NM,,,
"Jiangsu, China",state,,,Jiangsu,China,651,0,633,,18,78659903,765.2840421607983,32.9515,119.1565,https://github.com/CSSEGISandData/COVID-19,state,0.5882352941176471,Asia/Shanghai,iso2:CN-JS,iso1:CN,iso2:CN-JS,,,
"Jiangxi, China",state,,,Jiangxi,China,937,1,935,,1,44567475,265.92594374584763,27.2845,116.02600000000001,https://github.com/CSSEGISandData/COVID-19,state,0.5882352941176471,Asia/Shanghai,iso2:CN-JX,iso1:CN,iso2:CN-JX,,,
"Jilin, China",state,,,Jilin,China,98,1,92,,5,27462297,143.66108958865513,43.5835,126.4735,https://github.com/CSSEGISandData/COVID-19,state,0.5882352941176471,Asia/Shanghai,iso2:CN-JL,iso1:CN,iso2:CN-JL,,,
"Liaoning, China",state,,,Liaoning,China,142,2,128,,12,43746323,297.30686908442647,41.1065,122.3125,https://github.com/CSSEGISandData/COVID-19,state,0.5882352941176471,Asia/Shanghai,iso2:CN-LN,iso1:CN,iso2:CN-LN,,,
Macau,country,,,,Macau,44,0,10,,34,642900,23943.778419693666,22.1645,113.56049999999999,https://github.com/CSSEGISandData/COVID-19,country,0.5490196078431373,Asia/Macau,iso1:MO,iso1:MO,,,,
"Ningxia, China",state,,,Ningxia,China,75,0,75,,0,6301350,121.13911900416363,37.31,105.9685,https://github.com/CSSEGISandData/COVID-19,state,0.5882352941176471,Asia/Shanghai,iso2:CN-NX,iso1:CN,iso2:CN-NX,,,
"Qinghai, China",state,,,Qinghai,China,18,0,18,,0,5930000,8.494515447889237,35.408,96.2355,https://github.com/CSSEGISandData/COVID-19,state,0.5882352941176471,Asia/Shanghai,iso2:CN-QH,iso1:CN,iso2:CN-QH,,,
"Shaanxi, China",state,,,Shaanxi,China,256,3,246,,7,37327378,181.18176352194,35.638000000000005,108.36850000000001,https://github.com/CSSEGISandData/COVID-19,state,0.5882352941176471,Asia/Shanghai,iso2:CN-SN,iso1:CN,iso2:CN-SN,,,
"Shandong, China",state,,,Shandong,China,780,7,755,,18,95793065,611.1626579024781,36.3805,118.7625,https://github.com/CSSEGISandData/COVID-19,state,0.5882352941176471,Asia/Shanghai,iso2:CN-SD,iso1:CN,iso2:CN-SD,,,
"Shanghai, China",state,,,Shanghai,China,536,6,389,,141,23390000,3187.729499918767,31.281,121.5455,https://github.com/CSSEGISandData/COVID-19,state,0.5882352941176471,Asia/Shanghai,iso2:CN-SH,iso1:CN,iso2:CN-SH,,,
"Shanxi, China",state,,,Shanxi,China,138,0,133,,5,36500000,232.5139547969051,37.664500000000004,112.393,https://github.com/CSSEGISandData/COVID-19,state,0.5882352941176471,Asia/Shanghai,iso2:CN-SX,iso1:CN,iso2:CN-SX,,,
"Sichuan, China",state,,,Sichuan,China,559,3,540,,16,81100000,166.3151051763116,30.18,102.9485,https://github.com/CSSEGISandData/COVID-19,state,0.5882352941176471,Asia/Shanghai,iso2:CN-SC,iso1:CN,iso2:CN-SC,,,
"Tianjin, China",state,,,Tianjin,China,180,3,144,,33,13245000,1123.9770146039161,39.403499999999994,117.3785,https://github.com/CSSEGISandData/COVID-19,state,0.5882352941176471,Asia/Shanghai,iso2:CN-TJ,iso1:CN,iso2:CN-TJ,,,
"Tibet, China",state,,,Tibet,China,1,0,1,,0,3180000,2.8061327108167524,31.8945,88.75450000000001,https://github.com/CSSEGISandData/COVID-19,state,0.5882352941176471,Asia/Shanghai,iso2:CN-XZ,iso1:CN,iso2:CN-XZ,,,
"Xinjiang, China",state,,,Xinjiang,China,76,3,73,,0,21813334,13.358939287795028,41.7555,84.9435,https://github.com/CSSEGISandData/COVID-19,state,0.5882352941176471,"Asia/Urumqi,Asia/Shanghai",iso2:CN-XJ,iso1:CN,iso2:CN-XJ,,,
"Yunnan, China",state,,,Yunnan,China,184,2,172,,10,47420000,123.2113098526206,25.184,101.85849999999999,https://github.com/CSSEGISandData/COVID-19,state,0.5882352941176471,Asia/Shanghai,iso2:CN-YN,iso1:CN,iso2:CN-YN,,,
"Zhejiang, China",state,,,Zhejiang,China,1264,1,1230,,33,56570000,543.4833994341953,29.113500000000002,120.589,https://github.com/CSSEGISandData/COVID-19,state,0.5882352941176471,Asia/Shanghai,iso2:CN-ZJ,iso1:CN,iso2:CN-ZJ,,,
Colombia,country,,,,Colombia,1579,46,88,,1445,49065615,42.86745825747474,5.827999999999999,-74.3535,https://github.com/CSSEGISandData/COVID-19,country,0.5490196078431373,America/Bogota,iso1:CO,iso1:CO,,,,
Congo-Brazzaville,country,,,,Congo-Brazzaville,45,5,2,,38,5260750,15.220300873989965,-0.6660000000000001,14.884999999999998,https://github.com/CSSEGISandData/COVID-19,country,0.5490196078431373,Africa/Brazzaville,iso1:CG,iso1:CG,,,,
Democratic Republic of the Congo,country,,,,Democratic Republic of the Congo,161,18,5,,138,91931000,39.57303618456218,-4.0405,21.7395,https://github.com/CSSEGISandData/COVID-19,country,0.5490196078431373,Africa/Lubumbashi,iso1:CD,iso1:CD,,,,
Costa Rica,country,,,,Costa Rica,467,2,18,,447,4905769,95.3677001025746,8.3595,-84.82650000000001,https://github.com/CSSEGISandData/COVID-19,country,0.5490196078431373,Etc/GMT+6,iso1:CR,iso1:CR,,,,
Côte d'Ivoire,country,,,,Côte d'Ivoire,323,3,41,,279,24294750,75.03645705995487,7.551,-5.547000000000001,https://github.com/CSSEGISandData/COVID-19,country,0.5490196078431373,Africa/Abidjan,iso1:CI,iso1:CI,,,,
Croatia,country,,,,Croatia,1222,16,130,,1076,4105493,72.97437526563954,44.462,16.4685,https://github.com/CSSEGISandData/COVID-19,country,0.5490196078431373,Europe/Sarajevo,iso1:HR,iso1:HR,,,,
Cuba,country,,,,Cuba,350,9,18,,323,11484636,104.02311223423943,21.5485,-79.5415,https://github.com/CSSEGISandData/COVID-19,country,0.5490196078431373,America/Havana,iso1:CU,iso1:CU,,,,
Cyprus,country,,,,Cyprus,465,9,45,,411,1141166,126.43100637080508,35.1695,33.441,https://github.com/CSSEGISandData/COVID-19,country,0.5490196078431373,Asia/Famagusta,iso1:CY,iso1:CY,,,,
Czechia,country,,,,Czechia,4822,78,121,,4623,10649800,135.18632469357428,49.805,15.474499999999999,https://github.com/CSSEGISandData/COVID-19,country,0.5490196078431373,Europe/Prague,iso1:CZ,iso1:CZ,,,,
Greenland,country,,,,Greenland,11,0,4,,7,56081,0.026081123272797192,71.7045,-42.3805,https://github.com/CSSEGISandData/COVID-19,country,0.5490196078431373,America/Godthab,iso1:GL,iso1:GL,,,,
Denmark,country,,,,Denmark,4681,187,1378,,3116,5827463,136.28662116192936,56.153,11.6375,https://github.com/CSSEGISandData/COVID-19,country,0.5490196078431373,Europe/Copenhagen,iso1:DK,iso1:DK,,,,
Djibouti,country,,,,Djibouti,90,0,9,,81,956985,44.058611766097876,11.815000000000001,42.611000000000004,https://github.com/CSSEGISandData/COVID-19,country,0.5490196078431373,Africa/Djibouti,iso1:DJ,iso1:DJ,,,,
Dominican Republic,country,,,,Dominican Republic,1828,86,33,,1709,10403761,214.67624587281782,18.7025,-70.168,https://github.com/CSSEGISandData/COVID-19,country,0.5490196078431373,America/Santo_Domingo,iso1:DO,iso1:DO,,,,
Ecuador,country,,,,Ecuador,3747,191,100,,3456,16624858,64.55590713255677,-1.6700000000000002,-83.5975,https://github.com/CSSEGISandData/COVID-19,country,0.5490196078431373,Etc/GMT+6,iso1:EC,iso1:EC,,,,
Egypt,country,,,,Egypt,1322,85,259,,978,94798827,94.8635041631531,26.8355,30.7715,https://github.com/CSSEGISandData/COVID-19,country,0.5490196078431373,Africa/Cairo,iso1:EG,iso1:EG,,,,
El Salvador,country,,,,El Salvador,69,4,5,,60,6427479,308.20902823453434,13.8045,-88.91,https://github.com/CSSEGISandData/COVID-19,country,0.5490196078431373,America/El_Salvador,iso1:SV,iso1:SV,,,,
Equatorial Guinea,country,,,,Equatorial Guinea,16,0,3,,13,1267689,46.42041339946956,1.1504999999999999,8.4885,https://github.com/CSSEGISandData/COVID-19,country,0.5490196078431373,Etc/GMT-1,iso1:GQ,iso1:GQ,,,,
Eritrea,country,,,,Eritrea,31,0,0,,31,3497000,28.94997501606783,15.192,39.785,https://github.com/CSSEGISandData/COVID-19,country,0.5490196078431373,Africa/Asmara,iso1:ER,iso1:ER,,,,
Estonia,country,,,,Estonia,1108,19,62,,1027,1328360,29.43862715411736,58.668000000000006,24.989,https://github.com/CSSEGISandData/COVID-19,country,0.5490196078431373,Europe/Tallinn,iso1:EE,iso1:EE,,,,
Eswatini,country,,,,Eswatini,10,0,4,,6,1367254,78.42685091329584,-26.518500000000003,31.463,https://github.com/CSSEGISandData/COVID-19,country,0.5490196078431373,Africa/Mbabane,iso1:SZ,iso1:SZ,,,,
Ethiopia,country,,,,Ethiopia,44,2,4,,38,104957438,92.56303435250295,9.1455,40.489999999999995,https://github.com/CSSEGISandData/COVID-19,country,0.5490196078431373,Africa/Addis_Ababa,iso1:ET,iso1:ET,,,,
Fiji,country,,,,Fiji,14,0,0,,14,905502,49.282669321586845,-16.7555,0,https://github.com/CSSEGISandData/COVID-19,country,0.5490196078431373,Etc/GMT,iso1:FJ,iso1:FJ,,,,
Finland,country,,,,Finland,2176,27,300,,1849,5516224,16.479031892485747,64.798,25.3595,https://github.com/CSSEGISandData/COVID-19,country,0.5490196078431373,Europe/Helsinki,iso1:FI,iso1:FI,,,,
Gabon,country,,,,Gabon,24,1,1,,22,2025137,7.666972258427644,-0.812,11.55,https://github.com/CSSEGISandData/COVID-19,country,0.5490196078431373,Africa/Libreville,iso1:GA,iso1:GA,,,,
The Gambia,country,,,,The Gambia,4,1,2,,1,2100568,186.79427930495376,13.443999999999999,-15.311,https://github.com/CSSEGISandData/COVID-19,country,0.5490196078431373,Africa/Banjul,iso1:GM,iso1:GM,,,,
Georgia,country,,,,Georgia,188,2,39,,147,3717100,53.320138670546775,42.322,43.3685,https://github.com/CSSEGISandData/COVID-19,country,0.5490196078431373,Asia/Tbilisi,iso1:GE,iso1:GE,,,,
Germany,country,,,,Germany,103374,1810,28700,,72864,83149300,233.07749210730802,51.1555,10.452,https://github.com/CSSEGISandData/COVID-19,country,0.5490196078431373,Europe/Berlin,iso1:DE,iso1:DE,,,,
Ghana,country,,,,Ghana,214,5,31,,178,26908262,111.98493029157561,7.960000000000001,-1.0295,https://github.com/CSSEGISandData/COVID-19,country,0.5490196078431373,Africa/Accra,iso1:GH,iso1:GH,,,,
Greece,country,,,,Greece,1755,79,269,,1407,10760421,81.15019528271317,38.2755,24.503,https://github.com/CSSEGISandData/COVID-19,country,0.5490196078431373,Europe/Athens,iso1:GR,iso1:GR,,,,
Guatemala,country,,,,Guatemala,70,3,15,,52,17263239,157.59768154356482,15.781500000000001,-90.22800000000001,https://github.com/CSSEGISandData/COVID-19,country,0.5490196078431373,America/Guatemala,iso1:GT,iso1:GT,,,,
Guinea,country,,,,Guinea,128,0,5,,123,12717176,51.607232774746116,9.938,-11.5015,https://github.com/CSSEGISandData/COVID-19,country,0.5490196078431373,Africa/Freetown,iso1:GN,iso1:GN,,,,
Guyana,country,,,,Guyana,31,4,8,,19,777859,3.6687486568795746,4.851,-58.939,https://github.com/CSSEGISandData/COVID-19,country,0.5490196078431373,America/Guyana,iso1:GY,iso1:GY,,,,
Haiti,country,,,,Haiti,24,1,0,,23,10981229,406.3846221233796,19.0565,-73.32849999999999,https://github.com/CSSEGISandData/COVID-19,country,0.5490196078431373,America/Port-au-Prince,iso1:HT,iso1:HT,,,,
Vatican City,country,,,,Vatican City,7,0,0,,7,1000,,41.902,12.446,https://github.com/CSSEGISandData/COVID-19,country,0.5490196078431373,Europe/Vatican,iso1:VA,iso1:VA,,,,
Honduras,country,,,,Honduras,298,22,6,,270,9265067,82.26120688633301,15.199,-85.883,https://github.com/CSSEGISandData/COVID-19,country,0.5490196078431373,America/Tegucigalpa,iso1:HN,iso1:HN,,,,
Hungary,country,,,,Hungary,744,38,67,,639,9772756,105.12821470747716,47.161,19.506,https://github.com/CSSEGISandData/COVID-19,country,0.5490196078431373,Europe/Budapest,iso1:HU,iso1:HU,,,,
Iceland,country,,,,Iceland,1562,6,460,,1096,357050,3.487875962361048,65.223,-18.905,https://github.com/CSSEGISandData/COVID-19,country,0.5490196078431373,Atlantic/Reykjavik,iso1:IS,iso1:IS,,,,
India,country,,,,India,4778,136,375,,4267,1349217956,426.1283053569773,21.2135,82.786,https://github.com/CSSEGISandData/COVID-19,country,0.5490196078431373,Asia/Kolkata,iso1:IN,iso1:IN,,,,
Indonesia,country,,,,Indonesia,2491,209,192,,2090,263991379,139.06838839706612,-2.4669999999999996,118.0155,https://github.com/CSSEGISandData/COVID-19,country,0.5490196078431373,Asia/Makassar,iso1:ID,iso1:ID,,,,
Iran,country,,,,Iran,60500,3739,24236,,32525,79966230,49.14047487895722,32.421,53.685,https://github.com/CSSEGISandData/COVID-19,country,0.5490196078431373,Asia/Tehran,iso1:IR,iso1:IR,,,,
Iraq,country,,,,Iraq,1031,64,344,,623,38274618,87.34192767449488,33.22,43.704499999999996,https://github.com/CSSEGISandData/COVID-19,country,0.5490196078431373,Asia/Baghdad,iso1:IQ,iso1:IQ,,,,
Ireland,country,,,,Ireland,5364,174,25,,5165,4813608,68.95461743899016,53.4095,-8.343,https://github.com/CSSEGISandData/COVID-19,country,0.5490196078431373,Europe/Dublin,iso1:IE,iso1:IE,,,,
Israel,country,,,,Israel,8904,57,585,,8262,9093000,412.955802211807,31.4135,35.081,https://github.com/CSSEGISandData/COVID-19,country,0.5490196078431373,"Asia/Jerusalem,Asia/Hebron",iso1:IL,iso1:IL,,,,
Jamaica,country,,,,Jamaica,58,3,8,,47,2890299,261.70345020173284,17.7735,-77.1705,https://github.com/CSSEGISandData/COVID-19,country,0.5490196078431373,America/Jamaica,iso1:JM,iso1:JM,,,,
Japan,country,,,,Japan,3654,85,575,,2994,124776364,334.754658786184,32.9745,138.4625,https://github.com/CSSEGISandData/COVID-19,country,0.5490196078431373,Etc/GMT-9,iso1:JP,iso1:JP,,,,
Jordan,country,,,,Jordan,349,6,126,,217,10428241,116.86727848474852,31.279,37.131,https://github.com/CSSEGISandData/COVID-19,country,0.5490196078431373,Asia/Amman,iso1:JO,iso1:JO,,,,
Kazakhstan,country,,,,Kazakhstan,662,6,46,,610,18276500,6.726898234903302,48.0055,66.9045,https://github.com/CSSEGISandData/COVID-19,country,0.5490196078431373,Asia/Almaty,iso1:KZ,iso1:KZ,,,,
Kenya,country,,,,Kenya,158,6,4,,148,48468138,84.35837685023397,-0.058000000000000274,37.9085,https://github.com/CSSEGISandData/COVID-19,country,0.5490196078431373,Africa/Nairobi,iso1:KE,iso1:KE,,,,
South Korea,country,,,,South Korea,10284,186,6598,,3500,51466201,512.7509351952202,35.8695,128.242,https://github.com/CSSEGISandData/COVID-19,country,0.5490196078431373,Asia/Seoul,iso1:KR,iso1:KR,,,,
Kuwait,country,,,,Kuwait,665,1,103,,561,4136528,240.0741000808723,29.314,47.665499999999994,https://github.com/CSSEGISandData/COVID-19,country,0.5490196078431373,Asia/Kuwait,iso1:KW,iso1:KW,,,,
Kyrgyzstan,country,,,,Kyrgyzstan,216,4,33,,179,6201500,31.190307071146123,41.225,74.7485,https://github.com/CSSEGISandData/COVID-19,country,0.5490196078431373,Asia/Bishkek,iso1:KG,iso1:KG,,,,
Latvia,country,,,,Latvia,542,1,16,,525,1909000,29.61409612915186,56.8795,24.606,https://github.com/CSSEGISandData/COVID-19,country,0.5490196078431373,Europe/Riga,iso1:LV,iso1:LV,,,,
Lebanon,country,,,,Lebanon,541,19,60,,462,6100075,598.5317925897311,33.870000000000005,35.8645,https://github.com/CSSEGISandData/COVID-19,country,0.5490196078431373,Asia/Beirut,iso1:LB,iso1:LB,,,,
Liberia,country,,,,Liberia,14,3,3,,8,4731906,48.90325248503842,6.452500000000001,-9.439499999999999,https://github.com/CSSEGISandData/COVID-19,country,0.5490196078431373,Africa/Monrovia,iso1:LR,iso1:LR,,,,
Liechtenstein,country,,,,Liechtenstein,77,1,55,,21,37922,228.0648066890705,47.16,9.553999999999998,https://github.com/CSSEGISandData/COVID-19,country,0.5490196078431373,Europe/Vaduz,iso1:LI,iso1:LI,,,,
Lithuania,country,,,,Lithuania,843,15,8,,820,2794329,43.16276959813468,55.172,23.893,https://github.com/CSSEGISandData/COVID-19,country,0.5490196078431373,Europe/Vilnius,iso1:LT,iso1:LT,,,,
Luxembourg,country,,,,Luxembourg,2843,41,500,,2302,626108,240.58261106015817,49.8155,6.1335,https://github.com/CSSEGISandData/COVID-19,country,0.5490196078431373,Europe/Luxembourg,iso1:LU,iso1:LU,,,,
Madagascar,country,,,,Madagascar,82,0,2,,80,25570895,43.03178463731503,-18.7785,46.84,https://github.com/CSSEGISandData/COVID-19,country,0.5490196078431373,Indian/Antananarivo,iso1:MG,iso1:MG,,,,
Malaysia,country,,,,Malaysia,3793,62,1241,,2490,31624264,95.307842218683,4.1185,109.10249999999999,https://github.com/CSSEGISandData/COVID-19,country,0.5490196078431373,Etc/GMT-7,iso1:MY,iso1:MY,,,,
Maldives,country,,,,Maldives,19,0,13,,6,436330,26106.576894558333,3.2060000000000004,73.2025,https://github.com/CSSEGISandData/COVID-19,country,0.5490196078431373,Indian/Maldives,iso1:MV,iso1:MV,,,,
Malta,country,,,,Malta,241,0,5,,236,465292,1493.0139624174153,35.931,14.378,https://github.com/CSSEGISandData/COVID-19,country,0.5490196078431373,Europe/Malta,iso1:MT,iso1:MT,,,,
Mauritania,country,,,,Mauritania,6,1,2,,3,4420184,4.235866171369535,21.018,-10.950500000000002,https://github.com/CSSEGISandData/COVID-19,country,0.5490196078431373,Africa/Nouakchott,iso1:MR,iso1:MR,,,,
Mauritius,country,,,,Mauritius,244,7,7,,230,1264613,631.1748597647877,-15.434999999999999,60.043,https://github.com/CSSEGISandData/COVID-19,country,0.5490196078431373,Etc/GMT-4,iso1:MU,iso1:MU,,,,
Mexico,country,,,,Mexico,2143,94,633,,1416,130526945,66.62816271630622,23.6245,-102.54400000000001,https://github.com/CSSEGISandData/COVID-19,country,0.5490196078431373,America/Mexico_City,iso1:MX,iso1:MX,,,,
Moldova,country,,,,Moldova,965,19,37,,909,2550900,75.38831848879062,46.979,28.39,https://github.com/CSSEGISandData/COVID-19,country,0.5490196078431373,Europe/Chisinau,iso1:MD,iso1:MD,,,,
Monaco,country,,,,Monaco,77,1,4,,72,38695,,43.737,7.429,https://github.com/CSSEGISandData/COVID-19,country,0.5490196078431373,Europe/Monaco,iso1:MC,iso1:MC,,,,
Mongolia,country,,,,Mongolia,15,0,2,,13,3075647,1.9658217675733023,46.8655,103.832,https://github.com/CSSEGISandData/COVID-19,country,0.5490196078431373,Asia/Ulaanbaatar,iso1:MN,iso1:MN,,,,
Montenegro,country,,,,Montenegro,233,2,1,,230,622359,45.589213352088905,42.7035,19.395000000000003,https://github.com/CSSEGISandData/COVID-19,country,0.5490196078431373,Europe/Podgorica,iso1:ME,iso1:ME,,,,
Morocco,country,,,,Morocco,1120,80,81,,959,36029138,59.553722020294224,28.625500000000002,-9.015,https://github.com/CSSEGISandData/COVID-19,country,0.5490196078431373,Africa/Casablanca,iso1:MA,iso1:MA,,,,
Namibia,country,,,,Namibia,16,0,3,,13,2533794,3.060766451362878,-22.9665,18.4995,https://github.com/CSSEGISandData/COVID-19,country,0.5490196078431373,Africa/Windhoek,iso1:NA,iso1:NA,,,,
Nepal,country,,,,Nepal,9,0,1,,8,29400000,198.5919351528664,28.397,84.13,https://github.com/CSSEGISandData/COVID-19,country,0.5490196078431373,Asia/Kathmandu,iso1:NP,iso1:NP,,,,
Netherlands,country,,,,Netherlands,18803,1867,250,,16686,17100715,442.6347993086192,32.7635,-31.418499999999995,https://github.com/CSSEGISandData/COVID-19,country,0.5490196078431373,Etc/GMT+2,iso1:NL,iso1:NL,,,,
Nicaragua,country,,,,Nicaragua,6,1,0,,5,6217581,48.076382031585915,12.869,-85.2125,https://github.com/CSSEGISandData/COVID-19,country,0.5490196078431373,America/Managua,iso1:NI,iso1:NI,,,,
Niger,country,,,,Niger,253,10,26,,217,21477348,18.076516595351713,17.6055,8.083,https://github.com/CSSEGISandData/COVID-19,country,0.5490196078431373,Africa/Niamey,iso1:NE,iso1:NE,,,,
Nigeria,country,,,,Nigeria,238,5,35,,198,190886311,208.57782227714495,9.0785,8.6775,https://github.com/CSSEGISandData/COVID-19,country,0.5490196078431373,Africa/Lagos,iso1:NG,iso1:NG,,,,
North Macedonia,country,,,,North Macedonia,570,23,30,,517,2075301,82.97690036663633,41.614000000000004,21.7445,https://github.com/CSSEGISandData/COVID-19,country,0.5490196078431373,Europe/Skopje,iso1:MK,iso1:MK,,,,
Norway,country,,,,Norway,5865,76,32,,5757,5367580,14.08170703627759,13.181000000000001,12.214000000000002,https://github.com/CSSEGISandData/COVID-19,country,0.5490196078431373,Africa/Niamey,iso1:NO,iso1:NO,,,,
Oman,country,,,,Oman,331,2,61,,268,4829480,15.584287492246073,21.5785,55.9195,https://github.com/CSSEGISandData/COVID-19,country,0.5490196078431373,Asia/Muscat,iso1:OM,iso1:OM,,,,
Pakistan,country,,,,Pakistan,3766,53,259,,3454,197015955,226.50081620303797,30.393,68.992,https://github.com/CSSEGISandData/COVID-19,country,0.5490196078431373,Asia/Karachi,iso1:PK,iso1:PK,,,,
Panama,country,,,,Panama,1988,54,13,,1921,4098587,54.29674317595432,8.4245,-80.105,https://github.com/CSSEGISandData/COVID-19,country,0.5490196078431373,America/Panama,iso1:PA,iso1:PA,,,,
Papua New Guinea,country,,,,Papua New Guinea,2,0,0,,2,8251162,17.770071863036726,-6.202,150.166,https://github.com/CSSEGISandData/COVID-19,country,0.5490196078431373,Pacific/Port_Moresby,iso1:PG,iso1:PG,,,,
Paraguay,country,,,,Paraguay,113,5,12,,96,6811297,16.965892730407464,-23.447000000000003,-58.4525,https://github.com/CSSEGISandData/COVID-19,country,0.5490196078431373,America/Asuncion,iso1:PY,iso1:PY,,,,
Peru,country,,,,Peru,2561,92,997,,1472,32162184,24.830534997330876,-9.197500000000002,-74.99000000000001,https://github.com/CSSEGISandData/COVID-19,country,0.5490196078431373,America/Lima,iso1:PE,iso1:PE,,,,
Philippines,country,,,,Philippines,3660,163,73,,3424,104918090,355.62767056012416,12.850999999999999,120.4445,https://github.com/CSSEGISandData/COVID-19,country,0.5490196078431373,Asia/Manila,iso1:PH,iso1:PH,,,,
Poland,country,,,,Poland,4413,107,162,,4144,38433600,123.39184497625973,51.9185,19.1345,https://github.com/CSSEGISandData/COVID-19,country,0.5490196078431373,Europe/Warsaw,iso1:PL,iso1:PL,,,,
Portugal,country,,,,Portugal,11730,311,140,,11279,10600000,115.26997485508473,36.091,-18.732,https://github.com/CSSEGISandData/COVID-19,country,0.5490196078431373,Etc/GMT+1,iso1:PT,iso1:PT,,,,
Qatar,country,,,,Qatar,1832,4,131,,1697,2639211,227.13977360049117,25.3235,51.574,https://github.com/CSSEGISandData/COVID-19,country,0.5490196078431373,Asia/Qatar,iso1:QA,iso1:QA,,,,
Romania,country,,,,Romania,4057,176,406,,3475,19586539,82.17700874354908,45.942,25.0165,https://github.com/CSSEGISandData/COVID-19,country,0.5490196078431373,Europe/Bucharest,iso1:RO,iso1:RO,,,,
Russia,country,,,,Russia,6343,47,406,,5890,147500000,8.738297076361249,61.522,0,https://github.com/CSSEGISandData/COVID-19,country,0.5490196078431373,Etc/GMT,iso1:RU,iso1:RU,,,,
Rwanda,country,,,,Rwanda,105,0,4,,101,12208407,500.7951968130646,-1.947,29.880499999999998,https://github.com/CSSEGISandData/COVID-19,country,0.5490196078431373,Africa/Kigali,iso1:RW,iso1:RW,,,,
Saint Lucia,country,,,,Saint Lucia,14,0,1,,13,178844,300.9737000694336,13.9095,-60.9765,https://github.com/CSSEGISandData/COVID-19,country,0.5490196078431373,America/St_Lucia,iso1:LC,iso1:LC,,,,
Saint Vincent and the Grenadines,country,,,,Saint Vincent and the Grenadines,7,0,1,,6,109897,306.64506307448687,12.957,-61.284,https://github.com/CSSEGISandData/COVID-19,country,0.5490196078431373,America/St_Vincent,iso1:VC,iso1:VC,,,,
San Marino,country,,,,San Marino,266,32,35,,199,33400,546.4605734267759,43.944,12.4595,https://github.com/CSSEGISandData/COVID-19,country,0.5490196078431373,Europe/San_Marino,iso1:SM,iso1:SM,,,,
Saudi Arabia,country,,,,Saudi Arabia,2605,38,551,,2016,33000000,17.073766581440694,24.267000000000003,45.084500000000006,https://github.com/CSSEGISandData/COVID-19,country,0.5490196078431373,Asia/Riyadh,iso1:SA,iso1:SA,,,,
Senegal,country,,,,Senegal,226,2,92,,132,15850567,80.13993539014866,14.502500000000001,-14.4435,https://github.com/CSSEGISandData/COVID-19,country,0.5490196078431373,Africa/Dakar,iso1:SN,iso1:SN,,,,
Serbia,country,,,,Serbia,2200,58,0,,2142,7022268,90.47032130952799,44.209999999999994,20.91,https://github.com/CSSEGISandData/COVID-19,country,0.5490196078431373,Europe/Belgrade,iso1:RS,iso1:RS,,,,
Seychelles,country,,,,Seychelles,11,0,0,,11,95843,273.64091416851545,-6.9704999999999995,51.2465,https://github.com/CSSEGISandData/COVID-19,country,0.5490196078431373,Etc/GMT-3,iso1:SC,iso1:SC,,,,
Singapore,country,,,,Singapore,1375,6,344,,1025,5888926,8260.101793548945,1.3135,104.009,https://github.com/CSSEGISandData/COVID-19,country,0.5490196078431373,Asia/Singapore,iso1:SG,iso1:SG,,,,
Slovakia,country,,,,Slovakia,534,2,8,,524,5439892,111.03119623420321,48.6725,19.7045,https://github.com/CSSEGISandData/COVID-19,country,0.5490196078431373,Europe/Bratislava,iso1:SK,iso1:SK,,,,
Slovenia,country,,,,Slovenia,1021,30,102,,889,2066880,102.06635384418074,46.149,14.986,https://github.com/CSSEGISandData/COVID-19,country,0.5490196078431373,Europe/Ljubljana,iso1:SI,iso1:SI,,,,
Somalia,country,,,,Somalia,7,0,1,,6,11031386,17.245113634640063,5.160500000000001,46.201499999999996,https://github.com/CSSEGISandData/COVID-19,country,0.5490196078431373,Africa/Mogadishu,iso1:SO,iso1:SO,,,,
South Africa,country,,,,South Africa,1686,12,95,,1579,57725600,47.142594526189264,-34.553,27.2265,https://github.com/CSSEGISandData/COVID-19,country,0.5490196078431373,Etc/GMT-2,iso1:ZA,iso1:ZA,,,,
Sri Lanka,country,,,,Sri Lanka,178,5,38,,135,21444000,322.4993294470363,7.8775,80.701,https://github.com/CSSEGISandData/COVID-19,country,0.5490196078431373,Asia/Colombo,iso1:LK,iso1:LK,,,,
Sudan,country,,,,Sudan,12,2,2,,8,40533330,21.76259662568171,15.413,30.33,https://github.com/CSSEGISandData/COVID-19,country,0.5490196078431373,Africa/Khartoum,iso1:SD,iso1:SD,,,,
Suriname,country,,,,Suriname,10,1,0,,9,563402,3.843920751005786,3.9210000000000003,-56.022999999999996,https://github.com/CSSEGISandData/COVID-19,country,0.5490196078431373,America/Paramaribo,iso1:SR,iso1:SR,,,,
Sweden,country,,,,Sweden,7206,477,205,,6524,10327589,23.123190378622876,62.1995,17.562,https://github.com/CSSEGISandData/COVID-19,country,0.5490196078431373,Europe/Stockholm,iso1:SE,iso1:SE,,,,
Switzerland,country,,,,Switzerland,21657,765,8056,,12836,8466017,207.68400188612026,46.811499999999995,8.228000000000002,https://github.com/CSSEGISandData/COVID-19,country,0.5490196078431373,Europe/Zurich,iso1:CH,iso1:CH,,,,
Taiwan,country,,,,Taiwan,373,5,57,,311,23593794,646.0214179332431,18.3855,118.26050000000001,https://github.com/CSSEGISandData/COVID-19,country,0.5490196078431373,Etc/GMT-8,iso1:TW,iso1:TW,,,,
Tanzania,country,,,,Tanzania,24,1,3,,20,57310019,63.850484598835884,-6.3735,35.0205,https://github.com/CSSEGISandData/COVID-19,country,0.5490196078431373,Africa/Dar_es_Salaam,iso1:TZ,iso1:TZ,,,,
Thailand,country,,,,Thailand,2220,26,793,,1401,66188503,127.79412463950074,13.039,101.4905,https://github.com/CSSEGISandData/COVID-19,country,0.5490196078431373,Asia/Bangkok,iso1:TH,iso1:TH,,,,
Togo,country,,,,Togo,58,3,23,,32,7797694,136.13084426392066,8.626000000000001,0.828,https://github.com/CSSEGISandData/COVID-19,country,0.5490196078431373,Africa/Lome,iso1:TG,iso1:TG,,,,
Trinidad and Tobago,country,,,,Trinidad and Tobago,105,8,1,,96,1369125,263.5783011327031,10.703,-61.213,https://github.com/CSSEGISandData/COVID-19,country,0.5490196078431373,America/Port_of_Spain,iso1:TT,iso1:TT,,,,
Tunisia,country,,,,Tunisia,596,22,5,,569,11565204,74.28939434119219,33.8925,9.561,https://github.com/CSSEGISandData/COVID-19,country,0.5490196078431373,Africa/Tunis,iso1:TN,iso1:TN,,,,
Turkey,country,,,,Turkey,30217,649,1326,,28242,82003882,104.96430044551806,38.9565,35.2415,https://github.com/CSSEGISandData/COVID-19,country,0.5490196078431373,Europe/Istanbul,iso1:TR,iso1:TR,,,,
Uganda,country,,,,Uganda,52,0,0,,52,42862958,203.84177786759412,1.376,32.286500000000004,https://github.com/CSSEGISandData/COVID-19,country,0.5490196078431373,Africa/Kampala,iso1:UG,iso1:UG,,,,
Ukraine,country,,,,Ukraine,1319,38,28,,1253,42558328,74.36823884017983,48.7805,31.183,https://github.com/CSSEGISandData/COVID-19,country,0.5490196078431373,Europe/Kiev,iso1:UA,iso1:UA,,,,
United Arab Emirates,country,,,,United Arab Emirates,2076,11,167,,1898,9400145,132.2353186499572,24.351,53.939,https://github.com/CSSEGISandData/COVID-19,country,0.5490196078431373,Asia/Dubai,iso1:AE,iso1:AE,,,,
United Kingdom,country,,,,United Kingdom,51608,5373,135,,46100,66022273,270.5768370475989,55.354,-3.4414999999999996,https://github.com/CSSEGISandData/COVID-19,country,0.5490196078431373,Europe/London,iso1:GB,iso1:GB,,,,
Uruguay,country,,,,Uruguay,406,6,104,,296,3456750,19.484723200079078,-32.558,-55.838,https://github.com/CSSEGISandData/COVID-19,country,0.5490196078431373,America/Montevideo,iso1:UY,iso1:UY,,,,
Uzbekistan,country,,,,Uzbekistan,457,2,30,,425,32387200,72.8897487607019,41.3865,64.5695,https://github.com/CSSEGISandData/COVID-19,country,0.5490196078431373,Asia/Samarkand,iso1:UZ,iso1:UZ,,,,
Venezuela,country,,,,Venezuela,165,7,65,,93,28515829,31.062304587199595,8.161,-66.574,https://github.com/CSSEGISandData/COVID-19,country,0.5490196078431373,America/Caracas,iso1:VE,iso1:VE,,,,
Vietnam,country,,,,Vietnam,245,0,95,,150,94660000,286.6062953805856,15.6425,108.2365,https://github.com/CSSEGISandData/COVID-19,country,0.5490196078431373,Asia/Ho_Chi_Minh,iso1:VN,iso1:VN,,,,
Zambia,country,,,,Zambia,39,1,5,,33,17094130,22.86070120500297,-13.185500000000001,27.8365,https://github.com/CSSEGISandData/COVID-19,country,0.5490196078431373,Africa/Lusaka,iso1:ZM,iso1:ZM,,,,
Zimbabwe,country,,,,Zimbabwe,10,1,0,,9,16529904,42.41625613090926,-19.017,29.1505,https://github.com/CSSEGISandData/COVID-19,country,0.5490196078431373,Africa/Harare,iso1:ZW,iso1:ZW,,,,
Dominica,country,,,,Dominica,15,0,1,,14,73925,98.27057286245625,15.4245,-61.3605,https://github.com/CSSEGISandData/COVID-19,country,0.5490196078431373,America/Dominica,iso1:DM,iso1:DM,,,,
Grenada,country,,,,Grenada,12,0,0,,12,107825,309.09388886018206,12.258,-61.591499999999996,https://github.com/CSSEGISandData/COVID-19,country,0.5490196078431373,America/Grenada,iso1:GD,iso1:GD,,,,
Mozambique,country,,,,Mozambique,10,0,1,,9,29668834,37.7918487748975,-18.671,35.5255,https://github.com/CSSEGISandData/COVID-19,country,0.5490196078431373,Africa/Maputo,iso1:MZ,iso1:MZ,,,,
Syria,country,,,,Syria,19,2,2,,15,18499181,98.92713382809433,34.798500000000004,39.0535,https://github.com/CSSEGISandData/COVID-19,country,0.5490196078431373,Asia/Damascus,iso1:SY,iso1:SY,,,,
East Timor,country,,,,East Timor,1,0,0,,1,1296311,86.59596902125584,-8.818000000000001,125.68700000000001,https://github.com/CSSEGISandData/COVID-19,country,0.5490196078431373,Asia/Dili,iso1:TL,iso1:TL,,,,
Belize,country,,,,Belize,7,1,0,,6,374681,17.04961500443103,17.192,-88.3575,https://github.com/CSSEGISandData/COVID-19,country,0.5490196078431373,America/Belize,iso1:BZ,iso1:BZ,,,,
Laos,country,,,,Laos,12,0,0,,12,6858160,29.70521534068456,18.2095,103.86,https://github.com/CSSEGISandData/COVID-19,country,0.5490196078431373,Asia/Bangkok,iso1:LA,iso1:LA,,,,
Libya,country,,,,Libya,19,1,1,,17,6678567,4.125660646705484,26.334000000000003,17.2685,https://github.com/CSSEGISandData/COVID-19,country,0.5490196078431373,Africa/Tripoli,iso1:LY,iso1:LY,,,,
Palestinian Territories,country,,,,Palestinian Territories,254,1,24,,229,4684777,779.5212010469186,31.886,34.894999999999996,https://github.com/CSSEGISandData/COVID-19,country,0.5490196078431373,Asia/Jerusalem,iso1:PS,iso1:PS,,,,
Guinea-Bissau,country,,,,Guinea-Bissau,18,0,0,,18,1861283,53.80281532643012,11.775500000000001,-15.176499999999999,https://github.com/CSSEGISandData/COVID-19,country,0.5490196078431373,Africa/Bissau,iso1:GW,iso1:GW,,,,
Mali,country,,,,Mali,47,5,9,,33,18541980,14.722801995911366,17.5745,-3.9865,https://github.com/CSSEGISandData/COVID-19,country,0.5490196078431373,Africa/Bamako,iso1:ML,iso1:ML,,,,
Saint Kitts and Nevis,country,,,,Saint Kitts and Nevis,10,0,0,,10,55345,225.9360385720303,17.2565,-62.704499999999996,https://github.com/CSSEGISandData/COVID-19,country,0.5490196078431373,America/St_Kitts,iso1:KN,iso1:KN,,,,
Kosovo,country,,,,Kosovo,145,1,23,,121,1883018,172.37339863986728,42.5625,20.902,https://github.com/CSSEGISandData/COVID-19,country,0.5490196078431373,Europe/Belgrade,iso1:XK,iso1:XK,,,,
Myanmar,country,,,,Myanmar,22,1,0,,21,53370609,79.59589413794004,19.072499999999998,96.669,https://github.com/CSSEGISandData/COVID-19,country,0.5490196078431373,Asia/Yangon,iso1:MM,iso1:MM,,,,
Botswana,country,,,,Botswana,6,1,0,,5,2291661,3.94467154942583,-22.342,24.686999999999998,https://github.com/CSSEGISandData/COVID-19,country,0.5490196078431373,Africa/Gaborone,iso1:BW,iso1:BW,,,,
Burundi,country,,,,Burundi,3,0,0,,3,10864245,432.32832436702626,-3.386,29.9255,https://github.com/CSSEGISandData/COVID-19,country,0.5490196078431373,Africa/Bujumbura,iso1:BI,iso1:BI,,,,
Sierra Leone,country,,,,Sierra Leone,6,0,0,,6,7557212,103.41009428852941,8.461,-11.786999999999999,https://github.com/CSSEGISandData/COVID-19,country,0.5490196078431373,Africa/Freetown,iso1:SL,iso1:SL,,,,
Malawi,country,,,,Malawi,5,0,0,,5,18622104,193.54535743783094,-13.248999999999999,34.2945,https://github.com/CSSEGISandData/COVID-19,country,0.5490196078431373,Africa/Blantyre,iso1:MW,iso1:MW,,,,
South Sudan,country,,,,South Sudan,1,0,0,,1,12575714,19.129482753012432,7.865,29.698999999999998,https://github.com/CSSEGISandData/COVID-19,country,0.5490196078431373,Africa/Juba,iso1:SS,iso1:SS,,,,
Sahrawi Arab Democratic Republic,country,,,,Sahrawi Arab Democratic Republic,4,0,0,,4,502585,6.239039053788593,24.2185,-12.885000000000002,https://github.com/CSSEGISandData/COVID-19,country,0.5490196078431373,Africa/El_Aaiun,iso1:EH,iso1:EH,,,,
São Tomé and Príncipe,country,,,,São Tomé and Príncipe,4,0,0,,4,204327,202.04707830200238,0.8625,6.9645,https://github.com/CSSEGISandData/COVID-19,country,0.5490196078431373,Africa/Sao_Tome,iso1:ST,iso1:ST,,,,
China,country,,,,China,81707,3331,77084,,1292,1409517397,150.40578159855755,31.107499999999998,104.1375,https://github.com/CSSEGISandData/COVID-19,state,0.5490196078431373,Asia/Shanghai,iso1:CN,iso1:CN,,,,
"Tasmania, Australia",state,,,Tasmania,Australia,85,,,,,509965,7.461337290347817,-47.156,151.40699999999998,https://www.health.gov.au/news/health-alerts/novel-coronavirus-2019-ncov-health-alert/coronavirus-covid-19-current-situation-and-case-numbers,state,0.3137254901960784,Etc/GMT-10,iso2:AU-TAS,iso1:AU,iso2:AU-TAS,,,
Australia,country,,,,Australia,5844,,,,,24511800,3.175646137713549,-32.128,120.28800000000001,https://www.health.gov.au/news/health-alerts/novel-coronavirus-2019-ncov-health-alert/coronavirus-covid-19-current-situation-and-case-numbers,state,0.27450980392156865,Australia/Perth,iso1:AU,iso1:AU,,,,
"AC, Brazil",state,,,AC,Brazil,50,0,,,,881935,,-9.121958699499913,-70.31670546006357,https://covid.saude.gov.br/,state,0.5098039215686274,America/Rio_Branco,251,iso1:BR,,,,
"AL, Brazil",state,,,AL,Brazil,31,2,,,,3337357,,-9.66813364038606,-36.69176762624364,https://covid.saude.gov.br/,state,0.5098039215686274,America/Maceio,252,iso1:BR,,,,
"AP, Brazil",state,,,AP,Brazil,34,2,,,,845731,,1.6322509422846565,-52.330210155520206,https://covid.saude.gov.br/,state,0.5098039215686274,America/Belem,253,iso1:BR,,,,
"AM, Brazil",state,,,AM,Brazil,532,19,,,,4144597,,-3.801031659031324,-65.09820771798518,https://covid.saude.gov.br/,state,0.5098039215686274,America/Manaus,254,iso1:BR,,,,
"BA, Brazil",state,,,BA,Brazil,431,10,,,,14873064,,-13.428636359280546,-42.00270718030532,https://covid.saude.gov.br/,state,0.5098039215686274,America/Bahia,255,iso1:BR,,,,
"CE, Brazil",state,,,CE,Brazil,1013,29,,,,9132078,,-5.320150038402943,-39.34288443632698,https://covid.saude.gov.br/,state,0.5098039215686274,America/Fortaleza,256,iso1:BR,,,,
"DF, Brazil",state,,,DF,Brazil,473,10,,,,3015268,,-15.764954725480209,-47.79019110808315,https://covid.saude.gov.br/,state,0.5098039215686274,America/Sao_Paulo,257,iso1:BR,,,,
"ES, Brazil",state,,,ES,Brazil,194,6,,,,4018650,,-19.583987593752454,-40.768499482415194,https://covid.saude.gov.br/,state,0.5098039215686274,America/Sao_Paulo,258,iso1:BR,,,,
"GO, Brazil",state,,,GO,Brazil,119,5,,,,7018354,,-15.936701348488441,-49.57789852549655,https://covid.saude.gov.br/,state,0.5098039215686274,America/Sao_Paulo,259,iso1:BR,,,,
"MA, Brazil",state,,,MA,Brazil,133,2,,,,7075181,,-5.739146620286533,-45.273975185456436,https://covid.saude.gov.br/,state,0.5098039215686274,America/Fortaleza,260,iso1:BR,,,,
"MT, Brazil",state,,,MT,Brazil,76,1,,,,3484466,,-12.685375257861864,-55.92350865614955,https://covid.saude.gov.br/,state,0.5098039215686274,America/Cuiaba,261,iso1:BR,,,,
"MS, Brazil",state,,,MS,Brazil,66,1,,,,2778986,,-20.618883874041558,-54.559985008967104,https://covid.saude.gov.br/,state,0.5098039215686274,America/Campo_Grande,262,iso1:BR,,,,
"MG, Brazil",state,,,MG,Brazil,525,9,,,,21168791,,-18.569305515387242,-45.44658738839726,https://covid.saude.gov.br/,state,0.5098039215686274,America/Sao_Paulo,263,iso1:BR,,,,
"PR, Brazil",state,,,PR,Brazil,458,11,,,,11433957,,-24.601107883122296,-51.32115169669102,https://covid.saude.gov.br/,state,0.5098039215686274,America/Sao_Paulo,264,iso1:BR,,,,
"PB, Brazil",state,,,PB,Brazil,35,4,,,,4018127,,-7.154162489157557,-36.764700791862396,https://covid.saude.gov.br/,state,0.5098039215686274,America/Fortaleza,265,iso1:BR,,,,
"PA, Brazil",state,,,PA,Brazil,102,3,,,,11433957,,-3.626695330355169,-52.52830438760455,https://covid.saude.gov.br/,state,0.5098039215686274,America/Santarem,266,iso1:BR,,,,
"PE, Brazil",state,,,PE,Brazil,223,30,,,,9557071,,-8.378092949979674,-38.08805322348826,https://covid.saude.gov.br/,state,0.5098039215686274,America/Recife,267,iso1:BR,,,,
"PI, Brazil",state,,,PI,Brazil,23,4,,,,3273227,,-6.830773613917813,-43.19888220914663,https://covid.saude.gov.br/,state,0.5098039215686274,America/Fortaleza,268,iso1:BR,,,,
"RN, Brazil",state,,,RN,Brazil,246,7,,,,3506853,,-5.902948951918576,-36.77516515873181,https://covid.saude.gov.br/,state,0.5098039215686274,America/Fortaleza,269,iso1:BR,,,,
"RS, Brazil",state,,,RS,Brazil,481,7,,,,11377239,,-30.406333313679497,-53.65568620171301,https://covid.saude.gov.br/,state,0.5098039215686274,America/Sao_Paulo,270,iso1:BR,,,,
"RJ, Brazil",state,,,RJ,Brazil,1461,71,,,,17264943,,-22.06503752988857,-42.912834105494625,https://covid.saude.gov.br/,state,0.5098039215686274,America/Sao_Paulo,271,iso1:BR,,,,
"RO, Brazil",state,,,RO,Brazil,14,1,,,,1777225,,-10.831668929677392,-63.32729183604937,https://covid.saude.gov.br/,state,0.5098039215686274,America/Porto_Velho,272,iso1:BR,,,,
"RR, Brazil",state,,,RR,Brazil,42,1,,,,60576,,1.9338620027494215,-61.83588456621507,https://covid.saude.gov.br/,state,0.5098039215686274,America/Boa_Vista,273,iso1:BR,,,,
"SC, Brazil",state,,,SC,Brazil,379,10,,,,7164788,,-27.65149708429871,-51.10965735219543,https://covid.saude.gov.br/,state,0.5098039215686274,America/Sao_Paulo,274,iso1:BR,,,,
"SE, Brazil",state,,,SE,Brazil,32,4,,,,2298696,,-10.542973727655408,-37.32497127995194,https://covid.saude.gov.br/,state,0.5098039215686274,America/Maceio,275,iso1:BR,,,,
"SP, Brazil",state,,,SP,Brazil,4866,304,,,,45919049,,-22.549618393174313,-48.6671272450763,https://covid.saude.gov.br/,state,0.5098039215686274,America/Sao_Paulo,276,iso1:BR,,,,
"TO, Brazil",state,,,TO,Brazil,17,0,,,,1572866,,-9.258995252778703,-48.25017595025989,https://covid.saude.gov.br/,state,0.5098039215686274,America/Araguaina,277,iso1:BR,,,,
Brazil,country,,,,Brazil,12056,553,,,,208494900,24.366254980308863,-14.2375,-51.4155,https://covid.saude.gov.br/,state,0.47058823529411764,America/Cuiaba,iso1:BR,iso1:BR,,,,
"British Columbia, Canada",state,,,British Columbia,Canada,1266,39,,,,4841078,5.1211447351312485,54.150000000000006,-126.56,https://health-infobase.canada.ca/src/data/covidLive/covid19.csv,state,0.4117647058823529,America/Vancouver,iso2:CA-BC,iso1:CA,iso2:CA-BC,,,
"Alberta, Canada",state,,,Alberta,Canada,1348,24,,,,4306039,6.508808220798176,54.4985,-115.003,https://health-infobase.canada.ca/src/data/covidLive/covid19.csv,state,0.4117647058823529,America/Edmonton,iso2:CA-AB,iso1:CA,iso2:CA-AB,,,
"Saskatchewan, Canada",state,,,Saskatchewan,Canada,253,3,,,,1168057,1.7942466354660291,54.4995,-105.684,https://health-infobase.canada.ca/src/data/covidLive/covid19.csv,state,0.4117647058823529,America/Regina,iso2:CA-SK,iso1:CA,iso2:CA-SK,,,
"Manitoba, Canada",state,,,Manitoba,Canada,190,2,,,,1343371,2.069321212153181,54.499,-95.4995,https://health-infobase.canada.ca/src/data/covidLive/covid19.csv,state,0.4117647058823529,America/Winnipeg,iso2:CA-MB,iso1:CA,iso2:CA-MB,,,
"Ontario, Canada",state,,,Ontario,Canada,4347,132,,,,14279196,14.46094145134689,49.2705,-84.737,https://health-infobase.canada.ca/src/data/covidLive/covid19.csv,state,0.4117647058823529,America/Toronto,iso2:CA-ON,iso1:CA,iso2:CA-ON,,,
"Quebec, Canada",state,,,Quebec,Canada,8580,121,,,,8484965,5.636831217370655,53.7855,-68.423,https://health-infobase.canada.ca/src/data/covidLive/covid19.csv,state,0.4117647058823529,America/Toronto,iso2:CA-QC,iso1:CA,iso2:CA-QC,,,
"Newfoundland and Labrador, Canada",state,,,Newfoundland and Labrador,Canada,226,2,,,,528430,1.3072251356161515,53.4945,-60.219,https://health-infobase.canada.ca/src/data/covidLive/covid19.csv,state,0.4117647058823529,America/Goose_Bay,iso2:CA-NL,iso1:CA,iso2:CA-NL,,,
"New Brunswick, Canada",state,,,New Brunswick,Canada,103,0,,,,760868,10.430296262399166,46.3245,-66.411,https://health-infobase.canada.ca/src/data/covidLive/covid19.csv,state,0.4117647058823529,America/Moncton,iso2:CA-NB,iso1:CA,iso2:CA-NB,,,
"Nova Scotia, Canada",state,,,Nova Scotia,Canada,293,0,,,,957600,17.313791252891534,45.307,-63.025999999999996,https://health-infobase.canada.ca/src/data/covidLive/covid19.csv,state,0.4117647058823529,America/Halifax,iso2:CA-NS,iso1:CA,iso2:CA-NS,,,
"Prince Edward Island, Canada",state,,,Prince Edward Island,Canada,22,0,,,,152784,26.535828339757867,46.507999999999996,-63.191500000000005,https://health-infobase.canada.ca/src/data/covidLive/covid19.csv,state,0.4117647058823529,America/Halifax,iso2:CA-PE,iso1:CA,iso2:CA-PE,,,
"Yukon, Canada",state,,,Yukon,Canada,7,0,,,,38669,0.08028912396734325,64.8205,-132.4065,https://health-infobase.canada.ca/src/data/covidLive/covid19.csv,state,0.4117647058823529,America/Yellowknife,iso2:CA-YT,iso1:CA,iso2:CA-YT,,,
"Northwest Territories, Canada",state,,,Northwest Territories,Canada,5,0,,,,44718,0.033309922182710824,69.4,-119.224,https://health-infobase.canada.ca/src/data/covidLive/covid19.csv,state,0.4117647058823529,America/Cambridge_Bay,iso2:CA-NT,iso1:CA,iso2:CA-NT,,,
"Nunavut, Canada",state,,,Nunavut,Canada,0,0,,,,38243,0.018390732537514762,67.15299999999999,-90.887,https://health-infobase.canada.ca/src/data/covidLive/covid19.csv,state,0.4117647058823529,America/Cambridge_Bay,iso2:CA-NU,iso1:CA,iso2:CA-NU,,,
Canada,country,,,,Canada,16653,323,,,,36708083,3.7299350784045093,62.414,-96.81200000000001,https://health-infobase.canada.ca/src/data/covidLive/covid19.csv,state,0.37254901960784315,America/Rankin_Inlet,iso1:CA,iso1:CA,,,,
"Zurich, Switzerland",county,,Zurich,,Switzerland,2590,48,0,,2542,1520968,874.5594612083258,47.427499999999995,8.6715,https://raw.githubusercontent.com/openZH/covid_19/master/fallzahlen_kanton_total_csv/COVID19_Fallzahlen_Kanton_ZH_total.csv,,0.5490196078431373,Europe/Zurich,iso2:CH-ZH,iso1:CH,,iso2:CH-ZH,,
"Andalusia, Spain",state,,,Andalusia,Spain,8581,491,798,,7292,8409738,95.85272557573485,37.334,-4.5725,https://github.com/datadista/datasets/tree/master/COVID%2019,state,0.6274509803921569,Europe/Madrid,iso2:ES-AN,iso1:ES,iso2:ES-AN,,,
"Aragon, Spain",state,,,Aragon,Spain,3347,284,565,,2498,1324397,27.720739661774214,41.3845,-0.701,https://github.com/datadista/datasets/tree/master/COVID%2019,state,0.6274509803921569,Europe/Madrid,iso2:ES-AR,iso1:ES,iso2:ES-AR,,,
"Asturias, Spain",state,,,Asturias,Spain,1646,86,222,,1338,1028244,96.89655527964271,43.272999999999996,-5.8445,https://github.com/datadista/datasets/tree/master/COVID%2019,state,0.6274509803921569,Europe/Madrid,iso2:ES-AS,iso1:ES,iso2:ES-AS,,,
"Balearic Islands, Spain",state,,,Balearic Islands,Spain,1320,81,531,,708,1150839,230.46324494921916,39.3675,2.734,https://github.com/datadista/datasets/tree/master/COVID%2019,state,0.6274509803921569,Europe/Madrid,iso2:ES-IB,iso1:ES,iso2:ES-IB,,,
"Canary Islands, Spain",state,,,Canary Islands,Spain,1649,85,157,,1407,2127685,285.1938217315716,28.5255,-15.75,https://github.com/datadista/datasets/tree/master/COVID%2019,state,0.6274509803921569,Etc/GMT+1,iso2:ES-CN,iso1:ES,iso2:ES-CN,,,
"Cantabria, Spain",state,,,Cantabria,Spain,1483,77,118,,1288,580229,108.83115249828475,43.1355,-4.002,https://github.com/datadista/datasets/tree/master/COVID%2019,state,0.6274509803921569,Europe/Madrid,iso2:ES-CB,iso1:ES,iso2:ES-CB,,,
"Castile-La Mancha, Spain",state,,,Castile-La Mancha,Spain,10602,1132,1259,,8211,2106331,26.481202980357033,39.6755,-3.161,https://github.com/datadista/datasets/tree/master/COVID%2019,state,0.6274509803921569,Europe/Madrid,iso2:ES-CM,iso1:ES,iso2:ES-CM,,,
"Castile and León, Spain",state,,,Castile and León,Spain,9116,919,2533,,5664,2418694,25.659203426061918,41.66,-4.426,https://github.com/datadista/datasets/tree/master/COVID%2019,state,0.6274509803921569,Europe/Madrid,iso2:ES-CL,iso1:ES,iso2:ES-CL,,,
"Catalonia, Spain",state,,,Catalonia,Spain,26824,2760,10088,,13976,7619494,237.04148617078184,41.6925,1.746,https://github.com/datadista/datasets/tree/master/COVID%2019,state,0.6274509803921569,Europe/Madrid,iso2:ES-CT,iso1:ES,iso2:ES-CT,,,
"Ceuta, Spain",state,,,Ceuta,Spain,83,3,2,,78,84777,9021.596722065347,35.891999999999996,-5.3495,https://github.com/datadista/datasets/tree/master/COVID%2019,state,0.6274509803921569,Africa/Ceuta,iso2:ES-CE,iso1:ES,iso2:ES-CE,,,
"Valencian Community, Spain",state,,,Valencian Community,Spain,7334,637,930,,5767,5003769,214.46461227177505,39.316500000000005,-0.4195,https://github.com/datadista/datasets/tree/master/COVID%2019,state,0.6274509803921569,Europe/Madrid,iso2:ES-VC,iso1:ES,iso2:ES-VC,,,
"Extremadura, Spain",state,,,Extremadura,Spain,2068,228,223,,1617,1070586,25.670721280940523,39.213499999999996,-6.096,https://github.com/datadista/datasets/tree/master/COVID%2019,state,0.6274509803921569,Europe/Madrid,iso2:ES-EX,iso1:ES,iso2:ES-EX,,,
"Galicia, Spain",state,,,Galicia,Spain,6151,190,610,,5351,2703290,91.3767321968267,42.792,-8.0175,https://github.com/datadista/datasets/tree/master/COVID%2019,state,0.6274509803921569,Europe/Madrid,iso2:ES-GA,iso1:ES,iso2:ES-GA,,,
"Community of Madrid, Spain",state,,,Community of Madrid,Spain,38723,5136,17322,,16265,6661949,830.8463058477915,40.5255,-3.816,https://github.com/datadista/datasets/tree/master/COVID%2019,state,0.6274509803921569,Europe/Madrid,iso2:ES-MD,iso1:ES,iso2:ES-MD,,,
"Melilla, Spain",state,,,Melilla,Spain,86,2,11,,73,86487,10845.323228033423,35.296,-2.9495,https://github.com/datadista/datasets/tree/master/COVID%2019,state,0.6274509803921569,Africa/Ceuta,iso2:ES-ML,iso1:ES,iso2:ES-ML,,,
"Region of Murcia, Spain",state,,,Region of Murcia,Spain,1259,68,156,,1035,1478509,130.67832778737693,38.065,-1.4955,https://github.com/datadista/datasets/tree/master/COVID%2019,state,0.6274509803921569,Europe/Madrid,iso2:ES-MC,iso1:ES,iso2:ES-MC,,,
"Navarre, Spain",state,,,Navarre,Spain,3231,187,380,,2664,647554,62.3264579614637,42.6125,-1.6065,https://github.com/datadista/datasets/tree/master/COVID%2019,state,0.6274509803921569,Europe/Madrid,iso2:ES-NC,iso1:ES,iso2:ES-NC,,,
"Basque Country, Spain",state,,,Basque Country,Spain,8810,548,3568,,4694,2167707,297.0227658821682,42.968,-2.59,https://github.com/datadista/datasets/tree/master/COVID%2019,state,0.6274509803921569,Europe/Madrid,iso2:ES-PV,iso1:ES,iso2:ES-PV,,,
"Rioja, Spain",state,,,Rioja,Spain,2719,141,964,,1614,315675,62.51306213876896,42.281499999999994,-2.4065,https://github.com/datadista/datasets/tree/master/COVID%2019,state,0.6274509803921569,Europe/Madrid,iso2:ES-RI,iso1:ES,iso2:ES-RI,,,
Spain,country,,,,Spain,135032,13055,40437,,81540,46733038,92.25117224677774,35.712,-6.925500000000001,https://github.com/datadista/datasets/tree/master/COVID%2019,state,0.5882352941176471,Etc/GMT,iso1:ES,iso1:ES,,,,
"Île-de-France, France",state,,,Île-de-France,France,,2355,5597,,,12246234,,48.677200741510504,2.5014494346077,https://raw.githubusercontent.com/opencovid19-fr/data/master/dist/chiffres-cles.csv,,0.47058823529411764,Europe/Paris,314,iso1:FR,,,,
"Centre-Val de Loire, France",state,,,Centre-Val de Loire,France,,132,329,,,2582522,,47.6441333322795,1.590863237499439,https://raw.githubusercontent.com/opencovid19-fr/data/master/dist/chiffres-cles.csv,,0.47058823529411764,Europe/Paris,315,iso1:FR,,,,
"Bourgogne-Franche-Comté, France",state,,,Bourgogne-Franche-Comté,France,,367,986,,,2813289,,47.2783252914275,4.99249435788615,https://raw.githubusercontent.com/opencovid19-fr/data/master/dist/chiffres-cles.csv,,0.47058823529411764,Europe/Paris,316,iso1:FR,,,,
"Normandie, France",state,,,Normandie,France,,127,338,,,3342467,,49.126225630674995,-0.07229962564034997,https://raw.githubusercontent.com/opencovid19-fr/data/master/dist/chiffres-cles.csv,,0.47058823529411764,Europe/Paris,317,iso1:FR,,,,
"Hauts-de-France, France",state,,,Hauts-de-France,France,,577,1219,,,6023336,,49.963169589436,2.81688101494355,https://raw.githubusercontent.com/opencovid19-fr/data/master/dist/chiffres-cles.csv,,0.47058823529411764,Europe/Paris,318,iso1:FR,,,,
"Grand Est, France",state,,,Grand Est,France,,1574,3115,,,5548090,,48.795257936556,5.80937857149355,https://raw.githubusercontent.com/opencovid19-fr/data/master/dist/chiffres-cles.csv,,0.47058823529411764,Europe/Paris,319,iso1:FR,,,,
"Pays de la Loire, France",state,,,Pays de la Loire,France,,134,456,,,3787411,,47.417280519696504,-0.822573383953075,https://raw.githubusercontent.com/opencovid19-fr/data/master/dist/chiffres-cles.csv,,0.47058823529411764,Europe/Paris,320,iso1:FR,,,,
"Bretagne, France",state,,,Bretagne,France,,88,296,,,3336643,,48.075240635677,-3.07744531834385,https://raw.githubusercontent.com/opencovid19-fr/data/master/dist/chiffres-cles.csv,,0.47058823529411764,Europe/Paris,321,iso1:FR,,,,
"Nouvelle-Aquitaine, France",state,,,Nouvelle-Aquitaine,France,,138,610,,,5994336,,44.976635108258,0.40994910693179987,https://raw.githubusercontent.com/opencovid19-fr/data/master/dist/chiffres-cles.csv,,0.47058823529411764,Europe/Paris,322,iso1:FR,,,,
"Occitanie, France",state,,,Occitanie,France,,172,803,,,5903190,,43.689961371314496,2.25923388136695,https://raw.githubusercontent.com/opencovid19-fr/data/master/dist/chiffres-cles.csv,,0.47058823529411764,Europe/Paris,323,iso1:FR,,,,
"Auvergne-Rhône-Alpes, France",state,,,Auvergne-Rhône-Alpes,France,,555,1866,,,8037059,,45.459794376849004,4.6235895980203,https://raw.githubusercontent.com/opencovid19-fr/data/master/dist/chiffres-cles.csv,,0.47058823529411764,Europe/Paris,324,iso1:FR,,,,
"Provence-Alpes-Côte d'Azur, France",state,,,Provence-Alpes-Côte d'Azur,France,,231,1383,,,5065723,,44.0544436063075,5.9736093715955,https://raw.githubusercontent.com/opencovid19-fr/data/master/dist/chiffres-cles.csv,,0.47058823529411764,Europe/Paris,325,iso1:FR,,,,
"Corse, France",state,,,Corse,France,,30,115,,,337796,,42.186944409099496,9.04966440635685,https://raw.githubusercontent.com/opencovid19-fr/data/master/dist/chiffres-cles.csv,,0.47058823529411764,Europe/Paris,326,iso1:FR,,,,
France,country,,,,France,74390,6494,17249,,50647,67118648,101.59132523614103,2.304500000000001,6.709000000000003,https://raw.githubusercontent.com/opencovid19-fr/data/master/dist/chiffres-cles.csv,,0.47058823529411764,Etc/GMT,iso1:FR,iso1:FR,,,,
"Guadeloupe, France",state,,,Guadeloupe,France,,8,37,,,390253,,16.176466312683498,-61.404015738016,https://raw.githubusercontent.com/opencovid19-fr/data/master/dist/chiffres-cles.csv,,0.47058823529411764,America/Guadeloupe,328,iso1:FR,,,,
"Martinique, France",state,,,Martinique,France,,4,37,,,376480,,14.636421259678,-61.019989787163496,https://raw.githubusercontent.com/opencovid19-fr/data/master/dist/chiffres-cles.csv,,0.47058823529411764,America/Martinique,329,iso1:FR,,,,
"Guyane, France",state,,,Guyane,France,,0,6,,,290691,,3.93266119173895,-53.1138912280205,https://raw.githubusercontent.com/opencovid19-fr/data/master/dist/chiffres-cles.csv,,0.47058823529411764,America/Cayenne,330,iso1:FR,,,,
"La Réunion, France",state,,,La Réunion,France,,0,43,,,853659,,-21.130672550993502,55.526881838278,https://raw.githubusercontent.com/opencovid19-fr/data/master/dist/chiffres-cles.csv,,0.47058823529411764,Indian/Reunion,331,iso1:FR,,,,
"Mayotte, France",state,,,Mayotte,France,,2,13,,,270372,,-12.818387777882,45.158732839739,https://raw.githubusercontent.com/opencovid19-fr/data/master/dist/chiffres-cles.csv,,0.47058823529411764,Indian/Mayotte,332,iso1:FR,,,,
"Andhra Pradesh, India",state,,,Andhra Pradesh,India,266,0,3,,263,49577103,,16.249396063877242,80.74862206352185,https://www.mohfw.gov.in/,state,0.47058823529411764,Asia/Kolkata,333,iso1:IN,,,,
"Andaman and Nicobar Islands, India",state,,,Andaman and Nicobar Islands,India,10,0,0,,10,380520,,10.186102606000048,93.15277067000005,https://www.mohfw.gov.in/,state,0.47058823529411764,Etc/GMT-6,334,iso1:IN,,,,
"Arunachal Pradesh, India",state,,,Arunachal Pradesh,India,1,0,0,,1,,,28.008685410239444,94.46749434450007,https://www.mohfw.gov.in/,state,0.47058823529411764,Asia/Kolkata,335,iso1:IN,,,,
"Assam, India",state,,,Assam,India,26,0,0,,26,,,26.062905585424403,92.83251153003118,https://www.mohfw.gov.in/,state,0.47058823529411764,Asia/Kolkata,336,iso1:IN,,,,
"Bihar, India",state,,,Bihar,India,32,0,1,,31,104099452,,25.90844513275855,85.81024580290145,https://www.mohfw.gov.in/,state,0.47058823529411764,Asia/Kolkata,337,iso1:IN,,,,
"Chandigarh, India",state,,,Chandigarh,India,18,0,0,,18,1147494,,30.73326650694372,76.76552656449931,https://www.mohfw.gov.in/,state,0.47058823529411764,Asia/Kolkata,338,iso1:IN,,,,
"Chhattisgarh, India",state,,,Chhattisgarh,India,10,0,0,,10,25545198,,20.958152574281854,82.31128624906111,https://www.mohfw.gov.in/,state,0.47058823529411764,Asia/Kolkata,339,iso1:IN,,,,
"Delhi, India",state,,,Delhi,India,523,0,7,,516,16787941,,28.657346706984924,77.0872123548163,https://www.mohfw.gov.in/,state,0.47058823529411764,Asia/Kolkata,340,iso1:IN,,,,
"Goa, India",state,,,Goa,India,7,0,0,,7,1500000,,15.329739996534386,74.00107852529374,https://www.mohfw.gov.in/,state,0.47058823529411764,Asia/Kolkata,341,iso1:IN,,,,
"Gujarat, India",state,,,Gujarat,India,144,0,12,,132,60439692,,22.390503706309964,71.31093488914493,https://www.mohfw.gov.in/,state,0.47058823529411764,Asia/Kolkata,342,iso1:IN,,,,
"Haryana, India",state,,,Haryana,India,90,0,1,,89,25351462,,29.29344483126394,76.02577843622583,https://www.mohfw.gov.in/,state,0.47058823529411764,Asia/Kolkata,343,iso1:IN,,,,
"Himachal Pradesh, India",state,,,Himachal Pradesh,India,13,0,1,,12,6864602,,31.807193203503516,77.29748375836871,https://www.mohfw.gov.in/,state,0.47058823529411764,Asia/Kolkata,344,iso1:IN,,,,
"Jammu and Kashmir, India",state,,,Jammu and Kashmir,India,109,0,2,,107,12267032,,33.897996219547814,76.63741988100006,https://www.mohfw.gov.in/,state,0.47058823529411764,Asia/Kolkata,345,iso1:IN,,,,
"Jharkhand, India",state,,,Jharkhand,India,4,0,0,,4,,,23.667832139341755,85.61625247597095,https://www.mohfw.gov.in/,state,0.47058823529411764,Asia/Kolkata,346,iso1:IN,,,,
"Karnataka, India",state,,,Karnataka,India,151,0,4,,147,61095297,,15.04293223673335,76.32975935210584,https://www.mohfw.gov.in/,state,0.47058823529411764,Asia/Kolkata,347,iso1:IN,,,,
"Kerala, India",state,,,Kerala,India,327,0,2,,325,33406061,,10.525229553007051,76.12643659801603,https://www.mohfw.gov.in/,state,0.47058823529411764,Asia/Kolkata,348,iso1:IN,,,,
"Ladakh, India",state,,,Ladakh,India,14,0,0,,14,274000,,,,https://www.mohfw.gov.in/,state,0.47058823529411764,,,iso1:IN,,,,
"Madhya Pradesh, India",state,,,Madhya Pradesh,India,165,0,9,,156,72626809,,23.962930405963448,78.41705366399535,https://www.mohfw.gov.in/,state,0.47058823529411764,Asia/Kolkata,349,iso1:IN,,,,
"Maharashtra, India",state,,,Maharashtra,India,748,0,45,,703,112374333,,18.8277528956296,76.77199039033388,https://www.mohfw.gov.in/,state,0.47058823529411764,Asia/Kolkata,350,iso1:IN,,,,
"Manipur, India",state,,,Manipur,India,2,0,0,,2,3351200,,24.769062782021763,93.85202843938632,https://www.mohfw.gov.in/,state,0.47058823529411764,Asia/Kolkata,351,iso1:IN,,,,
"Mizoram, India",state,,,Mizoram,India,1,0,0,,1,1668800,,23.224332482374557,92.84258060700009,https://www.mohfw.gov.in/,state,0.47058823529411764,Asia/Kolkata,352,iso1:IN,,,,
"Odisha, India",state,,,Odisha,India,21,0,0,,21,41974218,,20.176843675645102,84.43570824513938,https://www.mohfw.gov.in/,state,0.47058823529411764,Asia/Kolkata,353,iso1:IN,,,,
"Puducherry, India",state,,,Puducherry,India,5,0,0,,5,1247953,,11.455302435772268,77.53475996200007,https://www.mohfw.gov.in/,state,0.47058823529411764,Asia/Kolkata,354,iso1:IN,,,,
"Punjab, India",state,,,Punjab,India,76,0,6,,70,27743338,,31.03926850074069,75.37832401215817,https://www.mohfw.gov.in/,state,0.47058823529411764,Asia/Kolkata,355,iso1:IN,,,,
"Rajasthan, India",state,,,Rajasthan,India,288,0,3,,285,68548437,,26.620069377799524,73.84407657553248,https://www.mohfw.gov.in/,state,0.47058823529411764,Asia/Kolkata,356,iso1:IN,,,,
"Tamil Nadu, India",state,,,Tamil Nadu,India,621,0,5,,616,72147030,,10.77222336758263,78.29429100910343,https://www.mohfw.gov.in/,state,0.47058823529411764,Asia/Kolkata,357,iso1:IN,,,,
"Telengana, India",state,,,Telengana,India,321,0,7,,314,35003674,,,,https://www.mohfw.gov.in/,state,0.47058823529411764,,,iso1:IN,,,,
"Tripura, India",state,,,Tripura,India,1,0,0,,1,,,23.762018549940088,91.7330880092961,https://www.mohfw.gov.in/,state,0.47058823529411764,Asia/Kolkata,358,iso1:IN,,,,
"Uttarakhand, India",state,,,Uttarakhand,India,31,0,0,,31,10086292,,30.085476993671897,79.29053999553955,https://www.mohfw.gov.in/,state,0.47058823529411764,Asia/Kolkata,359,iso1:IN,,,,
"Uttar Pradesh, India",state,,,Uttar Pradesh,India,305,0,3,,302,199812341,,27.152981167396916,80.83266849165753,https://www.mohfw.gov.in/,state,0.47058823529411764,Asia/Kolkata,360,iso1:IN,,,,
"West Bengal, India",state,,,West Bengal,India,91,0,3,,88,91276115,,24.402508335403155,87.85869957912226,https://www.mohfw.gov.in/,state,0.47058823529411764,Asia/Kolkata,361,iso1:IN,,,,
"Abruzzo, Italy",state,,,Abruzzo,Italy,1721,169,127,14198,1425,1308451,121.05020934267804,42.2885,13.901,https://raw.githubusercontent.com/pcm-dpc/COVID-19/master/dati-regioni/dpc-covid19-ita-regioni.csv,state,0.7058823529411765,Europe/Rome,iso2:IT-65,iso1:IT,iso2:IT-65,,,
"Basilicata, Italy",state,,,Basilicata,Italy,287,13,12,3061,262,562869,56.23585645785573,40.5185,16.101,https://raw.githubusercontent.com/pcm-dpc/COVID-19/master/dati-regioni/dpc-covid19-ita-regioni.csv,state,0.7058823529411765,Europe/Rome,iso2:IT-77,iso1:IT,iso2:IT-77,,,
"Calabria, Italy",state,,,Calabria,Italy,817,58,37,13633,722,1947131,128.7157040191157,39.025499999999994,16.412,https://raw.githubusercontent.com/pcm-dpc/COVID-19/master/dati-regioni/dpc-covid19-ita-regioni.csv,state,0.7058823529411765,Europe/Rome,iso2:IT-78,iso1:IT,iso2:IT-78,,,
"Campania, Italy",state,,,Campania,Italy,3058,204,156,24526,2698,5786373,424.1069680302534,40.7495,14.7795,https://raw.githubusercontent.com/pcm-dpc/COVID-19/master/dati-regioni/dpc-covid19-ita-regioni.csv,state,0.7058823529411765,Europe/Rome,iso2:IT-72,iso1:IT,iso2:IT-72,,,
"Emilia-Romagna, Italy",state,,,Emilia-Romagna,Italy,17556,2108,2397,72163,13051,4459477,198.3431277368878,44.433,10.9755,https://raw.githubusercontent.com/pcm-dpc/COVID-19/master/dati-regioni/dpc-covid19-ita-regioni.csv,state,0.7058823529411765,Europe/Rome,iso2:IT-45,iso1:IT,iso2:IT-45,,,
"Friuli Venezia Giulia, Italy",state,,,Friuli Venezia Giulia,Italy,2103,158,549,22272,1396,1215220,153.1587720730018,46.1165,13.11,https://raw.githubusercontent.com/pcm-dpc/COVID-19/master/dati-regioni/dpc-covid19-ita-regioni.csv,state,0.7058823529411765,Europe/Rome,iso2:IT-36,iso1:IT,iso2:IT-36,,,
"Lazio, Italy",state,,,Lazio,Italy,4031,229,502,47470,3300,5879082,340.99568753226214,41.813,12.738,https://raw.githubusercontent.com/pcm-dpc/COVID-19/master/dati-regioni/dpc-covid19-ita-regioni.csv,state,0.7058823529411765,Europe/Rome,iso2:IT-62,iso1:IT,iso2:IT-62,,,
"Liguria, Italy",state,,,Liguria,Italy,4549,595,837,15533,3117,1550640,285.5203867476758,44.226,8.783,https://raw.githubusercontent.com/pcm-dpc/COVID-19/master/dati-regioni/dpc-covid19-ita-regioni.csv,state,0.7058823529411765,Europe/Rome,iso2:IT-42,iso1:IT,iso2:IT-42,,,
"Lombardy, Italy",state,,,Lombardy,Italy,51534,9202,13863,154989,28469,10067494,421.45550837568976,45.658,9.962,https://raw.githubusercontent.com/pcm-dpc/COVID-19/master/dati-regioni/dpc-covid19-ita-regioni.csv,state,0.7058823529411765,Europe/Rome,iso2:IT-25,iso1:IT,iso2:IT-25,,,
"Marche, Italy",state,,,Marche,Italy,4614,612,296,15919,3706,1522608,162.0299665654573,43.32899999999999,13.051,https://raw.githubusercontent.com/pcm-dpc/COVID-19/master/dati-regioni/dpc-covid19-ita-regioni.csv,state,0.7058823529411765,Europe/Rome,iso2:IT-57,iso1:IT,iso2:IT-57,,,
"Molise, Italy",state,,,Molise,Italy,224,13,24,1546,187,304285,68.23674310671105,41.717,14.5515,https://raw.githubusercontent.com/pcm-dpc/COVID-19/master/dati-regioni/dpc-covid19-ita-regioni.csv,state,0.7058823529411765,Europe/Rome,iso2:IT-67,iso1:IT,iso2:IT-67,,,
"Piemont, Italy",state,,,Piemont,Italy,12924,1251,1128,41123,10545,4356406,171.63657131302443,45.2625,7.922000000000001,https://raw.githubusercontent.com/pcm-dpc/COVID-19/master/dati-regioni/dpc-covid19-ita-regioni.csv,state,0.7058823529411765,Europe/Rome,iso2:IT-21,iso1:IT,iso2:IT-21,,,
"Apulia, Italy",state,,,Apulia,Italy,2444,195,134,22059,2115,4029053,207.92630196159388,41.01,16.7275,https://raw.githubusercontent.com/pcm-dpc/COVID-19/master/dati-regioni/dpc-covid19-ita-regioni.csv,state,0.7058823529411765,Europe/Rome,iso2:IT-75,iso1:IT,iso2:IT-75,,,
"Sardinia, Italy",state,,,Sardinia,Italy,922,47,56,7521,819,1639591,67.96472760366999,40.084999999999994,8.9835,https://raw.githubusercontent.com/pcm-dpc/COVID-19/master/dati-regioni/dpc-covid19-ita-regioni.csv,state,0.7058823529411765,Europe/Rome,iso2:IT-88,iso1:IT,iso2:IT-88,,,
"Sicily, Italy",state,,,Sicily,Italy,2046,123,108,23464,1815,4983478,193.37143936545294,37.156,13.789,https://raw.githubusercontent.com/pcm-dpc/COVID-19/master/dati-regioni/dpc-covid19-ita-regioni.csv,state,0.7058823529411765,Europe/Rome,iso2:IT-82,iso1:IT,iso2:IT-82,,,
"Tuscany, Italy",state,,,Tuscany,Italy,6001,350,350,52849,5301,3729641,162.01952253929048,43.3625,11.029,https://raw.githubusercontent.com/pcm-dpc/COVID-19/master/dati-regioni/dpc-covid19-ita-regioni.csv,state,0.7058823529411765,Europe/Rome,iso2:IT-52,iso1:IT,iso2:IT-52,,,
"Trentino-Alto Adige/Südtirol, Italy",state,,,Trentino-Alto Adige/Südtirol,Italy,2348,230,280,11130,1838,1072276,78.84066945346666,46.3825,11.431000000000001,https://raw.githubusercontent.com/pcm-dpc/COVID-19/master/dati-regioni/dpc-covid19-ita-regioni.csv,state,0.7058823529411765,Europe/Rome,iso2:IT-32,iso1:IT,iso2:IT-32,,,
"Umbria, Italy",state,,,Umbria,Italy,1253,44,337,12573,872,882015,104.24062845963802,42.991,12.5795,https://raw.githubusercontent.com/pcm-dpc/COVID-19/master/dati-regioni/dpc-covid19-ita-regioni.csv,state,0.7058823529411765,Europe/Rome,iso2:IT-55,iso1:IT,iso2:IT-55,,,
"Aosta Valley, Italy",state,,,Aosta Valley,Italy,805,96,142,2590,567,125666,38.486779490625366,45.7265,7.3705,https://raw.githubusercontent.com/pcm-dpc/COVID-19/master/dati-regioni/dpc-covid19-ita-regioni.csv,state,0.7058823529411765,Europe/Rome,iso2:IT-23,iso1:IT,iso2:IT-23,,,
"Veneto, Italy",state,,,Veneto,Italy,11588,662,1204,146288,9722,4905854,267.59214314250966,45.736000000000004,11.865,https://raw.githubusercontent.com/pcm-dpc/COVID-19/master/dati-regioni/dpc-covid19-ita-regioni.csv,state,0.7058823529411765,Europe/Rome,iso2:IT-34,iso1:IT,iso2:IT-34,,,
Italy,country,,,,Italy,130825,16359,22539,704907,91927,60317000,199.88407161481445,41.293499999999995,12.5735,https://raw.githubusercontent.com/pcm-dpc/COVID-19/master/dati-regioni/dpc-covid19-ita-regioni.csv,state,0.6666666666666666,Europe/Rome,iso1:IT,iso1:IT,,,,
"Seoul, South Korea",state,,,Seoul,South Korea,567,0,164,,403,9904312,,37.55513692947568,126.99357181183962,http://ncov.mohw.go.kr/en/bdBoardList.do?brdId=16&brdGubun=162&dataGubun=&ncvContSeq=&contSeq=&board_id=,state,0.45098039215686275,Asia/Seoul,383,iso1:KR,,,,
"Busan, South Korea",state,,,Busan,South Korea,123,3,91,,29,3448737,,35.173247707427976,129.08102570521902,http://ncov.mohw.go.kr/en/bdBoardList.do?brdId=16&brdGubun=162&dataGubun=&ncvContSeq=&contSeq=&board_id=,state,0.45098039215686275,Asia/Seoul,384,iso1:KR,,,,
"Daegu, South Korea",state,,,Daegu,South Korea,6794,134,4918,,1742,2466052,,35.8987264069481,128.61362796415915,http://ncov.mohw.go.kr/en/bdBoardList.do?brdId=16&brdGubun=162&dataGubun=&ncvContSeq=&contSeq=&board_id=,state,0.45098039215686275,Asia/Seoul,385,iso1:KR,,,,
"Incheon, South Korea",state,,,Incheon,South Korea,80,0,27,,53,2890451,,37.46453840297093,126.57565862368335,http://ncov.mohw.go.kr/en/bdBoardList.do?brdId=16&brdGubun=162&dataGubun=&ncvContSeq=&contSeq=&board_id=,state,0.45098039215686275,Asia/Seoul,386,iso1:KR,,,,
"Gwangju, South Korea",state,,,Gwangju,South Korea,27,0,15,,12,1502881,,35.194428311317495,126.90422326049503,http://ncov.mohw.go.kr/en/bdBoardList.do?brdId=16&brdGubun=162&dataGubun=&ncvContSeq=&contSeq=&board_id=,state,0.45098039215686275,Asia/Seoul,387,iso1:KR,,,,
"Daejeon, South Korea",state,,,Daejeon,South Korea,39,0,20,,19,1538394,,36.35613779232523,127.35063280940653,http://ncov.mohw.go.kr/en/bdBoardList.do?brdId=16&brdGubun=162&dataGubun=&ncvContSeq=&contSeq=&board_id=,state,0.45098039215686275,Asia/Seoul,388,iso1:KR,,,,
"Ulsan, South Korea",state,,,Ulsan,South Korea,40,1,28,,11,1166615,,35.490817611035965,129.2337717697954,http://ncov.mohw.go.kr/en/bdBoardList.do?brdId=16&brdGubun=162&dataGubun=&ncvContSeq=&contSeq=&board_id=,state,0.45098039215686275,Asia/Seoul,389,iso1:KR,,,,
"Sejong, South Korea",state,,,Sejong,South Korea,46,0,17,,29,204088,,36.5739072336319,127.22270511305044,http://ncov.mohw.go.kr/en/bdBoardList.do?brdId=16&brdGubun=162&dataGubun=&ncvContSeq=&contSeq=&board_id=,state,0.45098039215686275,Asia/Seoul,390,iso1:KR,,,,
"Gyeonggi, South Korea",state,,,Gyeonggi,South Korea,590,7,226,,357,12239862,,37.54598795453046,127.10036563469203,http://ncov.mohw.go.kr/en/bdBoardList.do?brdId=16&brdGubun=162&dataGubun=&ncvContSeq=&contSeq=&board_id=,state,0.45098039215686275,Asia/Seoul,391,iso1:KR,,,,
"Gangwon, South Korea",state,,,Gangwon,South Korea,47,1,24,,22,1549780,,37.62048981300006,128.21863332728725,http://ncov.mohw.go.kr/en/bdBoardList.do?brdId=16&brdGubun=162&dataGubun=&ncvContSeq=&contSeq=&board_id=,state,0.45098039215686275,Asia/Seoul,392,iso1:KR,,,,
"North Chungcheong, South Korea",state,,,North Chungcheong,South Korea,45,0,29,,16,1588633,,36.58900726986957,127.93098229369787,http://ncov.mohw.go.kr/en/bdBoardList.do?brdId=16&brdGubun=162&dataGubun=&ncvContSeq=&contSeq=&board_id=,state,0.45098039215686275,Asia/Seoul,393,iso1:KR,,,,
"South Chungcheong, South Korea",state,,,South Chungcheong,South Korea,137,0,104,,33,2064665,,36.490061124850655,126.8749815200755,http://ncov.mohw.go.kr/en/bdBoardList.do?brdId=16&brdGubun=162&dataGubun=&ncvContSeq=&contSeq=&board_id=,state,0.45098039215686275,Asia/Seoul,394,iso1:KR,,,,
"North Jeolla, South Korea",state,,,North Jeolla,South Korea,16,0,7,,9,1895882,,35.70462972633078,127.16605044961278,http://ncov.mohw.go.kr/en/bdBoardList.do?brdId=16&brdGubun=162&dataGubun=&ncvContSeq=&contSeq=&board_id=,state,0.45098039215686275,Asia/Seoul,395,iso1:KR,,,,
"South Jeolla, South Korea",state,,,South Jeolla,South Korea,15,0,4,,11,1938136,,34.87712209728434,126.96036184538531,http://ncov.mohw.go.kr/en/bdBoardList.do?brdId=16&brdGubun=162&dataGubun=&ncvContSeq=&contSeq=&board_id=,state,0.45098039215686275,Asia/Seoul,396,iso1:KR,,,,
"North Gyeongsang, South Korea",state,,,North Gyeongsang,South Korea,1317,46,934,,337,2739179,,36.31153066655699,128.69361636698187,http://ncov.mohw.go.kr/en/bdBoardList.do?brdId=16&brdGubun=162&dataGubun=&ncvContSeq=&contSeq=&board_id=,state,0.45098039215686275,Asia/Seoul,397,iso1:KR,,,,
"South Gyeongsang, South Korea",state,,,South Gyeongsang,South Korea,112,0,80,,32,3374725,,35.29773061758908,128.44314882752573,http://ncov.mohw.go.kr/en/bdBoardList.do?brdId=16&brdGubun=162&dataGubun=&ncvContSeq=&contSeq=&board_id=,state,0.45098039215686275,Asia/Seoul,398,iso1:KR,,,,
"Jeju, South Korea",state,,,Jeju,South Korea,12,0,4,,8,583284,,33.38209086900005,126.55872643350006,http://ncov.mohw.go.kr/en/bdBoardList.do?brdId=16&brdGubun=162&dataGubun=&ncvContSeq=&contSeq=&board_id=,state,0.45098039215686275,Asia/Seoul,399,iso1:KR,,,,
"(unassigned), South Korea",state,,,(unassigned),South Korea,324,0,2,,322,,,,,http://ncov.mohw.go.kr/en/bdBoardList.do?brdId=16&brdGubun=162&dataGubun=&ncvContSeq=&contSeq=&board_id=,state,0.45098039215686275,,,iso1:KR,,,,
New Zealand,country,,,,New Zealand,943,1,241,,701,4942500,18.409458505419977,-40.881,0.8239999999999981,https://www.health.govt.nz/our-work/diseases-and-conditions/covid-19-novel-coronavirus/covid-19-current-situation/covid-19-current-cases,,0.3137254901960784,Etc/GMT,iso1:NZ,iso1:NZ,,,12,
Puerto Rico,country,,,,Puerto Rico,513,21,,4951,,3411307,381.0377856399863,18.1995,-66.589,http://salud.gov.pr/Pages/coronavirus.aspx,,0.29411764705882354,America/Puerto_Rico,iso1:PR,iso1:PR,,,,
"Anchorage Municipality, Alaska, United States",county,,Anchorage Municipality,Alaska,United States,85,3,,,,288000,64.18251869903766,61.10850599999999,-149.3641825,https://raw.githubusercontent.com/nytimes/covid-19-data/master/us-counties.csv,county,0.6274509803921569,America/Anchorage,fips:02020,iso1:US,iso2:US-AK,fips:02020,,
"Fairbanks North Star Borough, Alaska, United States",county,,Fairbanks North Star Borough,Alaska,United States,53,1,,,,96849,5.055010750958499,64.85535949999999,-146.2808435,https://raw.githubusercontent.com/nytimes/covid-19-data/master/us-counties.csv,county,0.6274509803921569,America/Anchorage,fips:02090,iso1:US,iso2:US-AK,fips:02090,,
"Juneau City and Borough, Alaska, United States",county,,Juneau City and Borough,Alaska,United States,14,0,,,,31974,4.33476116272472,58.38301,-134.17634650000002,https://raw.githubusercontent.com/nytimes/covid-19-data/master/us-counties.csv,county,0.6274509803921569,America/Juneau,fips:02110,iso1:US,iso2:US-AK,fips:02110,,
"Kenai Peninsula Borough, Alaska, United States",county,,Kenai Peninsula Borough,Alaska,United States,12,1,,,,58708,1.3699125872947815,60.03949299999999,-151.6559435,https://raw.githubusercontent.com/nytimes/covid-19-data/master/us-counties.csv,county,0.6274509803921569,America/Anchorage,fips:02122,iso1:US,iso2:US-AK,fips:02122,,
"Ketchikan Gateway Borough, Alaska, United States",county,,Ketchikan Gateway Borough,Alaska,United States,14,0,,,,13901,1.023886164591555,55.562420974091744,-131.0878335,https://raw.githubusercontent.com/nytimes/covid-19-data/master/us-counties.csv,county,0.6274509803921569,America/Sitka,fips:02130,iso1:US,iso2:US-AK,fips:02130,,
"Matanuska-Susitna Borough, Alaska, United States",county,,Matanuska-Susitna Borough,Alaska,United States,4,0,,,,108317,1.6794825553716022,62.33728567585919,-149.71279199999998,https://raw.githubusercontent.com/nytimes/covid-19-data/master/us-counties.csv,county,0.6274509803921569,America/Anchorage,fips:02170,iso1:US,iso2:US-AK,fips:02170,,
"Petersburg Borough, Alaska, United States",county,,Petersburg Borough,Alaska,United States,1,1,,,,3266,0.410792574033078,57.13495,-132.86307699999998,https://raw.githubusercontent.com/nytimes/covid-19-data/master/us-counties.csv,county,0.6274509803921569,America/Sitka,fips:02195,iso1:US,iso2:US-AK,fips:02195,,
"Southeast Fairbanks Census Area, Alaska, United States",county,,Southeast Fairbanks Census Area,Alaska,United States,1,0,,,,6893,0.10644028239390114,63.8717340082264,-144.00104950000002,https://raw.githubusercontent.com/nytimes/covid-19-data/master/us-counties.csv,county,0.6274509803921569,America/Anchorage,fips:02240,iso1:US,iso2:US-AK,fips:02240,,
"Yukon-Koyukuk Census Area, Alaska, United States",county,,Yukon-Koyukuk Census Area,Alaska,United States,1,0,,,,5230,0.013714483978856416,65.2229805,-151.0253204501505,https://raw.githubusercontent.com/nytimes/covid-19-data/master/us-counties.csv,county,0.6274509803921569,America/Anchorage,fips:02290,iso1:US,iso2:US-AK,fips:02290,,
"Baltimore city, Maryland, United States",city,Baltimore city,,Maryland,United States,394,7,,,,,,,,https://raw.githubusercontent.com/nytimes/covid-19-data/master/us-counties.csv,county,0.5882352941176471,,,iso1:US,iso2:US-MD,,,
"Dukes County, Massachusetts, United States",county,,Dukes County,Massachusetts,United States,8,0,,,,17332,54.192245874820884,41.387524030878346,-70.69863899999999,https://raw.githubusercontent.com/nytimes/covid-19-data/master/us-counties.csv,county,0.6274509803921569,America/New_York,fips:25007,iso1:US,iso2:US-MA,fips:25007,,
"Nantucket County, Massachusetts, United States",county,,Nantucket County,Massachusetts,United States,9,0,,,,11399,73.25956850627037,41.31483299999999,-70.1178535,https://raw.githubusercontent.com/nytimes/covid-19-data/master/us-counties.csv,county,0.6274509803921569,America/New_York,fips:25019,iso1:US,iso2:US-MA,fips:25019,,
"Kansas City, Missouri, United States",city,Kansas City,,Missouri,United States,175,1,,,,,,,,https://raw.githubusercontent.com/nytimes/covid-19-data/master/us-counties.csv,county,0.5882352941176471,,,iso1:US,iso2:US-MO,,,
"St. Louis city, Missouri, United States",city,St. Louis city,,Missouri,United States,298,8,,,,,,,,https://raw.githubusercontent.com/nytimes/covid-19-data/master/us-counties.csv,county,0.5882352941176471,,,iso1:US,iso2:US-MO,,,
"Carson City, Nevada, United States",city,Carson City,,Nevada,United States,10,0,,,,,,,,https://raw.githubusercontent.com/nytimes/covid-19-data/master/us-counties.csv,county,0.5882352941176471,,,iso1:US,iso2:US-NV,,,
"Elko County, Nevada, United States",county,,Elko County,Nevada,United States,7,1,,,,52778,1.1837272399871133,41.05957120143635,-115.5290335,https://raw.githubusercontent.com/nytimes/covid-19-data/master/us-counties.csv,county,0.6274509803921569,America/Los_Angeles,fips:32007,iso1:US,iso2:US-NV,fips:32007,,
"Humboldt County, Nevada, United States",county,,Humboldt County,Nevada,United States,11,0,,,,16831,0.67175132477125,41.263258,-118.1746382570995,https://raw.githubusercontent.com/nytimes/covid-19-data/master/us-counties.csv,county,0.6274509803921569,America/Los_Angeles,fips:32013,iso1:US,iso2:US-NV,fips:32013,,
"Nye County, Nevada, United States",county,,Nye County,Nevada,United States,7,0,,,,46523,0.9855243866008577,37.563818728685746,-116.59855999999999,https://raw.githubusercontent.com/nytimes/covid-19-data/master/us-counties.csv,county,0.6274509803921569,America/Los_Angeles,fips:32023,iso1:US,iso2:US-NV,fips:32023,,
"Belknap County, New Hampshire, United States",county,,Belknap County,New Hampshire,United States,17,0,,,,61303,50.2247821079849,43.5229865,-71.4455355,https://raw.githubusercontent.com/nytimes/covid-19-data/master/us-counties.csv,county,0.6274509803921569,America/New_York,fips:33001,iso1:US,iso2:US-NH,fips:33001,,
"Carroll County, New Hampshire, United States",county,,Carroll County,New Hampshire,United States,19,0,,,,48910,19.004575773703326,43.883900660786,-71.25772049999999,https://raw.githubusercontent.com/nytimes/covid-19-data/master/us-counties.csv,county,0.6274509803921569,America/New_York,fips:33003,iso1:US,iso2:US-NH,fips:33003,,
"Cheshire County, New Hampshire, United States",county,,Cheshire County,New Hampshire,United States,11,0,,,,76085,40.245263704664474,42.94710310025125,-72.24313320218239,https://raw.githubusercontent.com/nytimes/covid-19-data/master/us-counties.csv,county,0.6274509803921569,America/New_York,fips:33005,iso1:US,iso2:US-NH,fips:33005,,
"Coos County, New Hampshire, United States",county,,Coos County,New Hampshire,United States,1,0,,,,31563,6.650312822563841,44.695614,-71.3879800726503,https://raw.githubusercontent.com/nytimes/covid-19-data/master/us-counties.csv,county,0.6274509803921569,America/New_York,fips:33007,iso1:US,iso2:US-NH,fips:33007,,
"Grafton County, New Hampshire, United States",county,,Grafton County,New Hampshire,United States,41,0,,,,89886,19.829947192815858,43.967582343828994,-71.8407005,https://raw.githubusercontent.com/nytimes/covid-19-data/master/us-counties.csv,county,0.6274509803921569,America/New_York,fips:33009,iso1:US,iso2:US-NH,fips:33009,,
"Hillsborough County, New Hampshire, United States",county,,Hillsborough County,New Hampshire,United States,249,7,,,,417025,180.3377956516091,42.9520445,-71.653880629697,https://raw.githubusercontent.com/nytimes/covid-19-data/master/us-counties.csv,county,0.6274509803921569,America/New_York,fips:33011,iso1:US,iso2:US-NH,fips:33011,,
"Merrimack County, New Hampshire, United States",county,,Merrimack County,New Hampshire,United States,45,0,,,,151391,61.259416876397154,43.3102545,-71.66307849999998,https://raw.githubusercontent.com/nytimes/covid-19-data/master/us-counties.csv,county,0.6274509803921569,America/New_York,fips:33013,iso1:US,iso2:US-NH,fips:33013,,
"Rockingham County, New Hampshire, United States",county,,Rockingham County,New Hampshire,United States,230,1,,,,309769,164.59767765983605,43.006411,-71.0774765,https://raw.githubusercontent.com/nytimes/covid-19-data/master/us-counties.csv,county,0.6274509803921569,America/New_York,fips:33015,iso1:US,iso2:US-NH,fips:33015,,
"Strafford County, New Hampshire, United States",county,,Strafford County,New Hampshire,United States,44,0,,,,130633,132.09150029435594,43.3266045,-71.028488,https://raw.githubusercontent.com/nytimes/covid-19-data/master/us-counties.csv,county,0.6274509803921569,America/New_York,fips:33017,iso1:US,iso2:US-NH,fips:33017,,
"Sullivan County, New Hampshire, United States",county,,Sullivan County,New Hampshire,United States,6,1,,,,43146,30.170315579537316,43.364495320279445,-72.193933,https://raw.githubusercontent.com/nytimes/covid-19-data/master/us-counties.csv,county,0.6274509803921569,America/New_York,fips:33019,iso1:US,iso2:US-NH,fips:33019,,
"New York City, New York, United States",city,New York City,,New York,United States,67552,2472,,,,,,,,https://raw.githubusercontent.com/nytimes/covid-19-data/master/us-counties.csv,county,0.5882352941176471,,,iso1:US,iso2:US-NY,,,
"Box Elder County, Utah, United States",county,,Box Elder County,Utah,United States,10,0,,,,56046,3.2130419406152817,41.5005567622842,-112.9579335,https://raw.githubusercontent.com/nytimes/covid-19-data/master/us-counties.csv,county,0.6274509803921569,America/Denver,fips:49003,iso1:US,iso2:US-UT,fips:49003,,
"Cache County, Utah, United States",county,,Cache County,Utah,United States,19,0,,,,128289,42.22849721895098,41.68416779708175,-111.78340035553401,https://raw.githubusercontent.com/nytimes/covid-19-data/master/us-counties.csv,county,0.6274509803921569,America/Denver,fips:49005,iso1:US,iso2:US-UT,fips:49005,,
"Carbon County, Utah, United States",county,,Carbon County,Utah,United States,1,0,,,,20463,5.31501341606583,39.6407915,-110.5610585,https://raw.githubusercontent.com/nytimes/covid-19-data/master/us-counties.csv,county,0.6274509803921569,America/Denver,fips:49007,iso1:US,iso2:US-UT,fips:49007,,
"Duchesne County, Utah, United States",county,,Duchesne County,Utah,United States,1,0,,,,19938,2.364190708853552,40.320088999999996,-110.439764,https://raw.githubusercontent.com/nytimes/covid-19-data/master/us-counties.csv,county,0.6274509803921569,America/Denver,fips:49013,iso1:US,iso2:US-UT,fips:49013,,
"Emery County, Utah, United States",county,,Emery County,Utah,United States,1,0,,,,10012,0.8627487270441013,39.102165,-110.6482395,https://raw.githubusercontent.com/nytimes/covid-19-data/master/us-counties.csv,county,0.6274509803921569,America/Denver,fips:49015,iso1:US,iso2:US-UT,fips:49015,,
"Garfield County, Utah, United States",county,,Garfield County,Utah,United States,1,0,,,,5051,0.37410075777149626,37.844863000000004,-111.308261,https://raw.githubusercontent.com/nytimes/covid-19-data/master/us-counties.csv,county,0.6274509803921569,America/Denver,fips:49017,iso1:US,iso2:US-UT,fips:49017,,
"Grand County, Utah, United States",county,,Grand County,Utah,United States,1,0,,,,9754,1.0181425014155736,38.99989649999999,-109.6052945,https://raw.githubusercontent.com/nytimes/covid-19-data/master/us-counties.csv,county,0.6274509803921569,America/Denver,fips:49019,iso1:US,iso2:US-UT,fips:49019,,
"Iron County, Utah, United States",county,,Iron County,Utah,United States,13,0,,,,54839,6.403634147867335,37.8115355133353,-113.25971899999999,https://raw.githubusercontent.com/nytimes/covid-19-data/master/us-counties.csv,county,0.6274509803921569,America/Denver,fips:49021,iso1:US,iso2:US-UT,fips:49021,,
