[
  {
    "country": "THA",
    "coordinates": [
      101.54455590850003,
      13.04083302850006
    ],
    "url": "https://github.com/CSSEGISandData/COVID-19",
    "aggregate": "state",
    "rating": 0.7317073170731707,
    "featureId": 0,
    "name": "THA"
  },
  {
    "country": "JPN",
    "coordinates": [
      137.65978516150005,
      37.87307291750005
    ],
    "url": "https://github.com/CSSEGISandData/COVID-19",
    "aggregate": "state",
    "rating": 0.7317073170731707,
    "featureId": 1,
    "population": 126451398,
    "name": "JPN"
  },
  {
    "country": "SGP",
    "coordinates": [
      103.80420983150006,
      1.3585676125000532
    ],
    "url": "https://github.com/CSSEGISandData/COVID-19",
    "aggregate": "state",
    "rating": 0.7317073170731707,
    "featureId": 2,
    "population": 5888926,
    "name": "SGP"
  },
  {
    "country": "NPL",
    "coordinates": [
      84.1027264815001,
      28.38379831950006
    ],
    "url": "https://github.com/CSSEGISandData/COVID-19",
    "aggregate": "state",
    "rating": 0.7317073170731707,
    "featureId": 3,
    "population": 29384297,
    "name": "NPL"
  },
  {
    "country": "MYS",
    "coordinates": [
      109.69719485800007,
      3.9309068840000734
    ],
    "url": "https://github.com/CSSEGISandData/COVID-19",
    "aggregate": "state",
    "rating": 0.7317073170731707,
    "featureId": 4,
    "population": 31381992,
    "name": "MYS"
  },
  {
    "country": "AUS",
    "coordinates": [
      147.3153664483503,
      -32.82977854599065
    ],
    "state": "New South Wales",
    "url": "https://www.health.gov.au/news/health-alerts/novel-coronavirus-2019-ncov-health-alert/coronavirus-covid-19-current-situation-and-case-numbers",
    "aggregate": "state",
    "rating": 0.43902439024390244,
    "featureId": 189,
    "population": 8089526,
    "name": "New South Wales, AUS"
  },
  {
    "country": "AUS",
    "coordinates": [
      145.4695804428331,
      -36.537788791607284
    ],
    "state": "Victoria",
    "url": "https://www.health.gov.au/news/health-alerts/novel-coronavirus-2019-ncov-health-alert/coronavirus-covid-19-current-situation-and-case-numbers",
    "aggregate": "state",
    "rating": 0.43902439024390244,
    "featureId": 194,
    "population": 6594804,
    "name": "Victoria, AUS"
  },
  {
    "country": "AUS",
    "coordinates": [
      145.75436445400004,
      -19.64674041161055
    ],
    "state": "Queensland",
    "url": "https://www.health.gov.au/news/health-alerts/novel-coronavirus-2019-ncov-health-alert/coronavirus-covid-19-current-situation-and-case-numbers",
    "aggregate": "state",
    "rating": 0.43902439024390244,
    "featureId": 191,
    "population": 5095100,
    "name": "Queensland, AUS"
  },
  {
    "country": "KHM",
    "coordinates": [
      104.96757694500008,
      12.56212270450002
    ],
    "url": "https://github.com/CSSEGISandData/COVID-19",
    "aggregate": "state",
    "rating": 0.7317073170731707,
    "featureId": 5,
    "population": 16204486,
    "name": "KHM"
  },
  {
    "country": "LKA",
    "coordinates": [
      80.82227623750006,
      7.8766543645000695
    ],
    "url": "https://github.com/CSSEGISandData/COVID-19",
    "aggregate": "state",
    "rating": 0.7317073170731707,
    "featureId": 6,
    "population": 22409381,
    "name": "LKA"
  },
  {
    "country": "DEU",
    "coordinates": [
      10.473758178500105,
      51.09924480150008
    ],
    "url": "https://covid19-germany.appspot.com/now",
    "aggregate": "state",
    "rating": 0.4146341463414634,
    "population": 83000000,
    "curators": [
      {
        "name": "Dr. Jan-Philip Gehrcke",
        "email": "jgehrcke@googlemail.com"
      }
    ],
    "sources": [
      {
        "name": "Berliner Morgenpost",
        "description": "Aggregated data from individual ministries of health in Germany"
      }
    ],
    "featureId": 238,
    "name": "DEU"
  },
  {
    "country": "FIN",
    "coordinates": [
      26.09634464500006,
      64.9866635165001
    ],
    "url": "https://github.com/CSSEGISandData/COVID-19",
    "aggregate": "state",
    "rating": 0.7317073170731707,
    "featureId": 7,
    "population": 5491218,
    "name": "FIN"
  },
  {
    "country": "ARE",
    "coordinates": [
      53.97632897200003,
      24.340997059161296
    ],
    "url": "https://github.com/CSSEGISandData/COVID-19",
    "aggregate": "state",
    "rating": 0.7317073170731707,
    "featureId": 8,
    "population": 6072475,
    "name": "ARE"
  },
  {
    "country": "PHL",
    "coordinates": [
      121.93718509200005,
      12.108262437000064
    ],
    "url": "https://github.com/CSSEGISandData/COVID-19",
    "aggregate": "state",
    "rating": 0.7317073170731707,
    "featureId": 9,
    "population": 104256076,
    "name": "PHL"
  },
  {
    "country": "IND",
    "coordinates": [
      82.74863427400004,
      21.151850284000083
    ],
    "url": "https://github.com/CSSEGISandData/COVID-19",
    "aggregate": "state",
    "rating": 0.7317073170731707,
    "featureId": 10,
    "population": 1281935911,
    "name": "IND"
  },
  {
    "country": "ITA",
    "coordinates": [
      12.56007714450007,
      41.826061709500074
    ],
    "url": "https://github.com/CSSEGISandData/COVID-19",
    "aggregate": "state",
    "rating": 0.7317073170731707,
    "featureId": 11,
    "population": 62137802,
    "name": "ITA"
  },
  {
    "country": "SWE",
    "coordinates": [
      17.635630730000088,
      62.191185204500094
    ],
    "url": "https://github.com/CSSEGISandData/COVID-19",
    "aggregate": "state",
    "rating": 0.7317073170731707,
    "featureId": 12,
    "population": 9960487,
    "name": "SWE"
  },
  {
    "country": "ESP",
    "coordinates": [
      -6.849639452499929,
      35.73847077050007
    ],
    "url": "https://opendata.arcgis.com/datasets/48fac2d7de0f43f9af938852e3748845_0.csv",
    "aggregate": "state",
    "rating": 0.6097560975609756,
    "featureId": 251,
    "population": 48958159,
    "name": "ESP"
  },
  {
    "country": "AUS",
    "coordinates": [
      135.0000995213503,
      -32.035240980898976
    ],
    "state": "South Australia",
    "url": "https://www.health.gov.au/news/health-alerts/novel-coronavirus-2019-ncov-health-alert/coronavirus-covid-19-current-situation-and-case-numbers",
    "aggregate": "state",
    "rating": 0.43902439024390244,
    "featureId": 192,
    "population": 1751693,
    "name": "South Australia, AUS"
  },
  {
    "country": "BEL",
    "coordinates": [
      4.4297657472728815,
      50.49042053300006
    ],
    "url": "https://github.com/CSSEGISandData/COVID-19",
    "aggregate": "state",
    "rating": 0.7317073170731707,
    "featureId": 13,
    "population": 11491346,
    "name": "BEL"
  },
  {
    "country": "EGY",
    "coordinates": [
      30.791862752500094,
      26.825424706000064
    ],
    "url": "https://github.com/CSSEGISandData/COVID-19",
    "aggregate": "state",
    "rating": 0.7317073170731707,
    "featureId": 14,
    "population": 97041072,
    "name": "EGY"
  },
  {
    "country": "LBN",
    "coordinates": [
      35.85466820900007,
      33.86861807120964
    ],
    "url": "https://github.com/CSSEGISandData/COVID-19",
    "aggregate": "state",
    "rating": 0.7317073170731707,
    "featureId": 15,
    "population": 6229794,
    "name": "LBN"
  },
  {
    "country": "IRQ",
    "coordinates": [
      43.65276391200004,
      33.21901997950006
    ],
    "url": "https://github.com/CSSEGISandData/COVID-19",
    "aggregate": "state",
    "rating": 0.7317073170731707,
    "featureId": 16,
    "population": 39192111,
    "name": "IRQ"
  },
  {
    "country": "OMN",
    "coordinates": [
      55.911594682500095,
      21.444199937000064
    ],
    "url": "https://github.com/CSSEGISandData/COVID-19",
    "aggregate": "state",
    "rating": 0.7317073170731707,
    "featureId": 17,
    "population": 3424386,
    "name": "OMN"
  },
  {
    "country": "AFG",
    "coordinates": [
      67.6895422770001,
      33.930139364000084
    ],
    "url": "https://github.com/CSSEGISandData/COVID-19",
    "aggregate": "state",
    "rating": 0.7317073170731707,
    "featureId": 18,
    "population": 34124811,
    "name": "AFG"
  },
  {
    "country": "BHR",
    "coordinates": [
      50.53386477950008,
      26.024400132000068
    ],
    "url": "https://github.com/CSSEGISandData/COVID-19",
    "aggregate": "state",
    "rating": 0.7317073170731707,
    "featureId": 19,
    "population": 1410942,
    "name": "BHR"
  },
  {
    "country": "KWT",
    "coordinates": [
      47.48260848850009,
      29.315860290500055
    ],
    "url": "https://github.com/CSSEGISandData/COVID-19",
    "aggregate": "state",
    "rating": 0.7317073170731707,
    "featureId": 20,
    "population": 2875422,
    "name": "KWT"
  },
  {
    "country": "DZA",
    "coordinates": [
      1.6432377520000898,
      28.032339379000085
    ],
    "url": "https://github.com/CSSEGISandData/COVID-19",
    "aggregate": "state",
    "rating": 0.7317073170731707,
    "featureId": 21,
    "population": 40969443,
    "name": "DZA"
  },
  {
    "country": "HRV",
    "coordinates": [
      16.33771101500008,
      44.48165314050009
    ],
    "url": "https://github.com/CSSEGISandData/COVID-19",
    "aggregate": "state",
    "rating": 0.7317073170731707,
    "featureId": 22,
    "population": 4292095,
    "name": "HRV"
  },
  {
    "country": "CHE",
    "coordinates": [
      8.258983805500094,
      46.840811259500086
    ],
    "url": "https://github.com/CSSEGISandData/COVID-19",
    "aggregate": "state",
    "rating": 0.7317073170731707,
    "featureId": 23,
    "population": 8236303,
    "name": "CHE"
  },
  {
    "country": "AUT",
    "coordinates": [
      13.334746337500093,
      47.71313527500007
    ],
    "url": "https://github.com/CSSEGISandData/COVID-19",
    "aggregate": "state",
    "rating": 0.7317073170731707,
    "featureId": 24,
    "population": 8754413,
    "name": "AUT"
  },
  {
    "country": "ISR",
    "coordinates": [
      35.06821170350008,
      31.448389692000035
    ],
    "url": "https://github.com/CSSEGISandData/COVID-19",
    "aggregate": "state",
    "rating": 0.7317073170731707,
    "featureId": 25,
    "population": 8299706,
    "name": "ISR"
  },
  {
    "country": "PAK",
    "coordinates": [
      68.94667484550007,
      30.377750552000087
    ],
    "url": "https://github.com/CSSEGISandData/COVID-19",
    "aggregate": "state",
    "rating": 0.7317073170731707,
    "featureId": 26,
    "population": 204924861,
    "name": "PAK"
  },
  {
    "country": "BRA",
    "coordinates": [
      -54.38839290699988,
      -14.236725569657125
    ],
    "url": "http://plataforma.saude.gov.br/novocoronavirus/resources/scripts/database.js?v=2020-03-20",
    "aggregate": "county",
    "rating": 0.7073170731707317,
    "maintainers": [
      {
        "name": "Felipe Roberto",
        "email": "contato@feliperoberto.com.br",
        "github": "feliperoberto",
        "country": "BRA",
        "flag": "ðŸ‡§ðŸ‡·"
      }
    ],
    "featureId": 224,
    "population": 207353391,
    "name": "BRA"
  },
  {
    "country": "GEO",
    "coordinates": [
      43.34038972821833,
      42.31029968300004
    ],
    "url": "https://github.com/CSSEGISandData/COVID-19",
    "aggregate": "state",
    "rating": 0.7317073170731707,
    "featureId": 27,
    "population": 4926330,
    "name": "GEO"
  },
  {
    "country": "GRC",
    "coordinates": [
      24.119802279500078,
      38.322331546000065
    ],
    "url": "https://github.com/CSSEGISandData/COVID-19",
    "aggregate": "state",
    "rating": 0.7317073170731707,
    "featureId": 28,
    "population": 10768477,
    "name": "GRC"
  },
  {
    "country": "MKD",
    "coordinates": [
      21.726869751000095,
      41.591247966000054
    ],
    "url": "https://github.com/CSSEGISandData/COVID-19",
    "aggregate": "state",
    "rating": 0.7317073170731707,
    "featureId": 29,
    "population": 2103721,
    "name": "MKD"
  },
  {
    "country": "NOR",
    "coordinates": [
      18.013723178000077,
      69.25525543850006
    ],
    "url": "https://github.com/CSSEGISandData/COVID-19",
    "aggregate": "state",
    "rating": 0.7317073170731707,
    "featureId": 30,
    "population": 5320045,
    "name": "NOR"
  },
  {
    "country": "ROU",
    "coordinates": [
      24.950926754500074,
      45.95662750300005
    ],
    "url": "https://github.com/CSSEGISandData/COVID-19",
    "aggregate": "state",
    "rating": 0.7317073170731707,
    "featureId": 31,
    "population": 21529967,
    "name": "ROU"
  },
  {
    "country": "EST",
    "coordinates": [
      24.943451368500064,
      58.572233381000025
    ],
    "url": "https://github.com/CSSEGISandData/COVID-19",
    "aggregate": "state",
    "rating": 0.7317073170731707,
    "featureId": 32,
    "population": 1251581,
    "name": "EST"
  },
  {
    "country": "NLD",
    "coordinates": [
      5.272002682500101,
      52.105282697500066
    ],
    "url": "https://github.com/CSSEGISandData/COVID-19",
    "aggregate": "state",
    "rating": 0.7317073170731707,
    "featureId": 166,
    "population": 17084719,
    "name": "NLD"
  },
  {
    "country": "SMR",
    "coordinates": [
      12.437976970500117,
      43.92963720000006
    ],
    "url": "https://github.com/CSSEGISandData/COVID-19",
    "aggregate": "state",
    "rating": 0.7317073170731707,
    "featureId": 33,
    "population": 33537,
    "name": "SMR"
  },
  {
    "country": "BLR",
    "coordinates": [
      27.942588541500044,
      53.72384073950006
    ],
    "url": "https://github.com/CSSEGISandData/COVID-19",
    "aggregate": "state",
    "rating": 0.7317073170731707,
    "featureId": 34,
    "population": 9549747,
    "name": "BLR"
  },
  {
    "country": "ISL",
    "coordinates": [
      -18.861826138499936,
      64.96666087450004
    ],
    "url": "https://github.com/CSSEGISandData/COVID-19",
    "aggregate": "state",
    "rating": 0.7317073170731707,
    "featureId": 35,
    "population": 339747,
    "name": "ISL"
  },
  {
    "country": "LTU",
    "coordinates": [
      23.911012610500066,
      55.16278391600002
    ],
    "url": "https://github.com/CSSEGISandData/COVID-19",
    "aggregate": "state",
    "rating": 0.7317073170731707,
    "featureId": 36,
    "population": 2823859,
    "name": "LTU"
  },
  {
    "country": "MEX",
    "coordinates": [
      -101.93334401247205,
      23.629557940500092
    ],
    "url": "https://github.com/CSSEGISandData/COVID-19",
    "aggregate": "state",
    "rating": 0.7317073170731707,
    "featureId": 37,
    "population": 124574795,
    "name": "MEX"
  },
  {
    "country": "NZL",
    "coordinates": [
      172.51685631600003,
      -40.878065687999936
    ],
    "url": "https://github.com/CSSEGISandData/COVID-19",
    "aggregate": "state",
    "rating": 0.7317073170731707,
    "featureId": 38,
    "population": 4510327,
    "name": "NZL"
  },
  {
    "country": "NGA",
    "coordinates": [
      8.671077514500098,
      9.07578074450008
    ],
    "url": "https://github.com/CSSEGISandData/COVID-19",
    "aggregate": "state",
    "rating": 0.7317073170731707,
    "featureId": 39,
    "population": 190632261,
    "name": "NGA"
  },
  {
    "country": "AUS",
    "coordinates": [
      120.95978010457588,
      -24.407891534499925
    ],
    "state": "Western Australia",
    "url": "https://www.health.gov.au/news/health-alerts/novel-coronavirus-2019-ncov-health-alert/coronavirus-covid-19-current-situation-and-case-numbers",
    "aggregate": "state",
    "rating": 0.43902439024390244,
    "featureId": 195,
    "population": 2621680,
    "name": "Western Australia, AUS"
  },
  {
    "country": "IRL",
    "coordinates": [
      -8.136179165499925,
      53.46108633000006
    ],
    "url": "https://github.com/CSSEGISandData/COVID-19",
    "aggregate": "state",
    "rating": 0.7317073170731707,
    "featureId": 40,
    "population": 5011102,
    "name": "IRL"
  },
  {
    "country": "LUX",
    "coordinates": [
      6.1075130615000575,
      49.80347279900003
    ],
    "url": "https://github.com/CSSEGISandData/COVID-19",
    "aggregate": "state",
    "rating": 0.7317073170731707,
    "featureId": 41,
    "population": 594130,
    "name": "LUX"
  },
  {
    "country": "MCO",
    "coordinates": [
      7.401602119563048,
      43.743117918500026
    ],
    "url": "https://github.com/CSSEGISandData/COVID-19",
    "aggregate": "state",
    "rating": 0.7317073170731707,
    "featureId": 42,
    "population": 30645,
    "name": "MCO"
  },
  {
    "country": "QAT",
    "coordinates": [
      51.18376712300005,
      25.363913984500023
    ],
    "url": "https://github.com/CSSEGISandData/COVID-19",
    "aggregate": "state",
    "rating": 0.7317073170731707,
    "featureId": 43,
    "population": 2314307,
    "name": "QAT"
  },
  {
    "country": "ECU",
    "coordinates": [
      -83.4578538649999,
      -1.7634670984999161
    ],
    "url": "https://github.com/CSSEGISandData/COVID-19",
    "aggregate": "state",
    "rating": 0.7317073170731707,
    "featureId": 44,
    "population": 16290913,
    "name": "ECU"
  },
  {
    "country": "AZE",
    "coordinates": [
      47.50227481750011,
      40.14320973750006
    ],
    "url": "https://github.com/CSSEGISandData/COVID-19",
    "aggregate": "state",
    "rating": 0.7317073170731707,
    "featureId": 45,
    "population": 9961396,
    "name": "AZE"
  },
  {
    "country": "ARM",
    "coordinates": [
      45.01914310700013,
      40.077076823500036
    ],
    "url": "https://github.com/CSSEGISandData/COVID-19",
    "aggregate": "state",
    "rating": 0.7317073170731707,
    "featureId": 46,
    "population": 3045191,
    "name": "ARM"
  },
  {
    "country": "DOM",
    "coordinates": [
      -70.13417985399988,
      18.771246649000062
    ],
    "url": "https://github.com/CSSEGISandData/COVID-19",
    "aggregate": "state",
    "rating": 0.7317073170731707,
    "featureId": 47,
    "population": 10734247,
    "name": "DOM"
  },
  {
    "country": "IDN",
    "coordinates": [
      118.08721907200007,
      -2.6357561174999375
    ],
    "url": "https://github.com/CSSEGISandData/COVID-19",
    "aggregate": "state",
    "rating": 0.7317073170731707,
    "featureId": 48,
    "population": 260580739,
    "name": "IDN"
  },
  {
    "country": "PRT",
    "coordinates": [
      -15.94334102749994,
      37.400416263500055
    ],
    "url": "https://github.com/CSSEGISandData/COVID-19",
    "aggregate": "state",
    "rating": 0.7317073170731707,
    "featureId": 49,
    "population": 10839514,
    "name": "PRT"
  },
  {
    "country": "AND",
    "coordinates": [
      1.5681518960000886,
      42.51501586950006
    ],
    "url": "https://github.com/CSSEGISandData/COVID-19",
    "aggregate": "state",
    "rating": 0.7317073170731707,
    "featureId": 50,
    "population": 85702,
    "name": "AND"
  },
  {
    "country": "AUS",
    "coordinates": [
      146.16134687600004,
      -41.60023365649994
    ],
    "state": "Tasmania",
    "url": "https://www.health.gov.au/news/health-alerts/novel-coronavirus-2019-ncov-health-alert/coronavirus-covid-19-current-situation-and-case-numbers",
    "aggregate": "state",
    "rating": 0.43902439024390244,
    "featureId": 193,
    "population": 534281,
    "name": "Tasmania, AUS"
  },
  {
    "country": "LVA",
    "coordinates": [
      24.59194014100008,
      56.862861023500045
    ],
    "url": "https://github.com/CSSEGISandData/COVID-19",
    "aggregate": "state",
    "rating": 0.7317073170731707,
    "featureId": 51,
    "population": 1944643,
    "name": "LVA"
  },
  {
    "country": "MAR",
    "coordinates": [
      -9.030622863196513,
      28.67223747529175
    ],
    "url": "https://github.com/CSSEGISandData/COVID-19",
    "aggregate": "state",
    "rating": 0.7317073170731707,
    "featureId": 52,
    "population": 33986655,
    "name": "MAR"
  },
  {
    "country": "SAU",
    "coordinates": [
      45.132142167500064,
      24.244550886000077
    ],
    "url": "https://github.com/CSSEGISandData/COVID-19",
    "aggregate": "state",
    "rating": 0.7317073170731707,
    "featureId": 53,
    "population": 28571770,
    "name": "SAU"
  },
  {
    "country": "SEN",
    "coordinates": [
      -14.37969132899994,
      14.474492289500091
    ],
    "url": "https://github.com/CSSEGISandData/COVID-19",
    "aggregate": "state",
    "rating": 0.7317073170731707,
    "featureId": 54,
    "population": 14668522,
    "name": "SEN"
  },
  {
    "country": "ARG",
    "coordinates": [
      -63.626654215499926,
      -38.42173074799991
    ],
    "url": "https://github.com/CSSEGISandData/COVID-19",
    "aggregate": "state",
    "rating": 0.7317073170731707,
    "featureId": 55,
    "population": 44293293,
    "name": "ARG"
  },
  {
    "country": "CHL",
    "coordinates": [
      -71.3604937374999,
      -36.567062457499944
    ],
    "url": "https://github.com/CSSEGISandData/COVID-19",
    "aggregate": "state",
    "rating": 0.7317073170731707,
    "featureId": 56,
    "population": 17789267,
    "name": "CHL"
  },
  {
    "country": "JOR",
    "coordinates": [
      37.04788003839781,
      31.280817871500048
    ],
    "url": "https://github.com/CSSEGISandData/COVID-19",
    "aggregate": "state",
    "rating": 0.7317073170731707,
    "featureId": 57,
    "population": 10248069,
    "name": "JOR"
  },
  {
    "country": "UKR",
    "coordinates": [
      31.137251424000127,
      48.79241852100008
    ],
    "url": "https://github.com/CSSEGISandData/COVID-19",
    "aggregate": "state",
    "rating": 0.7317073170731707,
    "featureId": 58,
    "population": 44033874,
    "name": "UKR"
  },
  {
    "country": "HUN",
    "coordinates": [
      19.485817912000087,
      47.156127930000025
    ],
    "url": "https://github.com/CSSEGISandData/COVID-19",
    "aggregate": "state",
    "rating": 0.7317073170731707,
    "featureId": 59,
    "population": 9850845,
    "name": "HUN"
  },
  {
    "country": "AUS",
    "coordinates": [
      133.50015133877957,
      -18.516157321898987
    ],
    "state": "Northern Territory",
    "url": "https://www.health.gov.au/news/health-alerts/novel-coronavirus-2019-ncov-health-alert/coronavirus-covid-19-current-situation-and-case-numbers",
    "aggregate": "state",
    "rating": 0.43902439024390244,
    "featureId": 190,
    "population": 245869,
    "name": "Northern Territory, AUS"
  },
  {
    "country": "LIE",
    "coordinates": [
      9.533092081500058,
      47.15983571400008
    ],
    "url": "https://github.com/CSSEGISandData/COVID-19",
    "aggregate": "state",
    "rating": 0.7317073170731707,
    "featureId": 60,
    "population": 38244,
    "name": "LIE"
  },
  {
    "country": "POL",
    "coordinates": [
      19.125478149000088,
      51.93482900350006
    ],
    "url": "https://github.com/CSSEGISandData/COVID-19",
    "aggregate": "state",
    "rating": 0.7317073170731707,
    "featureId": 61,
    "population": 38476269,
    "name": "POL"
  },
  {
    "country": "TUN",
    "coordinates": [
      9.521981649000097,
      33.78217031200008
    ],
    "url": "https://github.com/CSSEGISandData/COVID-19",
    "aggregate": "state",
    "rating": 0.7317073170731707,
    "featureId": 62,
    "population": 11403800,
    "name": "TUN"
  },
  {
    "country": "BIH",
    "coordinates": [
      17.668099406000096,
      43.91899993950011
    ],
    "url": "https://github.com/CSSEGISandData/COVID-19",
    "aggregate": "state",
    "rating": 0.7317073170731707,
    "featureId": 63,
    "population": 3856181,
    "name": "BIH"
  },
  {
    "country": "SVN",
    "coordinates": [
      14.940281412500084,
      46.14379954050001
    ],
    "url": "https://github.com/CSSEGISandData/COVID-19",
    "aggregate": "state",
    "rating": 0.7317073170731707,
    "featureId": 64,
    "population": 1972126,
    "name": "SVN"
  },
  {
    "country": "ZAF",
    "coordinates": [
      24.690074089500087,
      -28.469792578999943
    ],
    "url": "https://github.com/CSSEGISandData/COVID-19",
    "aggregate": "state",
    "rating": 0.7317073170731707,
    "featureId": 65,
    "population": 54841552,
    "name": "ZAF"
  },
  {
    "country": "BTN",
    "coordinates": [
      90.40745792650009,
      27.518180482737833
    ],
    "url": "https://github.com/CSSEGISandData/COVID-19",
    "aggregate": "state",
    "rating": 0.7317073170731707,
    "featureId": 66,
    "population": 758288,
    "name": "BTN"
  },
  {
    "country": "CMR",
    "coordinates": [
      12.350860429500074,
      7.407972718000032
    ],
    "url": "https://github.com/CSSEGISandData/COVID-19",
    "aggregate": "state",
    "rating": 0.7317073170731707,
    "featureId": 67,
    "population": 24994885,
    "name": "CMR"
  },
  {
    "country": "COL",
    "coordinates": [
      -72.93652033249992,
      4.114416812000066
    ],
    "url": "https://github.com/CSSEGISandData/COVID-19",
    "aggregate": "state",
    "rating": 0.7317073170731707,
    "featureId": 68,
    "population": 47698524,
    "name": "COL"
  },
  {
    "country": "CRI",
    "coordinates": [
      -84.21760006449992,
      9.615482479500045
    ],
    "url": "https://github.com/CSSEGISandData/COVID-19",
    "aggregate": "state",
    "rating": 0.7317073170731707,
    "featureId": 69,
    "population": 4930258,
    "name": "CRI"
  },
  {
    "country": "PER",
    "coordinates": [
      -75.01090500599992,
      -9.190602483184005
    ],
    "url": "https://github.com/CSSEGISandData/COVID-19",
    "aggregate": "state",
    "rating": 0.7317073170731707,
    "featureId": 70,
    "population": 31036656,
    "name": "PER"
  },
  {
    "country": "SRB",
    "coordinates": [
      20.9182886145001,
      44.20522467850007
    ],
    "url": "https://github.com/CSSEGISandData/COVID-19",
    "aggregate": "state",
    "rating": 0.7317073170731707,
    "featureId": 71,
    "population": 7111024,
    "name": "SRB"
  },
  {
    "country": "SVK",
    "coordinates": [
      19.692058553000123,
      48.67589304650005
    ],
    "url": "https://github.com/CSSEGISandData/COVID-19",
    "aggregate": "state",
    "rating": 0.7317073170731707,
    "featureId": 72,
    "population": 5445829,
    "name": "SVK"
  },
  {
    "country": "TGO",
    "coordinates": [
      0.8081207685000891,
      8.61773549700009
    ],
    "url": "https://github.com/CSSEGISandData/COVID-19",
    "aggregate": "state",
    "rating": 0.7317073170731707,
    "featureId": 73,
    "population": 7965055,
    "name": "TGO"
  },
  {
    "country": "GUF",
    "coordinates": [
      -53.1258,
      3.9339
    ],
    "url": "https://github.com/CSSEGISandData/COVID-19",
    "aggregate": "state",
    "rating": 0.7317073170731707,
    "name": "GUF"
  },
  {
    "country": "MLT",
    "coordinates": [
      14.445323113000057,
      35.88346995650005
    ],
    "url": "https://github.com/CSSEGISandData/COVID-19",
    "aggregate": "state",
    "rating": 0.7317073170731707,
    "featureId": 74,
    "population": 416338,
    "name": "MLT"
  },
  {
    "country": "MTQ",
    "coordinates": [
      -61.0242,
      14.6415
    ],
    "url": "https://github.com/CSSEGISandData/COVID-19",
    "aggregate": "state",
    "rating": 0.7317073170731707,
    "name": "MTQ"
  },
  {
    "country": "BGR",
    "coordinates": [
      25.47427473600007,
      42.73391529800004
    ],
    "url": "https://github.com/CSSEGISandData/COVID-19",
    "aggregate": "state",
    "rating": 0.7317073170731707,
    "featureId": 75,
    "population": 7101510,
    "name": "BGR"
  },
  {
    "country": "MDV",
    "coordinates": [
      73.52910604309824,
      4.213175576792927
    ],
    "url": "https://github.com/CSSEGISandData/COVID-19",
    "aggregate": "state",
    "rating": 0.7317073170731707,
    "featureId": 76,
    "population": 392709,
    "name": "MDV"
  },
  {
    "country": "BGD",
    "coordinates": [
      90.33232039450004,
      23.73811778050007
    ],
    "url": "https://github.com/CSSEGISandData/COVID-19",
    "aggregate": "state",
    "rating": 0.7317073170731707,
    "featureId": 77,
    "population": 157826578,
    "name": "BGD"
  },
  {
    "country": "PRY",
    "coordinates": [
      -58.44782303899994,
      -23.43368479399996
    ],
    "url": "https://github.com/CSSEGISandData/COVID-19",
    "aggregate": "state",
    "rating": 0.7317073170731707,
    "featureId": 78,
    "population": 6943739,
    "name": "PRY"
  },
  {
    "country": "ALB",
    "coordinates": [
      20.154355916000085,
      41.11245290150006
    ],
    "url": "https://github.com/CSSEGISandData/COVID-19",
    "aggregate": "state",
    "rating": 0.7317073170731707,
    "featureId": 79,
    "population": 3047987,
    "name": "ALB"
  },
  {
    "country": "CYP",
    "coordinates": [
      33.197142898000095,
      34.910753335500104
    ],
    "url": "https://github.com/CSSEGISandData/COVID-19",
    "aggregate": "state",
    "rating": 0.7317073170731707,
    "featureId": 80,
    "population": 1221549,
    "name": "CYP"
  },
  {
    "country": "BRN",
    "coordinates": [
      114.66157535500005,
      4.510995486500057
    ],
    "url": "https://github.com/CSSEGISandData/COVID-19",
    "aggregate": "state",
    "rating": 0.7317073170731707,
    "featureId": 81,
    "population": 443593,
    "name": "BRN"
  },
  {
    "country": "USA",
    "state": "WA",
    "url": "https://covidtracking.com/api/states",
    "aggregate": "state",
    "rating": 0.6585365853658537,
    "curators": [
      {
        "name": "The COVID Tracking Project",
        "url": "https://covidtracking.com/",
        "twitter": "@COVID19Tracking",
        "github": "COVID19Tracking"
      }
    ],
    "coordinates": [
      -120.80671709265283,
      47.27941361449236
    ],
    "featureId": 468,
    "population": 7614893,
    "name": "WA, USA"
  },
  {
    "country": "USA",
    "state": "NY",
    "url": "https://covidtracking.com/api/states",
    "aggregate": "state",
    "rating": 0.6585365853658537,
    "curators": [
      {
        "name": "The COVID Tracking Project",
        "url": "https://covidtracking.com/",
        "twitter": "@COVID19Tracking",
        "github": "COVID19Tracking"
      }
    ],
    "coordinates": [
      -75.8409706677239,
      42.76080525150005
    ],
    "featureId": 455,
    "population": 19453561,
    "name": "NY, USA"
  },
  {
    "country": "USA",
    "state": "CA",
    "url": "https://docs.google.com/spreadsheets/d/1CwZA4RPNf_hUrwzNLyGGNHRlh1cwl8vDHwIoae51Hac/gviz/tq?tqx=out:csv&sheet=master",
    "aggregate": "county",
    "rating": 0.8048780487804879,
    "curators": [
      {
        "name": "Harriet Rowan",
        "email": "hattierowan@gmail.com",
        "twitter": "@hattierowan",
        "github": "HarrietRowan"
      }
    ],
    "coordinates": [
      -119.26717119749563,
      37.26560485570404
    ],
    "featureId": 669,
    "population": 39512223,
    "name": "CA, USA"
  },
  {
    "country": "USA",
    "state": "MA",
    "url": "https://covidtracking.com/api/states",
    "aggregate": "state",
    "rating": 0.5609756097560976,
    "curators": [
      {
        "name": "The COVID Tracking Project",
        "url": "https://covidtracking.com/",
        "twitter": "@COVID19Tracking",
        "github": "COVID19Tracking"
      }
    ],
    "coordinates": [
      -71.72305888370983,
      42.12038082106261
    ],
    "featureId": 440,
    "population": 6892503,
    "name": "MA, USA"
  },
  {
    "country": "USA",
    "state": "GA",
    "url": "https://covidtracking.com/api/states",
    "aggregate": "state",
    "rating": 0.6585365853658537,
    "curators": [
      {
        "name": "The COVID Tracking Project",
        "url": "https://covidtracking.com/",
        "twitter": "@COVID19Tracking",
        "github": "COVID19Tracking"
      }
    ],
    "coordinates": [
      -83.22068258120515,
      32.68249920507424
    ],
    "featureId": 431,
    "population": 10617423,
    "name": "GA, USA"
  },
  {
    "country": "USA",
    "state": "CO",
    "url": "https://covidtracking.com/api/states",
    "aggregate": "state",
    "rating": 0.6585365853658537,
    "population": 5758736,
    "curators": [
      {
        "name": "The COVID Tracking Project",
        "url": "https://covidtracking.com/",
        "twitter": "@COVID19Tracking",
        "github": "COVID19Tracking"
      }
    ],
    "coordinates": [
      -105.54309696705135,
      38.99982098225249
    ],
    "featureId": 426,
    "name": "CO, USA"
  },
  {
    "country": "USA",
    "state": "FL",
    "url": "https://covidtracking.com/api/states",
    "aggregate": "state",
    "rating": 0.6585365853658537,
    "curators": [
      {
        "name": "The COVID Tracking Project",
        "url": "https://covidtracking.com/",
        "twitter": "@COVID19Tracking",
        "github": "COVID19Tracking"
      }
    ],
    "coordinates": [
      -83.82965067998012,
      28.060753542550117
    ],
    "featureId": 430,
    "population": 21477737,
    "name": "FL, USA"
  },
  {
    "country": "USA",
    "state": "NJ",
    "url": "https://covidtracking.com/api/states",
    "aggregate": "state",
    "rating": 0.6585365853658537,
    "curators": [
      {
        "name": "The COVID Tracking Project",
        "url": "https://covidtracking.com/",
        "twitter": "@COVID19Tracking",
        "github": "COVID19Tracking"
      }
    ],
    "coordinates": [
      -74.71937008349994,
      40.14601558652788
    ],
    "featureId": 452,
    "population": 8882190,
    "name": "NJ, USA"
  },
  {
    "country": "USA",
    "state": "OR",
    "url": "https://covidtracking.com/api/states",
    "aggregate": "state",
    "rating": 0.6585365853658537,
    "curators": [
      {
        "name": "The COVID Tracking Project",
        "url": "https://covidtracking.com/",
        "twitter": "@COVID19Tracking",
        "github": "COVID19Tracking"
      }
    ],
    "coordinates": [
      -120.50533834262885,
      44.11740471870206
    ],
    "featureId": 458,
    "population": 4217737,
    "name": "OR, USA"
  },
  {
    "country": "USA",
    "state": "TX",
    "url": "https://covidtracking.com/api/states",
    "aggregate": "state",
    "rating": 0.6585365853658537,
    "certValidation": false,
    "curators": [
      {
        "name": "The COVID Tracking Project",
        "url": "https://covidtracking.com/",
        "twitter": "@COVID19Tracking",
        "github": "COVID19Tracking"
      }
    ],
    "coordinates": [
      -100.0884705015624,
      31.177528238191037
    ],
    "featureId": 464,
    "population": 28995881,
    "name": "TX, USA"
  },
  {
    "country": "USA",
    "state": "IL",
    "url": "https://covidtracking.com/api/states",
    "aggregate": "state",
    "rating": 0.6585365853658537,
    "curators": [
      {
        "name": "The COVID Tracking Project",
        "url": "https://covidtracking.com/",
        "twitter": "@COVID19Tracking",
        "github": "COVID19Tracking"
      }
    ],
    "coordinates": [
      -89.26887859227318,
      39.74570721281759
    ],
    "featureId": 435,
    "population": 12671821,
    "name": "IL, USA"
  },
  {
    "country": "USA",
    "state": "PA",
    "url": "https://covidtracking.com/api/states",
    "aggregate": "state",
    "rating": 0.6585365853658537,
    "curators": [
      {
        "name": "The COVID Tracking Project",
        "url": "https://covidtracking.com/",
        "twitter": "@COVID19Tracking",
        "github": "COVID19Tracking"
      }
    ],
    "coordinates": [
      -77.60961308037935,
      41.12951166463159
    ],
    "featureId": 459,
    "population": 12801989,
    "name": "PA, USA"
  },
  {
    "country": "USA",
    "state": "IA",
    "url": "https://covidtracking.com/api/states",
    "aggregate": "state",
    "rating": 0.5609756097560976,
    "curators": [
      {
        "name": "The COVID Tracking Project",
        "url": "https://covidtracking.com/",
        "twitter": "@COVID19Tracking",
        "github": "COVID19Tracking"
      }
    ],
    "coordinates": [
      -93.38911747419203,
      41.94023846253498
    ],
    "featureId": 433,
    "population": 3155070,
    "name": "IA, USA"
  },
  {
    "country": "USA",
    "state": "MD",
    "url": "https://covidtracking.com/api/states",
    "aggregate": "state",
    "rating": 0.6585365853658537,
    "curators": [
      {
        "name": "The COVID Tracking Project",
        "url": "https://covidtracking.com/",
        "twitter": "@COVID19Tracking",
        "github": "COVID19Tracking"
      }
    ],
    "coordinates": [
      -77.28591288692019,
      38.84687414823583
    ],
    "featureId": 441,
    "population": 6045680,
    "name": "MD, USA"
  },
  {
    "country": "USA",
    "state": "NC",
    "url": "https://covidtracking.com/api/states",
    "aggregate": "state",
    "rating": 0.6585365853658537,
    "curators": [
      {
        "name": "The COVID Tracking Project",
        "url": "https://covidtracking.com/",
        "twitter": "@COVID19Tracking",
        "github": "COVID19Tracking"
      }
    ],
    "coordinates": [
      -80.02322978144363,
      35.24607653682786
    ],
    "featureId": 448,
    "population": 10488084,
    "name": "NC, USA"
  },
  {
    "country": "USA",
    "state": "SC",
    "url": "https://covidtracking.com/api/states",
    "aggregate": "state",
    "rating": 0.6585365853658537,
    "curators": [
      {
        "name": "The COVID Tracking Project",
        "url": "https://covidtracking.com/",
        "twitter": "@COVID19Tracking",
        "github": "COVID19Tracking"
      }
    ],
    "coordinates": [
      -80.96432271741013,
      33.619274050261765
    ],
    "featureId": 461,
    "population": 5148714,
    "name": "SC, USA"
  },
  {
    "country": "USA",
    "state": "TN",
    "url": "https://covidtracking.com/api/states",
    "aggregate": "state",
    "rating": 0.5609756097560976,
    "curators": [
      {
        "name": "The COVID Tracking Project",
        "url": "https://covidtracking.com/",
        "twitter": "@COVID19Tracking",
        "github": "COVID19Tracking"
      }
    ],
    "coordinates": [
      -85.98153690830165,
      35.837455259602535
    ],
    "featureId": 463,
    "population": 6829174,
    "name": "TN, USA"
  },
  {
    "country": "USA",
    "state": "VA",
    "url": "https://covidtracking.com/api/states",
    "aggregate": "state",
    "rating": 0.6585365853658537,
    "curators": [
      {
        "name": "The COVID Tracking Project",
        "url": "https://covidtracking.com/",
        "twitter": "@COVID19Tracking",
        "github": "COVID19Tracking"
      }
    ],
    "coordinates": [
      -79.76028754243612,
      37.99530438119223
    ],
    "featureId": 466,
    "population": 8535519,
    "name": "VA, USA"
  },
  {
    "country": "USA",
    "state": "AZ",
    "url": "https://covidtracking.com/api/states",
    "aggregate": "state",
    "rating": 0.6585365853658537,
    "curators": [
      {
        "name": "The COVID Tracking Project",
        "url": "https://covidtracking.com/",
        "twitter": "@COVID19Tracking",
        "github": "COVID19Tracking"
      }
    ],
    "coordinates": [
      -111.93299895849756,
      34.165156819218375
    ],
    "featureId": 425,
    "population": 7278717,
    "name": "AZ, USA"
  },
  {
    "country": "USA",
    "state": "IN",
    "url": "https://covidtracking.com/api/states",
    "aggregate": "state",
    "rating": 0.6585365853658537,
    "curators": [
      {
        "name": "The COVID Tracking Project",
        "url": "https://covidtracking.com/",
        "twitter": "@COVID19Tracking",
        "github": "COVID19Tracking"
      }
    ],
    "coordinates": [
      -86.41467899783746,
      39.774149595877134
    ],
    "featureId": 436,
    "population": 6732219,
    "name": "IN, USA"
  },
  {
    "country": "USA",
    "state": "KY",
    "url": "https://covidtracking.com/api/states",
    "aggregate": "state",
    "rating": 0.6585365853658537,
    "curators": [
      {
        "name": "The COVID Tracking Project",
        "url": "https://covidtracking.com/",
        "twitter": "@COVID19Tracking",
        "github": "COVID19Tracking"
      }
    ],
    "coordinates": [
      -85.69484257237679,
      37.820719419565535
    ],
    "featureId": 438,
    "population": 4467673,
    "name": "KY, USA"
  },
  {
    "country": "USA",
    "state": "DC",
    "url": "https://covidtracking.com/api/states",
    "aggregate": "state",
    "rating": 0.6585365853658537,
    "curators": [
      {
        "name": "The COVID Tracking Project",
        "url": "https://covidtracking.com/",
        "twitter": "@COVID19Tracking",
        "github": "COVID19Tracking"
      }
    ],
    "coordinates": [
      -77.0145477695639,
      38.899451555326564
    ],
    "featureId": 428,
    "population": 705749,
    "name": "DC, USA"
  },
  {
    "country": "USA",
    "state": "NV",
    "url": "https://covidtracking.com/api/states",
    "aggregate": "state",
    "rating": 0.6585365853658537,
    "curators": [
      {
        "name": "The COVID Tracking Project",
        "url": "https://covidtracking.com/",
        "twitter": "@COVID19Tracking",
        "github": "COVID19Tracking"
      }
    ],
    "coordinates": [
      -117.02047733760901,
      38.50182293528022
    ],
    "featureId": 454,
    "population": 3080156,
    "name": "NV, USA"
  },
  {
    "country": "USA",
    "state": "NH",
    "url": "https://covidtracking.com/api/states",
    "aggregate": "state",
    "rating": 0.5609756097560976,
    "curators": [
      {
        "name": "The COVID Tracking Project",
        "url": "https://covidtracking.com/",
        "twitter": "@COVID19Tracking",
        "github": "COVID19Tracking"
      }
    ],
    "coordinates": [
      -71.64192281532604,
      44.002575579129676
    ],
    "featureId": 451,
    "population": 1359711,
    "name": "NH, USA"
  },
  {
    "country": "USA",
    "state": "MN",
    "url": "https://covidtracking.com/api/states",
    "aggregate": "state",
    "rating": 0.5609756097560976,
    "curators": [
      {
        "name": "The COVID Tracking Project",
        "url": "https://covidtracking.com/",
        "twitter": "@COVID19Tracking",
        "github": "COVID19Tracking"
      }
    ],
    "coordinates": [
      -93.36252550514794,
      46.434810139826055
    ],
    "featureId": 444,
    "population": 5639632,
    "name": "MN, USA"
  },
  {
    "country": "USA",
    "state": "NE",
    "url": "https://covidtracking.com/api/states",
    "aggregate": "state",
    "rating": 0.6585365853658537,
    "curators": [
      {
        "name": "The COVID Tracking Project",
        "url": "https://covidtracking.com/",
        "twitter": "@COVID19Tracking",
        "github": "COVID19Tracking"
      }
    ],
    "coordinates": [
      -99.68549198596634,
      41.50023602157509
    ],
    "featureId": 450,
    "population": 1934408,
    "name": "NE, USA"
  },
  {
    "country": "USA",
    "state": "OH",
    "url": "https://covidtracking.com/api/states",
    "aggregate": "state",
    "rating": 0.5609756097560976,
    "curators": [
      {
        "name": "The COVID Tracking Project",
        "url": "https://covidtracking.com/",
        "twitter": "@COVID19Tracking",
        "github": "COVID19Tracking"
      }
    ],
    "coordinates": [
      -82.67188114679749,
      40.36645852284252
    ],
    "featureId": 456,
    "population": 11689100,
    "name": "OH, USA"
  },
  {
    "country": "USA",
    "state": "RI",
    "url": "https://covidtracking.com/api/states",
    "aggregate": "state",
    "rating": 0.5609756097560976,
    "curators": [
      {
        "name": "The COVID Tracking Project",
        "url": "https://covidtracking.com/",
        "twitter": "@COVID19Tracking",
        "github": "COVID19Tracking"
      }
    ],
    "coordinates": [
      -71.48453225865693,
      41.66332011094793
    ],
    "featureId": 460,
    "population": 1059361,
    "name": "RI, USA"
  },
  {
    "country": "USA",
    "state": "WI",
    "url": "https://covidtracking.com/api/states",
    "aggregate": "state",
    "rating": 0.5609756097560976,
    "curators": [
      {
        "name": "The COVID Tracking Project",
        "url": "https://covidtracking.com/",
        "twitter": "@COVID19Tracking",
        "github": "COVID19Tracking"
      }
    ],
    "coordinates": [
      -89.56690985655462,
      44.89991863863423
    ],
    "featureId": 469,
    "population": 5822434,
    "name": "WI, USA"
  },
  {
    "country": "USA",
    "state": "CT",
    "url": "https://covidtracking.com/api/states",
    "aggregate": "state",
    "rating": 0.6585365853658537,
    "curators": [
      {
        "name": "The COVID Tracking Project",
        "url": "https://covidtracking.com/",
        "twitter": "@COVID19Tracking",
        "github": "COVID19Tracking"
      }
    ],
    "coordinates": [
      -72.75935673202756,
      41.52780529315321
    ],
    "featureId": 427,
    "population": 3565287,
    "name": "CT, USA"
  },
  {
    "country": "USA",
    "state": "HI",
    "url": "https://covidtracking.com/api/states",
    "aggregate": "state",
    "rating": 0.5609756097560976,
    "curators": [
      {
        "name": "The COVID Tracking Project",
        "url": "https://covidtracking.com/",
        "twitter": "@COVID19Tracking",
        "github": "COVID19Tracking"
      }
    ],
    "coordinates": [
      -157.30113772849992,
      20.58419053050008
    ],
    "featureId": 432,
    "population": 1415872,
    "name": "HI, USA"
  },
  {
    "country": "USA",
    "state": "OK",
    "url": "https://covidtracking.com/api/states",
    "aggregate": "state",
    "rating": 0.6585365853658537,
    "curators": [
      {
        "name": "The COVID Tracking Project",
        "url": "https://covidtracking.com/",
        "twitter": "@COVID19Tracking",
        "github": "COVID19Tracking"
      }
    ],
    "coordinates": [
      -98.71994022800911,
      35.32361248602737
    ],
    "featureId": 457,
    "population": 3956971,
    "name": "OK, USA"
  },
  {
    "country": "USA",
    "state": "UT",
    "url": "https://covidtracking.com/api/states",
    "aggregate": "state",
    "rating": 0.6585365853658537,
    "curators": [
      {
        "name": "The COVID Tracking Project",
        "url": "https://covidtracking.com/",
        "twitter": "@COVID19Tracking",
        "github": "COVID19Tracking"
      }
    ],
    "coordinates": [
      -111.54443973955233,
      39.49994305252983
    ],
    "featureId": 465,
    "population": 3205958,
    "name": "UT, USA"
  },
  {
    "country": "BFA",
    "coordinates": [
      -1.5662045904998934,
      12.230804951500069
    ],
    "url": "https://github.com/CSSEGISandData/COVID-19",
    "aggregate": "state",
    "rating": 0.7317073170731707,
    "featureId": 82,
    "population": 20107509,
    "name": "BFA"
  },
  {
    "country": "VAT",
    "coordinates": [
      12.453533325000109,
      41.90333333950011
    ],
    "url": "https://github.com/CSSEGISandData/COVID-19",
    "aggregate": "state",
    "rating": 0.7317073170731707,
    "featureId": 83,
    "population": 1000,
    "name": "VAT"
  },
  {
    "country": "MNG",
    "coordinates": [
      103.85503503500007,
      46.85141784700008
    ],
    "url": "https://github.com/CSSEGISandData/COVID-19",
    "aggregate": "state",
    "rating": 0.7317073170731707,
    "featureId": 84,
    "population": 3068243,
    "name": "MNG"
  },
  {
    "country": "PAN",
    "coordinates": [
      -80.07274338849989,
      8.420921827000058
    ],
    "url": "https://github.com/CSSEGISandData/COVID-19",
    "aggregate": "state",
    "rating": 0.7317073170731707,
    "featureId": 85,
    "population": 3753142,
    "name": "PAN"
  },
  {
    "country": "USA",
    "state": "KS",
    "url": "https://covidtracking.com/api/states",
    "aggregate": "state",
    "rating": 0.6585365853658537,
    "curators": [
      {
        "name": "The COVID Tracking Project",
        "url": "https://covidtracking.com/",
        "twitter": "@COVID19Tracking",
        "github": "COVID19Tracking"
      }
    ],
    "coordinates": [
      -98.33450321689992,
      38.49995525967745
    ],
    "featureId": 437,
    "population": 2913314,
    "name": "KS, USA"
  },
  {
    "country": "USA",
    "state": "LA",
    "url": "https://covidtracking.com/api/states",
    "aggregate": "state",
    "rating": 0.6585365853658537,
    "curators": [
      {
        "name": "The COVID Tracking Project",
        "url": "https://covidtracking.com/",
        "twitter": "@COVID19Tracking",
        "github": "COVID19Tracking"
      }
    ],
    "coordinates": [
      -91.53320699521313,
      31.022399050426287
    ],
    "featureId": 439,
    "population": 4648794,
    "name": "LA, USA"
  },
  {
    "country": "USA",
    "state": "MO",
    "url": "https://covidtracking.com/api/states",
    "aggregate": "state",
    "rating": 0.6585365853658537,
    "curators": [
      {
        "name": "The COVID Tracking Project",
        "url": "https://covidtracking.com/",
        "twitter": "@COVID19Tracking",
        "github": "COVID19Tracking"
      }
    ],
    "coordinates": [
      -92.44567264977294,
      38.30249432230511
    ],
    "featureId": 445,
    "population": 6137428,
    "name": "MO, USA"
  },
  {
    "country": "USA",
    "state": "VT",
    "url": "https://covidtracking.com/api/states",
    "aggregate": "state",
    "rating": 0.5609756097560976,
    "curators": [
      {
        "name": "The COVID Tracking Project",
        "url": "https://covidtracking.com/",
        "twitter": "@COVID19Tracking",
        "github": "COVID19Tracking"
      }
    ],
    "coordinates": [
      -72.47219594044931,
      43.87150381198679
    ],
    "featureId": 467,
    "population": 623989,
    "name": "VT, USA"
  },
  {
    "country": "USA",
    "state": "AK",
    "url": "https://covidtracking.com/api/states",
    "aggregate": "state",
    "rating": 0.5609756097560976,
    "curators": [
      {
        "name": "The COVID Tracking Project",
        "url": "https://covidtracking.com/",
        "twitter": "@COVID19Tracking",
        "github": "COVID19Tracking"
      }
    ],
    "coordinates": [
      0.7835596040000752,
      61.51689280800005
    ],
    "featureId": 422,
    "population": 731545,
    "name": "AK, USA"
  },
  {
    "country": "USA",
    "state": "AR",
    "url": "https://covidtracking.com/api/states",
    "aggregate": "state",
    "rating": 0.5609756097560976,
    "curators": [
      {
        "name": "The COVID Tracking Project",
        "url": "https://covidtracking.com/",
        "twitter": "@COVID19Tracking",
        "github": "COVID19Tracking"
      }
    ],
    "coordinates": [
      -92.142816204804,
      34.755387388617066
    ],
    "featureId": 424,
    "population": 3017804,
    "name": "AR, USA"
  },
  {
    "country": "USA",
    "state": "DE",
    "url": "https://covidtracking.com/api/states",
    "aggregate": "state",
    "rating": 0.6585365853658537,
    "curators": [
      {
        "name": "The COVID Tracking Project",
        "url": "https://covidtracking.com/",
        "twitter": "@COVID19Tracking",
        "github": "COVID19Tracking"
      }
    ],
    "coordinates": [
      -75.41630955251765,
      39.14564123795276
    ],
    "featureId": 429,
    "population": 973764,
    "name": "DE, USA"
  },
  {
    "country": "USA",
    "state": "ID",
    "url": "https://covidtracking.com/api/states",
    "aggregate": "state",
    "rating": 0.5609756097560976,
    "curators": [
      {
        "name": "The COVID Tracking Project",
        "url": "https://covidtracking.com/",
        "twitter": "@COVID19Tracking",
        "github": "COVID19Tracking"
      }
    ],
    "coordinates": [
      -114.12702030654191,
      45.49602738420207
    ],
    "featureId": 434,
    "population": 1787065,
    "name": "ID, USA"
  },
  {
    "country": "USA",
    "state": "ME",
    "url": "https://covidtracking.com/api/states",
    "aggregate": "state",
    "rating": 0.5609756097560976,
    "curators": [
      {
        "name": "The COVID Tracking Project",
        "url": "https://covidtracking.com/",
        "twitter": "@COVID19Tracking",
        "github": "COVID19Tracking"
      }
    ],
    "coordinates": [
      -69.03113847999994,
      45.261826073000044
    ],
    "featureId": 442,
    "population": 1344212,
    "name": "ME, USA"
  },
  {
    "country": "USA",
    "state": "MI",
    "url": "https://covidtracking.com/api/states",
    "aggregate": "state",
    "rating": 0.6585365853658537,
    "curators": [
      {
        "name": "The COVID Tracking Project",
        "url": "https://covidtracking.com/",
        "twitter": "@COVID19Tracking",
        "github": "COVID19Tracking"
      }
    ],
    "coordinates": [
      -86.2800539156174,
      44.99773029893432
    ],
    "featureId": 443,
    "population": 9986857,
    "name": "MI, USA"
  },
  {
    "country": "USA",
    "state": "MS",
    "url": "https://covidtracking.com/api/states",
    "aggregate": "state",
    "rating": 0.5609756097560976,
    "curators": [
      {
        "name": "The COVID Tracking Project",
        "url": "https://covidtracking.com/",
        "twitter": "@COVID19Tracking",
        "github": "COVID19Tracking"
      }
    ],
    "coordinates": [
      -89.87338261081882,
      32.59642655665229
    ],
    "featureId": 446,
    "population": 2976149,
    "name": "MS, USA"
  },
  {
    "country": "USA",
    "state": "MT",
    "url": "https://covidtracking.com/api/states",
    "aggregate": "state",
    "rating": 0.5609756097560976,
    "curators": [
      {
        "name": "The COVID Tracking Project",
        "url": "https://covidtracking.com/",
        "twitter": "@COVID19Tracking",
        "github": "COVID19Tracking"
      }
    ],
    "coordinates": [
      -110.04412235741086,
      46.70905513463874
    ],
    "featureId": 447,
    "population": 1068778,
    "name": "MT, USA"
  },
  {
    "country": "USA",
    "state": "NM",
    "url": "https://covidtracking.com/api/states",
    "aggregate": "state",
    "rating": 0.5609756097560976,
    "curators": [
      {
        "name": "The COVID Tracking Project",
        "url": "https://covidtracking.com/",
        "twitter": "@COVID19Tracking",
        "github": "COVID19Tracking"
      }
    ],
    "coordinates": [
      -106.02383427161152,
      34.16360001562739
    ],
    "featureId": 453,
    "population": 2096829,
    "name": "NM, USA"
  },
  {
    "country": "USA",
    "state": "ND",
    "url": "https://covidtracking.com/api/states",
    "aggregate": "state",
    "rating": 0.6585365853658537,
    "curators": [
      {
        "name": "The COVID Tracking Project",
        "url": "https://covidtracking.com/",
        "twitter": "@COVID19Tracking",
        "github": "COVID19Tracking"
      }
    ],
    "coordinates": [
      -100.3019580214955,
      47.46721085597658
    ],
    "featureId": 449,
    "population": 762062,
    "name": "ND, USA"
  },
  {
    "country": "USA",
    "state": "SD",
    "url": "https://covidtracking.com/api/states",
    "aggregate": "state",
    "rating": 0.6585365853658537,
    "curators": [
      {
        "name": "The COVID Tracking Project",
        "url": "https://covidtracking.com/",
        "twitter": "@COVID19Tracking",
        "github": "COVID19Tracking"
      }
    ],
    "coordinates": [
      -100.2551086848679,
      44.230179869105655
    ],
    "featureId": 462,
    "population": 884659,
    "name": "SD, USA"
  },
  {
    "country": "USA",
    "state": "WV",
    "url": "https://covidtracking.com/api/states",
    "aggregate": "state",
    "rating": 0.6585365853658537,
    "curators": [
      {
        "name": "The COVID Tracking Project",
        "url": "https://covidtracking.com/",
        "twitter": "@COVID19Tracking",
        "github": "COVID19Tracking"
      }
    ],
    "coordinates": [
      -80.1829407161911,
      38.92806805344787
    ],
    "featureId": 470,
    "population": 1792147,
    "name": "WV, USA"
  },
  {
    "country": "USA",
    "state": "WY",
    "url": "https://covidtracking.com/api/states",
    "aggregate": "state",
    "rating": 0.5609756097560976,
    "curators": [
      {
        "name": "The COVID Tracking Project",
        "url": "https://covidtracking.com/",
        "twitter": "@COVID19Tracking",
        "github": "COVID19Tracking"
      }
    ],
    "coordinates": [
      -107.55199589229656,
      42.999967466625236
    ],
    "featureId": 471,
    "population": 578759,
    "name": "WY, USA"
  },
  {
    "country": "CHN",
    "coordinates": [
      112.26392825753302,
      31.166405443456426
    ],
    "state": "Hubei",
    "url": "https://github.com/CSSEGISandData/COVID-19",
    "aggregate": "state",
    "rating": 0.7804878048780488,
    "featureId": 86,
    "population": 59170000,
    "name": "Hubei, CHN"
  },
  {
    "country": "IRN",
    "coordinates": [
      53.6631116130001,
      32.412651216000036
    ],
    "url": "https://github.com/CSSEGISandData/COVID-19",
    "aggregate": "state",
    "rating": 0.7317073170731707,
    "featureId": 87,
    "population": 82021564,
    "name": "IRN"
  },
  {
    "country": "KOR",
    "coordinates": [
      127.85698489700007,
      35.91235993050006
    ],
    "url": "https://github.com/CSSEGISandData/COVID-19",
    "aggregate": "state",
    "rating": 0.7317073170731707,
    "featureId": 88,
    "population": 51181299,
    "name": "KOR"
  },
  {
    "country": "FRA",
    "coordinates": [
      -2.9882706369999426,
      14.862000781359463
    ],
    "url": "https://raw.githubusercontent.com/opencovid19-fr/data/master/dist/chiffres-cles.csv",
    "aggregate": "state",
    "rating": 0.6829268292682927,
    "featureId": 259,
    "population": 67106161,
    "name": "FRA"
  },
  {
    "country": "CHN",
    "coordinates": [
      113.41792352680932,
      22.876783758944043
    ],
    "state": "Guangdong",
    "url": "https://github.com/CSSEGISandData/COVID-19",
    "aggregate": "state",
    "rating": 0.7804878048780488,
    "featureId": 89,
    "population": 113460000,
    "name": "Guangdong, CHN"
  },
  {
    "country": "CHN",
    "coordinates": [
      113.48442223524788,
      33.87707977965809
    ],
    "state": "Henan",
    "url": "https://github.com/CSSEGISandData/COVID-19",
    "aggregate": "state",
    "rating": 0.7804878048780488,
    "featureId": 90,
    "population": 96050000,
    "name": "Henan, CHN"
  },
  {
    "country": "CHN",
    "coordinates": [
      120.1641359794138,
      29.189050400871963
    ],
    "state": "Zhejiang",
    "url": "https://github.com/CSSEGISandData/COVID-19",
    "aggregate": "state",
    "rating": 0.7804878048780488,
    "featureId": 91,
    "population": 57370000,
    "name": "Zhejiang, CHN"
  },
  {
    "country": "CHN",
    "coordinates": [
      111.50909061104284,
      27.369414984613826
    ],
    "state": "Hunan",
    "url": "https://github.com/CSSEGISandData/COVID-19",
    "aggregate": "state",
    "rating": 0.7804878048780488,
    "featureId": 92,
    "population": 68990000,
    "name": "Hunan, CHN"
  },
  {
    "country": "CHN",
    "coordinates": [
      117.2581712176775,
      32.02378204990168
    ],
    "state": "Anhui",
    "url": "https://github.com/CSSEGISandData/COVID-19",
    "aggregate": "state",
    "rating": 0.7804878048780488,
    "featureId": 93,
    "population": 63240000,
    "name": "Anhui, CHN"
  },
  {
    "country": "CHN",
    "coordinates": [
      116.01917707751011,
      27.275131334293633
    ],
    "state": "Jiangxi",
    "url": "https://github.com/CSSEGISandData/COVID-19",
    "aggregate": "state",
    "rating": 0.7804878048780488,
    "featureId": 94,
    "population": 46480000,
    "name": "Jiangxi, CHN"
  },
  {
    "country": "CHN",
    "coordinates": [
      118.74515424940193,
      36.33507593620547
    ],
    "state": "Shandong",
    "url": "https://github.com/CSSEGISandData/COVID-19",
    "aggregate": "state",
    "rating": 0.7804878048780488,
    "featureId": 95,
    "population": 100470000,
    "name": "Shandong, CHN"
  },
  {
    "country": "CHN",
    "coordinates": [
      119.14963721029278,
      32.934811713190015
    ],
    "state": "Jiangsu",
    "url": "https://github.com/CSSEGISandData/COVID-19",
    "aggregate": "state",
    "rating": 0.7804878048780488,
    "featureId": 96,
    "population": 80510000,
    "name": "Jiangsu, CHN"
  },
  {
    "country": "CHN",
    "coordinates": [
      107.73296451180275,
      30.198712571927643
    ],
    "state": "Chongqing",
    "url": "https://github.com/CSSEGISandData/COVID-19",
    "aggregate": "state",
    "rating": 0.7804878048780488,
    "featureId": 97,
    "population": 31020000,
    "name": "Chongqing, CHN"
  },
  {
    "country": "CHN",
    "coordinates": [
      102.93966535826965,
      30.165213324835065
    ],
    "state": "Sichuan",
    "url": "https://github.com/CSSEGISandData/COVID-19",
    "aggregate": "state",
    "rating": 0.7804878048780488,
    "featureId": 98,
    "population": 83410000,
    "name": "Sichuan, CHN"
  },
  {
    "country": "CHN",
    "coordinates": [
      127.97325321185173,
      48.501949771374576
    ],
    "state": "Heilongjiang",
    "url": "https://github.com/CSSEGISandData/COVID-19",
    "aggregate": "state",
    "rating": 0.7804878048780488,
    "featureId": 99,
    "population": 37730000,
    "name": "Heilongjiang, CHN"
  },
  {
    "country": "GBR",
    "coordinates": [
      -3.436,
      55.3781
    ],
    "state": "UK",
    "url": "https://github.com/CSSEGISandData/COVID-19",
    "aggregate": "state",
    "rating": 0.7804878048780488,
    "name": "UK, GBR"
  },
  {
    "country": "DNK",
    "coordinates": [
      11.628916862500091,
      56.10986969600006
    ],
    "url": "https://github.com/CSSEGISandData/COVID-19",
    "aggregate": "state",
    "rating": 0.7317073170731707,
    "featureId": 100,
    "population": 5605948,
    "name": "DNK"
  },
  {
    "country": "CHN",
    "coordinates": [
      116.42780846573805,
      40.236575323991985
    ],
    "state": "Beijing",
    "url": "https://github.com/CSSEGISandData/COVID-19",
    "aggregate": "state",
    "rating": 0.7804878048780488,
    "featureId": 101,
    "population": 21540000,
    "name": "Beijing, CHN"
  },
  {
    "country": "CHN",
    "coordinates": [
      121.43153719907554,
      31.266158547445322
    ],
    "state": "Shanghai",
    "url": "https://github.com/CSSEGISandData/COVID-19",
    "aggregate": "state",
    "rating": 0.7804878048780488,
    "featureId": 102,
    "population": 24240000,
    "name": "Shanghai, CHN"
  },
  {
    "country": "CHN",
    "coordinates": [
      116.65206139450123,
      39.323827419599695
    ],
    "state": "Hebei",
    "url": "https://github.com/CSSEGISandData/COVID-19",
    "aggregate": "state",
    "rating": 0.7804878048780488,
    "featureId": 103,
    "population": 75560000,
    "name": "Hebei, CHN"
  },
  {
    "country": "CHN",
    "coordinates": [
      118.13227705193037,
      25.971159641604146
    ],
    "state": "Fujian",
    "url": "https://github.com/CSSEGISandData/COVID-19",
    "aggregate": "state",
    "rating": 0.7804878048780488,
    "featureId": 104,
    "population": 39410000,
    "name": "Fujian, CHN"
  },
  {
    "country": "CHN",
    "coordinates": [
      108.27096784823755,
      23.899949245349177
    ],
    "state": "Guangxi",
    "url": "https://github.com/CSSEGISandData/COVID-19",
    "aggregate": "state",
    "rating": 0.7804878048780488,
    "featureId": 105,
    "population": 49260000,
    "name": "Guangxi, CHN"
  },
  {
    "country": "CHN",
    "coordinates": [
      108.36171166401203,
      35.63509908705319
    ],
    "state": "Shaanxi",
    "url": "https://github.com/CSSEGISandData/COVID-19",
    "aggregate": "state",
    "rating": 0.7804878048780488,
    "featureId": 106,
    "population": 38640000,
    "name": "Shaanxi, CHN"
  },
  {
    "country": "CHN",
    "coordinates": [
      101.85510583221756,
      25.179122725058342
    ],
    "state": "Yunnan",
    "url": "https://github.com/CSSEGISandData/COVID-19",
    "aggregate": "state",
    "rating": 0.7804878048780488,
    "featureId": 107,
    "population": 48300000,
    "name": "Yunnan, CHN"
  },
  {
    "country": "CHN",
    "coordinates": [
      109.81287682400003,
      19.150763250500063
    ],
    "state": "Hainan",
    "url": "https://github.com/CSSEGISandData/COVID-19",
    "aggregate": "state",
    "rating": 0.7804878048780488,
    "featureId": 108,
    "population": 9340000,
    "name": "Hainan, CHN"
  },
  {
    "country": "CHN",
    "coordinates": [
      106.60127648352287,
      26.9387435980386
    ],
    "state": "Guizhou",
    "url": "https://github.com/CSSEGISandData/COVID-19",
    "aggregate": "state",
    "rating": 0.7804878048780488,
    "featureId": 109,
    "population": 36000000,
    "name": "Guizhou, CHN"
  },
  {
    "country": "CHN",
    "coordinates": [
      117.34508644325369,
      39.40813751918114
    ],
    "state": "Tianjin",
    "url": "https://github.com/CSSEGISandData/COVID-19",
    "aggregate": "state",
    "rating": 0.7804878048780488,
    "featureId": 110,
    "population": 15600000,
    "name": "Tianjin, CHN"
  },
  {
    "country": "CHN",
    "coordinates": [
      112.3891919290642,
      37.66312775369286
    ],
    "state": "Shanxi",
    "url": "https://github.com/CSSEGISandData/COVID-19",
    "aggregate": "state",
    "rating": 0.7804878048780488,
    "featureId": 111,
    "population": 37180000,
    "name": "Shanxi, CHN"
  },
  {
    "country": "CHN",
    "coordinates": [
      100.73804263765757,
      37.69770367228662
    ],
    "state": "Gansu",
    "url": "https://github.com/CSSEGISandData/COVID-19",
    "aggregate": "state",
    "rating": 0.7804878048780488,
    "featureId": 112,
    "population": 26370000,
    "name": "Gansu, CHN"
  },
  {
    "country": "CHN",
    "coordinates": [
      114.2,
      22.3
    ],
    "state": "Hong Kong",
    "url": "https://github.com/CSSEGISandData/COVID-19",
    "aggregate": "state",
    "rating": 0.7804878048780488,
    "name": "Hong Kong, CHN"
  },
  {
    "country": "CHN",
    "coordinates": [
      122.31055016440854,
      41.09091390618639
    ],
    "state": "Liaoning",
    "url": "https://github.com/CSSEGISandData/COVID-19",
    "aggregate": "state",
    "rating": 0.7804878048780488,
    "featureId": 114,
    "population": 43590000,
    "name": "Liaoning, CHN"
  },
  {
    "country": "CHN",
    "coordinates": [
      126.47365482303488,
      43.56576924140737
    ],
    "state": "Jilin",
    "url": "https://github.com/CSSEGISandData/COVID-19",
    "aggregate": "state",
    "rating": 0.7804878048780488,
    "featureId": 115,
    "population": 27040000,
    "name": "Jilin, CHN"
  },
  {
    "country": "CZE",
    "coordinates": [
      15.540038086000095,
      49.80312398300006
    ],
    "url": "https://github.com/CSSEGISandData/COVID-19",
    "aggregate": "state",
    "rating": 0.7317073170731707,
    "featureId": 116,
    "population": 10674723,
    "name": "CZE"
  },
  {
    "country": "CHN",
    "coordinates": [
      84.98429810398284,
      41.752899103285706
    ],
    "state": "Xinjiang",
    "url": "https://github.com/CSSEGISandData/COVID-19",
    "aggregate": "state",
    "rating": 0.7804878048780488,
    "featureId": 117,
    "population": 24870000,
    "name": "Xinjiang, CHN"
  },
  {
    "country": "CHN",
    "coordinates": [
      111.62347220837569,
      45.35383134546877
    ],
    "state": "Inner Mongolia",
    "url": "https://github.com/CSSEGISandData/COVID-19",
    "aggregate": "state",
    "rating": 0.7804878048780488,
    "featureId": 118,
    "population": 25000034,
    "name": "Inner Mongolia, CHN"
  },
  {
    "country": "CHN",
    "coordinates": [
      106.00808271719359,
      37.31081075681095
    ],
    "state": "Ningxia",
    "url": "https://github.com/CSSEGISandData/COVID-19",
    "aggregate": "state",
    "rating": 0.7804878048780488,
    "featureId": 119,
    "population": 6880000,
    "name": "Ningxia, CHN"
  },
  {
    "country": "TWN",
    "coordinates": [
      120.98259524850005,
      23.598456122000044
    ],
    "url": "https://github.com/CSSEGISandData/COVID-19",
    "aggregate": "state",
    "rating": 0.7317073170731707,
    "featureId": 120,
    "population": 23508428,
    "name": "TWN"
  },
  {
    "country": "VNM",
    "coordinates": [
      105.79183617800007,
      15.941768090000089
    ],
    "url": "https://github.com/CSSEGISandData/COVID-19",
    "aggregate": "state",
    "rating": 0.7317073170731707,
    "featureId": 121,
    "population": 96160163,
    "name": "VNM"
  },
  {
    "country": "RUS",
    "coordinates": [
      4.263256414560601e-14,
      61.240742495500065
    ],
    "url": "https://github.com/CSSEGISandData/COVID-19",
    "aggregate": "state",
    "rating": 0.7317073170731707,
    "featureId": 122,
    "population": 142257519,
    "name": "RUS"
  },
  {
    "country": "CHN",
    "coordinates": [
      96.23774885477579,
      35.43499502195269
    ],
    "state": "Qinghai",
    "url": "https://github.com/CSSEGISandData/COVID-19",
    "aggregate": "state",
    "rating": 0.7804878048780488,
    "featureId": 123,
    "population": 6030000,
    "name": "Qinghai, CHN"
  },
  {
    "country": "CHN",
    "coordinates": [
      113.55,
      22.1667
    ],
    "state": "Macau",
    "url": "https://github.com/CSSEGISandData/COVID-19",
    "aggregate": "state",
    "rating": 0.7804878048780488,
    "name": "Macau, CHN"
  },
  {
    "country": "MDA",
    "coordinates": [
      28.28525496400006,
      46.967069702500055
    ],
    "url": "https://github.com/CSSEGISandData/COVID-19",
    "aggregate": "state",
    "rating": 0.7317073170731707,
    "featureId": 125,
    "population": 3474121,
    "name": "MDA"
  },
  {
    "country": "BOL",
    "coordinates": [
      -63.58694087799992,
      -16.286937560999938
    ],
    "url": "https://github.com/CSSEGISandData/COVID-19",
    "aggregate": "state",
    "rating": 0.7317073170731707,
    "featureId": 126,
    "population": 11138234,
    "name": "BOL"
  },
  {
    "country": "DNK",
    "coordinates": [
      -6.9118,
      61.8926
    ],
    "state": "Faroe Islands",
    "url": "https://github.com/CSSEGISandData/COVID-19",
    "aggregate": "state",
    "rating": 0.7804878048780488,
    "name": "Faroe Islands, DNK"
  },
  {
    "country": "FRA",
    "coordinates": [
      -63.06228647314417,
      18.07776461717568
    ],
    "state": "St Martin",
    "url": "https://github.com/CSSEGISandData/COVID-19",
    "aggregate": "state",
    "rating": 0.7804878048780488,
    "featureId": 128,
    "name": "St Martin, FRA"
  },
  {
    "country": "HND",
    "coordinates": [
      -86.24603266122396,
      14.484747626000058
    ],
    "url": "https://github.com/CSSEGISandData/COVID-19",
    "aggregate": "state",
    "rating": 0.7317073170731707,
    "featureId": 129,
    "population": 9038741,
    "name": "HND"
  },
  {
    "country": "GBR",
    "coordinates": [
      -2.3644,
      49.3723
    ],
    "state": "Channel Islands",
    "url": "https://github.com/CSSEGISandData/COVID-19",
    "aggregate": "state",
    "rating": 0.7804878048780488,
    "name": "Channel Islands, GBR"
  },
  {
    "country": "CHN",
    "coordinates": [
      88.74489831230724,
      31.88221486755922
    ],
    "state": "Tibet",
    "url": "https://github.com/CSSEGISandData/COVID-19",
    "aggregate": "state",
    "rating": 0.7804878048780488,
    "featureId": 130,
    "population": 3440000,
    "name": "Tibet, CHN"
  },
  {
    "country": "COD",
    "coordinates": [
      21.726683794000053,
      -4.029468688999948
    ],
    "url": "https://github.com/CSSEGISandData/COVID-19",
    "aggregate": "state",
    "rating": 0.7317073170731707,
    "featureId": 131,
    "population": 83301151,
    "name": "COD"
  },
  {
    "country": "CIV",
    "coordinates": [
      -5.536220662499915,
      7.533667911000066
    ],
    "url": "https://github.com/CSSEGISandData/COVID-19",
    "aggregate": "state",
    "rating": 0.7317073170731707,
    "featureId": 132,
    "population": 24184810,
    "name": "CIV"
  },
  {
    "country": "FRA",
    "coordinates": [
      -62.82453365799992,
      17.903509833000072
    ],
    "state": "Saint Barthelemy",
    "url": "https://github.com/CSSEGISandData/COVID-19",
    "aggregate": "state",
    "rating": 0.7804878048780488,
    "featureId": 133,
    "population": 9793,
    "name": "Saint Barthelemy, FRA"
  },
  {
    "country": "JAM",
    "coordinates": [
      -77.30223548049992,
      18.11774323150007
    ],
    "url": "https://github.com/CSSEGISandData/COVID-19",
    "aggregate": "state",
    "rating": 0.7317073170731707,
    "featureId": 134,
    "population": 2990561,
    "name": "JAM"
  },
  {
    "country": "REU",
    "coordinates": [
      55.5364,
      -21.1151
    ],
    "url": "https://github.com/CSSEGISandData/COVID-19",
    "aggregate": "state",
    "rating": 0.7317073170731707,
    "name": "REU"
  },
  {
    "country": "TUR",
    "coordinates": [
      35.425474377000086,
      38.95576283850008
    ],
    "url": "https://github.com/CSSEGISandData/COVID-19",
    "aggregate": "state",
    "rating": 0.7317073170731707,
    "featureId": 135,
    "population": 80845215,
    "name": "TUR"
  },
  {
    "country": "GBR",
    "coordinates": [
      -5.348580120852014,
      36.13020456349999
    ],
    "state": "Gibraltar",
    "url": "https://github.com/CSSEGISandData/COVID-19",
    "aggregate": "state",
    "rating": 0.7804878048780488,
    "featureId": 136,
    "population": 32194,
    "name": "Gibraltar, GBR"
  },
  {
    "county": "Kitsap County",
    "state": "WA",
    "country": "USA",
    "coordinates": [
      -122.7433825,
      47.6719585
    ],
    "url": "https://www.doh.wa.gov/Emergencies/Coronavirus",
    "aggregate": "county",
    "rating": 0.6341463414634146,
    "featureId": 1863,
    "population": 269805,
    "name": "Kitsap County, WA, USA"
  },
  {
    "county": "Solano County",
    "state": "CA",
    "country": "USA",
    "coordinates": [
      -122.0001255,
      38.2871145
    ],
    "url": "https://docs.google.com/spreadsheets/d/1CwZA4RPNf_hUrwzNLyGGNHRlh1cwl8vDHwIoae51Hac/gviz/tq?tqx=out:csv&sheet=master",
    "aggregate": "county",
    "rating": 0.7073170731707317,
    "maintainers": [
      {
        "name": "John Bencina",
        "github": "jbencina",
        "country": "USA",
        "state": "CA",
        "flag": "ðŸ‡ºðŸ‡¸"
      }
    ],
    "curators": [
      {
        "name": "Harriet Rowan",
        "email": "hattierowan@gmail.com",
        "twitter": "@hattierowan",
        "github": "HarrietRowan"
      }
    ],
    "featureId": 658,
    "population": 446610,
    "name": "Solano County, CA, USA"
  },
  {
    "county": "Santa Cruz County",
    "state": "CA",
    "country": "USA",
    "coordinates": [
      -121.94941800000001,
      37.0683515
    ],
    "url": "https://docs.google.com/spreadsheets/d/1CwZA4RPNf_hUrwzNLyGGNHRlh1cwl8vDHwIoae51Hac/gviz/tq?tqx=out:csv&sheet=master",
    "aggregate": "county",
    "rating": 0.7073170731707317,
    "maintainers": [
      {
        "name": "John Bencina",
        "github": "jbencina",
        "country": "USA",
        "state": "CA",
        "flag": "ðŸ‡ºðŸ‡¸"
      }
    ],
    "curators": [
      {
        "name": "Harriet Rowan",
        "email": "hattierowan@gmail.com",
        "twitter": "@hattierowan",
        "github": "HarrietRowan"
      }
    ],
    "featureId": 654,
    "population": 274255,
    "name": "Santa Cruz County, CA, USA"
  },
  {
    "county": "Napa County",
    "state": "CA",
    "country": "USA",
    "coordinates": [
      -122.35855000000001,
      38.5095905
    ],
    "url": "https://docs.google.com/spreadsheets/d/1CwZA4RPNf_hUrwzNLyGGNHRlh1cwl8vDHwIoae51Hac/gviz/tq?tqx=out:csv&sheet=master",
    "aggregate": "county",
    "rating": 0.7073170731707317,
    "curators": [
      {
        "name": "Harriet Rowan",
        "email": "hattierowan@gmail.com",
        "twitter": "@hattierowan",
        "github": "HarrietRowan"
      }
    ],
    "featureId": 638,
    "population": 139417,
    "name": "Napa County, CA, USA"
  },
  {
    "county": "Ventura County",
    "state": "CA",
    "country": "USA",
    "coordinates": [
      -119.1057185,
      34.058353
    ],
    "url": "https://docs.google.com/spreadsheets/d/1CwZA4RPNf_hUrwzNLyGGNHRlh1cwl8vDHwIoae51Hac/gviz/tq?tqx=out:csv&sheet=master",
    "aggregate": "county",
    "rating": 0.7073170731707317,
    "maintainers": [
      {
        "name": "John Bencina",
        "github": "jbencina",
        "country": "USA",
        "state": "CA",
        "flag": "ðŸ‡ºðŸ‡¸"
      }
    ],
    "curators": [
      {
        "name": "Harriet Rowan",
        "email": "hattierowan@gmail.com",
        "twitter": "@hattierowan",
        "github": "HarrietRowan"
      }
    ],
    "featureId": 666,
    "population": 850967,
    "name": "Ventura County, CA, USA"
  },
  {
    "county": "Worcester County",
    "state": "MA",
    "country": "USA",
    "coordinates": [
      -71.8571,
      42.4097
    ],
    "url": "https://github.com/CSSEGISandData/COVID-19",
    "aggregate": "state",
    "rating": 0.8780487804878049,
    "name": "Worcester County, MA, USA"
  },
  {
    "county": "Gwinnett County",
    "state": "GA",
    "country": "USA",
    "coordinates": [
      -84.0167,
      33.9191
    ],
    "url": "https://github.com/CSSEGISandData/COVID-19",
    "aggregate": "state",
    "rating": 0.8780487804878049,
    "name": "Gwinnett County, GA, USA"
  },
  {
    "county": "DeKalb County",
    "state": "GA",
    "country": "USA",
    "coordinates": [
      -84.2279,
      33.7956
    ],
    "url": "https://github.com/CSSEGISandData/COVID-19",
    "aggregate": "state",
    "rating": 0.8780487804878049,
    "name": "DeKalb County, GA, USA"
  },
  {
    "county": "Floyd County",
    "state": "KY",
    "country": "USA",
    "coordinates": [
      -82.7779,
      37.5455
    ],
    "url": "https://github.com/CSSEGISandData/COVID-19",
    "aggregate": "state",
    "rating": 0.8780487804878049,
    "name": "Floyd County, KY, USA"
  },
  {
    "county": "Fayette County",
    "state": "GA",
    "country": "USA",
    "coordinates": [
      -84.4803,
      33.4502
    ],
    "url": "https://github.com/CSSEGISandData/COVID-19",
    "aggregate": "state",
    "rating": 0.8780487804878049,
    "name": "Fayette County, GA, USA"
  },
  {
    "county": "Gregg County",
    "state": "TX",
    "country": "USA",
    "coordinates": [
      -94.78307699999999,
      32.5138005
    ],
    "url": "https://www.dshs.state.tx.us/news/updates.shtm",
    "aggregate": "county",
    "rating": 0.5609756097560976,
    "certValidation": false,
    "featureId": 1582,
    "population": 123707,
    "name": "Gregg County, TX, USA"
  },
  {
    "county": "Monmouth County",
    "state": "NJ",
    "country": "USA",
    "coordinates": [
      -74.2928135,
      40.2778005
    ],
    "url": "https://opendata.arcgis.com/datasets/84737ef7f760486293b6afa536f028e0_0.csv",
    "aggregate": "county",
    "rating": 0.6097560975609756,
    "featureId": 1213,
    "population": 621354,
    "name": "Monmouth County, NJ, USA"
  },
  {
    "county": "Burlington County",
    "state": "NJ",
    "country": "USA",
    "coordinates": [
      -74.72494950000001,
      39.8658955
    ],
    "url": "https://opendata.arcgis.com/datasets/84737ef7f760486293b6afa536f028e0_0.csv",
    "aggregate": "county",
    "rating": 0.6097560975609756,
    "featureId": 1205,
    "population": 445384,
    "name": "Burlington County, NJ, USA"
  },
  {
    "county": "Camden County",
    "state": "NJ",
    "country": "USA",
    "coordinates": [
      -74.9381575,
      39.800549000000004
    ],
    "url": "https://opendata.arcgis.com/datasets/84737ef7f760486293b6afa536f028e0_0.csv",
    "aggregate": "county",
    "rating": 0.6097560975609756,
    "featureId": 1206,
    "population": 507078,
    "name": "Camden County, NJ, USA"
  },
  {
    "county": "Passaic County",
    "state": "NJ",
    "country": "USA",
    "coordinates": [
      -74.304839,
      41.0114805
    ],
    "url": "https://opendata.arcgis.com/datasets/84737ef7f760486293b6afa536f028e0_0.csv",
    "aggregate": "county",
    "rating": 0.6097560975609756,
    "featureId": 1215,
    "population": 503310,
    "name": "Passaic County, NJ, USA"
  },
  {
    "county": "Union County",
    "state": "NJ",
    "country": "USA",
    "coordinates": [
      -74.300027,
      40.665566
    ],
    "url": "https://opendata.arcgis.com/datasets/84737ef7f760486293b6afa536f028e0_0.csv",
    "aggregate": "county",
    "rating": 0.6097560975609756,
    "featureId": 1218,
    "population": 558067,
    "name": "Union County, NJ, USA"
  },
  {
    "county": "Eagle County",
    "state": "CO",
    "country": "USA",
    "coordinates": [
      -106.645068,
      39.6373275
    ],
    "url": "https://opendata.arcgis.com/datasets/dec84f18254341419c514af8f9e784ba_0.csv",
    "aggregate": "county",
    "rating": 0.6097560975609756,
    "population": 54895,
    "featureId": 557,
    "name": "Eagle County, CO, USA"
  },
  {
    "county": "Larimer County",
    "state": "CO",
    "country": "USA",
    "coordinates": [
      -105.5669625,
      40.628046999999995
    ],
    "url": "https://opendata.arcgis.com/datasets/dec84f18254341419c514af8f9e784ba_0.csv",
    "aggregate": "county",
    "rating": 0.6097560975609756,
    "population": 350424,
    "featureId": 581,
    "name": "Larimer County, CO, USA"
  },
  {
    "county": "Arapahoe County",
    "state": "CO",
    "country": "USA",
    "coordinates": [
      -104.38034350000001,
      39.6533655
    ],
    "url": "https://opendata.arcgis.com/datasets/dec84f18254341419c514af8f9e784ba_0.csv",
    "aggregate": "county",
    "rating": 0.6097560975609756,
    "population": 651513,
    "featureId": 601,
    "name": "Arapahoe County, CO, USA"
  },
  {
    "county": "Gunnison County",
    "state": "CO",
    "country": "USA",
    "coordinates": [
      -106.94099,
      38.702179
    ],
    "url": "https://opendata.arcgis.com/datasets/dec84f18254341419c514af8f9e784ba_0.csv",
    "aggregate": "county",
    "rating": 0.6097560975609756,
    "population": 17182,
    "featureId": 596,
    "name": "Gunnison County, CO, USA"
  },
  {
    "county": "Kane County",
    "state": "IL",
    "country": "USA",
    "coordinates": [
      -88.419968,
      41.9369435
    ],
    "url": "http://www.dph.illinois.gov/sites/default/files/COVID19/COVID19CountyResults.json",
    "aggregate": "state",
    "rating": 0.43902439024390244,
    "featureId": 784,
    "population": 534216,
    "name": "Kane County, IL, USA"
  },
  {
    "county": "Monroe County",
    "state": "PA",
    "country": "USA",
    "coordinates": [
      -75.2479,
      41.0458
    ],
    "url": "https://www.health.pa.gov/topics/disease/Pages/Coronavirus.aspx",
    "aggregate": "county",
    "rating": 0.5853658536585366,
    "name": "Monroe County, PA, USA"
  },
  {
    "county": "Philadelphia County",
    "state": "PA",
    "country": "USA",
    "coordinates": [
      -75.1652,
      39.9526
    ],
    "url": "https://www.health.pa.gov/topics/disease/Pages/Coronavirus.aspx",
    "aggregate": "county",
    "rating": 0.5853658536585366,
    "name": "Philadelphia County, PA, USA"
  },
  {
    "county": "Norfolk County",
    "state": "VA",
    "country": "USA",
    "coordinates": [
      -76.2859,
      36.8508
    ],
    "url": "https://github.com/CSSEGISandData/COVID-19",
    "aggregate": "state",
    "rating": 0.8780487804878049,
    "name": "Norfolk County, VA, USA"
  },
  {
    "county": "Arlington County",
    "state": "VA",
    "country": "USA",
    "coordinates": [
      -77.091,
      38.8816
    ],
    "url": "https://github.com/CSSEGISandData/COVID-19",
    "aggregate": "state",
    "rating": 0.8780487804878049,
    "name": "Arlington County, VA, USA"
  },
  {
    "county": "Spotsylvania County",
    "state": "VA",
    "country": "USA",
    "coordinates": [
      -77.6078,
      38.2042
    ],
    "url": "https://github.com/CSSEGISandData/COVID-19",
    "aggregate": "state",
    "rating": 0.8780487804878049,
    "name": "Spotsylvania County, VA, USA"
  },
  {
    "county": "Loudoun County",
    "state": "VA",
    "country": "USA",
    "coordinates": [
      -77.6536,
      39.0768
    ],
    "url": "https://github.com/CSSEGISandData/COVID-19",
    "aggregate": "state",
    "rating": 0.8780487804878049,
    "name": "Loudoun County, VA, USA"
  },
  {
    "county": "Prince George's County",
    "state": "MD",
    "country": "USA",
    "coordinates": [
      -76.87822,
      38.8331695
    ],
    "url": "https://opendata.arcgis.com/datasets/3d9ca88970dd4689a701354d7fa6830b_0.csv",
    "aggregate": "county",
    "rating": 0.8048780487804879,
    "featureId": 1013,
    "population": 909308,
    "name": "Prince George's County, MD, USA"
  },
  {
    "county": "Pottawattamie County",
    "state": "IA",
    "country": "USA",
    "coordinates": [
      -95.4778,
      41.3912
    ],
    "url": "https://github.com/CSSEGISandData/COVID-19",
    "aggregate": "state",
    "rating": 0.8780487804878049,
    "name": "Pottawattamie County, IA, USA"
  },
  {
    "county": "Kershaw County",
    "state": "SC",
    "country": "USA",
    "coordinates": [
      -80.607,
      34.2465
    ],
    "url": "https://github.com/CSSEGISandData/COVID-19",
    "aggregate": "state",
    "rating": 0.8780487804878049,
    "name": "Kershaw County, SC, USA"
  },
  {
    "county": "Pima County",
    "state": "AZ",
    "country": "USA",
    "coordinates": [
      -111.6661,
      32.0575
    ],
    "url": "https://github.com/CSSEGISandData/COVID-19",
    "aggregate": "state",
    "rating": 0.8780487804878049,
    "name": "Pima County, AZ, USA"
  },
  {
    "county": "Noble County",
    "state": "IN",
    "country": "USA",
    "coordinates": [
      -85.42342049999999,
      41.3952975
    ],
    "url": "https://opendata.arcgis.com/datasets/d14de7e28b0448ab82eb36d6f25b1ea1_0.csv",
    "aggregate": "county",
    "rating": 0.8048780487804879,
    "featureId": 848,
    "population": 47532,
    "name": "Noble County, IN, USA"
  },
  {
    "county": "Adams County",
    "state": "PA",
    "country": "USA",
    "coordinates": [
      -77.2865,
      39.8522
    ],
    "url": "https://github.com/CSSEGISandData/COVID-19",
    "aggregate": "state",
    "rating": 0.8780487804878049,
    "name": "Adams County, PA, USA"
  },
  {
    "county": "Boone County",
    "state": "IN",
    "country": "USA",
    "coordinates": [
      -86.4677715,
      40.051773999999995
    ],
    "url": "https://opendata.arcgis.com/datasets/d14de7e28b0448ab82eb36d6f25b1ea1_0.csv",
    "aggregate": "county",
    "rating": 0.8048780487804879,
    "featureId": 843,
    "population": 66999,
    "name": "Boone County, IN, USA"
  },
  {
    "county": "Dane County",
    "state": "WI",
    "country": "USA",
    "coordinates": [
      -89.4235435,
      43.069541
    ],
    "url": "https://services1.arcgis.com/ISZ89Z51ft1G16OK/arcgis/rest/services/COVID19_WI/FeatureServer/0//query?where=1%3D1&objectIds=&time=&geometry=&geometryType=esriGeometryEnvelope&inSR=&spatialRel=esriSpatialRelIntersects&resultType=none&distance=0.0&units=esriSRUnit_Meter&returnGeodetic=false&outFields=NAME%2CPOSITIVE%2CDATE%2CCMNTY_SPRD&returnGeometry=true&featureEncoding=esriDefault&multipatchOption=xyFootprint&maxAllowableOffset=&geometryPrecision=&outSR=&datumTransformation=&applyVCSProjection=false&returnIdsOnly=false&returnUniqueIdsOnly=false&returnCountOnly=false&returnExtentOnly=false&returnQueryGeometry=false&returnDistinctValues=false&cacheHint=false&orderByFields=NAME+ASC&groupByFieldsForStatistics=&outStatistics=&having=&resultOffset=&resultRecordCount=&returnZ=false&returnM=false&returnExceededLimitFeatures=true&quantizationParameters=&sqlFormat=none&f=pjson&token=",
    "aggregate": "county",
    "rating": 0.6097560975609756,
    "featureId": 1896,
    "population": 542364,
    "name": "Dane County, WI, USA"
  },
  {
    "county": "Pierce County",
    "state": "WI",
    "country": "USA",
    "coordinates": [
      -92.47159500000001,
      44.7007885
    ],
    "url": "https://services1.arcgis.com/ISZ89Z51ft1G16OK/arcgis/rest/services/COVID19_WI/FeatureServer/0//query?where=1%3D1&objectIds=&time=&geometry=&geometryType=esriGeometryEnvelope&inSR=&spatialRel=esriSpatialRelIntersects&resultType=none&distance=0.0&units=esriSRUnit_Meter&returnGeodetic=false&outFields=NAME%2CPOSITIVE%2CDATE%2CCMNTY_SPRD&returnGeometry=true&featureEncoding=esriDefault&multipatchOption=xyFootprint&maxAllowableOffset=&geometryPrecision=&outSR=&datumTransformation=&applyVCSProjection=false&returnIdsOnly=false&returnUniqueIdsOnly=false&returnCountOnly=false&returnExtentOnly=false&returnQueryGeometry=false&returnDistinctValues=false&cacheHint=false&orderByFields=NAME+ASC&groupByFieldsForStatistics=&outStatistics=&having=&resultOffset=&resultRecordCount=&returnZ=false&returnM=false&returnExceededLimitFeatures=true&quantizationParameters=&sqlFormat=none&f=pjson&token=",
    "aggregate": "county",
    "rating": 0.6097560975609756,
    "featureId": 1904,
    "population": 42555,
    "name": "Pierce County, WI, USA"
  },
  {
    "county": "Cuyahoga County",
    "state": "OH",
    "country": "USA",
    "coordinates": [
      -81.67301699999999,
      41.453196000000005
    ],
    "url": "https://coronavirus.ohio.gov/wps/portal/gov/covid-19/",
    "aggregate": "county",
    "rating": 0.5609756097560976,
    "featureId": 1291,
    "population": 1243857,
    "name": "Cuyahoga County, OH, USA"
  },
  {
    "county": "Weber County",
    "state": "UT",
    "country": "USA",
    "coordinates": [
      -111.9569765,
      41.2552205
    ],
    "url": "https://coronavirus-dashboard.utah.gov/",
    "aggregate": "county",
    "rating": 0.5853658536585366,
    "featureId": 1834,
    "population": 256359,
    "name": "Weber County, UT, USA"
  },
  {
    "county": "Bennington County",
    "state": "VT",
    "country": "USA",
    "coordinates": [
      -73.135,
      43.0279
    ],
    "url": "https://github.com/CSSEGISandData/COVID-19",
    "aggregate": "state",
    "rating": 0.8780487804878049,
    "name": "Bennington County, VT, USA"
  },
  {
    "county": "Carver County",
    "state": "MN",
    "country": "USA",
    "coordinates": [
      -93.7842,
      44.8254
    ],
    "url": "https://github.com/CSSEGISandData/COVID-19",
    "aggregate": "state",
    "rating": 0.8780487804878049,
    "name": "Carver County, MN, USA"
  },
  {
    "county": "Charlotte County",
    "state": "FL",
    "country": "USA",
    "coordinates": [
      -81.9689695,
      26.902401
    ],
    "url": "https://opendata.arcgis.com/datasets/b4930af3f43a48138c70bca409b5c452_0.csv",
    "aggregate": "county",
    "rating": 0.6097560975609756,
    "featureId": 676,
    "population": 184998,
    "name": "Charlotte County, FL, USA"
  },
  {
    "county": "Cherokee County",
    "state": "GA",
    "country": "USA",
    "coordinates": [
      -84.4803,
      34.2515
    ],
    "url": "https://github.com/CSSEGISandData/COVID-19",
    "aggregate": "state",
    "rating": 0.8780487804878049,
    "name": "Cherokee County, GA, USA"
  },
  {
    "county": "Collin County",
    "state": "TX",
    "country": "USA",
    "coordinates": [
      -96.569696,
      33.193628000000004
    ],
    "url": "https://www.dshs.state.tx.us/news/updates.shtm",
    "aggregate": "county",
    "rating": 0.5609756097560976,
    "certValidation": false,
    "featureId": 1575,
    "population": 1005146,
    "name": "Collin County, TX, USA"
  },
  {
    "county": "Jefferson County",
    "state": "KY",
    "country": "USA",
    "coordinates": [
      -85.6435,
      38.1938
    ],
    "url": "https://github.com/CSSEGISandData/COVID-19",
    "aggregate": "state",
    "rating": 0.8780487804878049,
    "name": "Jefferson County, KY, USA"
  },
  {
    "county": "Jefferson County",
    "state": "LA",
    "country": "USA",
    "coordinates": [
      -90.1121,
      29.6499
    ],
    "url": "https://github.com/CSSEGISandData/COVID-19",
    "aggregate": "state",
    "rating": 0.8780487804878049,
    "name": "Jefferson County, LA, USA"
  },
  {
    "county": "Shasta County",
    "state": "CA",
    "country": "USA",
    "coordinates": [
      -122.192699,
      40.7359105
    ],
    "url": "https://docs.google.com/spreadsheets/d/1CwZA4RPNf_hUrwzNLyGGNHRlh1cwl8vDHwIoae51Hac/gviz/tq?tqx=out:csv&sheet=master",
    "aggregate": "county",
    "rating": 0.7073170731707317,
    "maintainers": [
      {
        "name": "John Bencina",
        "github": "jbencina",
        "country": "USA",
        "state": "CA",
        "flag": "ðŸ‡ºðŸ‡¸"
      }
    ],
    "curators": [
      {
        "name": "Harriet Rowan",
        "email": "hattierowan@gmail.com",
        "twitter": "@hattierowan",
        "github": "HarrietRowan"
      }
    ],
    "featureId": 655,
    "population": 180040,
    "name": "Shasta County, CA, USA"
  },
  {
    "county": "Spartanburg County",
    "state": "SC",
    "country": "USA",
    "coordinates": [
      -81.9535,
      34.8606
    ],
    "url": "https://github.com/CSSEGISandData/COVID-19",
    "aggregate": "state",
    "rating": 0.8780487804878049,
    "name": "Spartanburg County, SC, USA"
  },
  {
    "county": "Harrison County",
    "state": "KY",
    "country": "USA",
    "coordinates": [
      -84.3542,
      38.4333
    ],
    "url": "https://github.com/CSSEGISandData/COVID-19",
    "aggregate": "state",
    "rating": 0.8780487804878049,
    "name": "Harrison County, KY, USA"
  },
  {
    "county": "Johnson County",
    "state": "IA",
    "country": "USA",
    "coordinates": [
      -91.5984,
      41.6699
    ],
    "url": "https://github.com/CSSEGISandData/COVID-19",
    "aggregate": "state",
    "rating": 0.8780487804878049,
    "name": "Johnson County, IA, USA"
  },
  {
    "county": "Berkshire County",
    "state": "MA",
    "country": "USA",
    "coordinates": [
      -73.1822,
      42.3118
    ],
    "url": "https://github.com/CSSEGISandData/COVID-19",
    "aggregate": "state",
    "rating": 0.8780487804878049,
    "name": "Berkshire County, MA, USA"
  },
  {
    "county": "Davidson County",
    "state": "TN",
    "country": "USA",
    "coordinates": [
      -86.7851325,
      36.186859999999996
    ],
    "url": "https://www.tn.gov/health/cedep/ncov.html",
    "aggregate": "county",
    "rating": 0.5853658536585366,
    "featureId": 1478,
    "population": 692587,
    "name": "Davidson County, TN, USA"
  },
  {
    "county": "Douglas County",
    "state": "OR",
    "country": "USA",
    "coordinates": [
      -123.0963585,
      43.3222345
    ],
    "url": "https://www.oregon.gov/oha/PH/DISEASESCONDITIONS/DISEASESAZ/Pages/emerging-respiratory-infections.aspx",
    "aggregate": "county",
    "rating": 0.6829268292682927,
    "featureId": 1377,
    "population": 110283,
    "name": "Douglas County, OR, USA"
  },
  {
    "county": "Fresno County",
    "state": "CA",
    "country": "USA",
    "coordinates": [
      -119.6396585,
      36.7464615
    ],
    "url": "https://docs.google.com/spreadsheets/d/1CwZA4RPNf_hUrwzNLyGGNHRlh1cwl8vDHwIoae51Hac/gviz/tq?tqx=out:csv&sheet=master",
    "aggregate": "county",
    "rating": 0.7073170731707317,
    "maintainers": [
      {
        "name": "John Bencina",
        "github": "jbencina",
        "country": "USA",
        "state": "CA",
        "flag": "ðŸ‡ºðŸ‡¸"
      }
    ],
    "curators": [
      {
        "name": "Harriet Rowan",
        "email": "hattierowan@gmail.com",
        "twitter": "@hattierowan",
        "github": "HarrietRowan"
      }
    ],
    "featureId": 620,
    "population": 994400,
    "name": "Fresno County, CA, USA"
  },
  {
    "county": "Harford County",
    "state": "MD",
    "country": "USA",
    "coordinates": [
      -76.315203,
      39.5117065
    ],
    "url": "https://opendata.arcgis.com/datasets/3d9ca88970dd4689a701354d7fa6830b_0.csv",
    "aggregate": "county",
    "rating": 0.8048780487804879,
    "featureId": 1009,
    "population": 253956,
    "name": "Harford County, MD, USA"
  },
  {
    "county": "Hendricks County",
    "state": "IN",
    "country": "USA",
    "coordinates": [
      -86.510613,
      39.762399
    ],
    "url": "https://opendata.arcgis.com/datasets/d14de7e28b0448ab82eb36d6f25b1ea1_0.csv",
    "aggregate": "county",
    "rating": 0.8048780487804879,
    "featureId": 859,
    "population": 167009,
    "name": "Hendricks County, IN, USA"
  },
  {
    "county": "Hudson County",
    "state": "NJ",
    "country": "USA",
    "coordinates": [
      -74.07540449999999,
      40.732721999999995
    ],
    "url": "https://opendata.arcgis.com/datasets/84737ef7f760486293b6afa536f028e0_0.csv",
    "aggregate": "county",
    "rating": 0.6097560975609756,
    "featureId": 1210,
    "population": 676061,
    "name": "Hudson County, NJ, USA"
  },
  {
    "county": "Johnson County",
    "state": "KS",
    "country": "USA",
    "coordinates": [
      -94.8521,
      38.8454
    ],
    "url": "https://github.com/CSSEGISandData/COVID-19",
    "aggregate": "state",
    "rating": 0.8780487804878049,
    "name": "Johnson County, KS, USA"
  },
  {
    "county": "Kittitas County",
    "state": "WA",
    "country": "USA",
    "coordinates": [
      -120.688514,
      47.167153
    ],
    "url": "https://www.doh.wa.gov/Emergencies/Coronavirus",
    "aggregate": "county",
    "rating": 0.6341463414634146,
    "featureId": 1864,
    "population": 47364,
    "name": "Kittitas County, WA, USA"
  },
  {
    "county": "Manatee County",
    "state": "FL",
    "country": "USA",
    "coordinates": [
      -82.4000485,
      27.4272245
    ],
    "url": "https://opendata.arcgis.com/datasets/b4930af3f43a48138c70bca409b5c452_0.csv",
    "aggregate": "county",
    "rating": 0.6097560975609756,
    "featureId": 688,
    "population": 394855,
    "name": "Manatee County, FL, USA"
  },
  {
    "county": "Marion County",
    "state": "OR",
    "country": "USA",
    "coordinates": [
      -122.4575375,
      44.984239
    ],
    "url": "https://www.oregon.gov/oha/PH/DISEASESCONDITIONS/DISEASESAZ/Pages/emerging-respiratory-infections.aspx",
    "aggregate": "county",
    "rating": 0.6829268292682927,
    "featureId": 1382,
    "population": 346868,
    "name": "Marion County, OR, USA"
  },
  {
    "county": "Okaloosa County",
    "state": "FL",
    "country": "USA",
    "coordinates": [
      -86.59446449999999,
      30.687763500000003
    ],
    "url": "https://opendata.arcgis.com/datasets/b4930af3f43a48138c70bca409b5c452_0.csv",
    "aggregate": "county",
    "rating": 0.6097560975609756,
    "featureId": 690,
    "population": 207269,
    "name": "Okaloosa County, FL, USA"
  },
  {
    "county": "Polk County",
    "state": "GA",
    "country": "USA",
    "coordinates": [
      -85.1479,
      34.0132
    ],
    "url": "https://github.com/CSSEGISandData/COVID-19",
    "aggregate": "state",
    "rating": 0.8780487804878049,
    "name": "Polk County, GA, USA"
  },
  {
    "county": "Riverside County",
    "state": "CA",
    "country": "USA",
    "coordinates": [
      -116.05561750000001,
      33.752829500000004
    ],
    "url": "https://docs.google.com/spreadsheets/d/1CwZA4RPNf_hUrwzNLyGGNHRlh1cwl8vDHwIoae51Hac/gviz/tq?tqx=out:csv&sheet=master",
    "aggregate": "county",
    "rating": 0.7073170731707317,
    "maintainers": [
      {
        "name": "John Bencina",
        "github": "jbencina",
        "country": "USA",
        "state": "CA",
        "flag": "ðŸ‡ºðŸ‡¸"
      }
    ],
    "curators": [
      {
        "name": "Harriet Rowan",
        "email": "hattierowan@gmail.com",
        "twitter": "@hattierowan",
        "github": "HarrietRowan"
      }
    ],
    "featureId": 643,
    "population": 2450758,
    "name": "Riverside County, CA, USA"
  },